"lineid","car","time","location","longitude","latitude","cityid","cityname"
"234007","207-UY","2017/10/23 18:09:37","新北市永和區環河東路一段164號","121.52153","25.0145133333333","6500400","永和區"
"234026","9371-KE","2017/10/23 18:09:37","新北市永和區秀朗路一段10巷21號","121.513328333333","25.0062533333333","6500400","永和區"
"234011","9373-KE","2017/10/23 16:22:23","新北市永和區福和路1號","121.526403333333","25.0097366666667","6500400","永和區"
"249005","172-UM","2017/10/23 18:09:34","新北市八里區荖阡坑路15-40號","121.4018","25.1397966666667","6502300","八里區"
"249001","173-UM","2017/10/23 18:09:44","新北市八里區龍米路二段9號","121.448771666667","25.13933","6502300","八里區"
"249004","303-UY","2017/10/23 18:09:50","新北市八里區龍米路二段192號","121.433843333333","25.158515","6502300","八里區"
"249002","305-UY","2017/10/23 18:09:38","新北市八里區龍米路一段356巷5號","121.452253333333","25.131265","6502300","八里區"
"249003","759-BX","2017/10/23 18:09:45","新北市八里區中華路二段165巷19弄20號","121.410121666667","25.1515933333333","6502300","八里區"
"248014","025-BX","2017/10/23 18:09:15","新北市五股區成泰路一段198號","121.435891666667","25.0785433333333","6501500","五股區"
"248016","026-BX","2017/10/23 18:09:32","新北市五股區新五路二段558號","121.443025","25.085805","6501500","五股區"
"248006","077-UY","2017/10/23 18:09:40","新北市五股區中興路二段95號","121.460396666667","25.07747","6501500","五股區"
"248008","095-VK","2017/10/23 18:09:46","新北市五股區更洲路32巷15弄3號","121.458588333333","25.08034","6501500","五股區"
"248018","225-UY","2017/10/23 18:09:31","新北市五股區中興路三段196號","121.442275","25.0818266666667","6501500","五股區"
"248012","247-BX","2017/10/23 18:09:47","新北市五股區中興路三段196號","121.442341666667","25.0818166666667","6501500","五股區"
"248010","272-BY","2017/10/23 18:09:47","新北市五股區新五路二段121號","121.437666666667","25.0788016666667","6501500","五股區"
"248004","677-BX","2017/10/23 18:09:40","新北市五股區工商路30號","121.439435","25.0835216666667","6501500","五股區"
"248002","678-BX","2017/10/23 18:09:38","新北市五股區中興路三段198號","121.441806666667","25.0819633333333","6501500","五股區"
"232011","375-UM","2017/10/23 18:09:31","新北市坪林區坪林街16-1號","121.712486666667","24.9362866666667","6502000","坪林區"
"244013","069-UM","2017/10/23 18:09:38","新北市林口區中山路130號","121.39252","25.07865","6501700","林口區"
"244007","080-UY","2017/10/23 18:09:35","新北市林口區竹林路560號","121.38699","25.0839983333333","6501700","林口區"
"244019","403-UM","2017/10/23 18:09:39","新北市林口區忠孝路542巷5弄3號","121.373295","25.06761","6501700","林口區"
"244025","742-UY","2017/10/23 18:09:36","新北市林口區文化北路一段301-1號","121.360261666667","25.0729283333333","6501700","林口區"
"244009","410-SL","2017/10/23 18:09:50","新北市林口區佳林路82-1號","121.385745","25.08017","6501700","林口區"
"244023","483-VK","2017/10/23 18:09:37","新北市林口區東湖路153巷9號","121.382671666667","25.072835","6501700","林口區"
"244017","485-VK","2017/10/23 18:09:51","新北市林口區文化一路一段57-2號","121.371121666667","25.0697916666667","6501700","林口區"
"244011","701-TV","2017/10/23 18:09:41","新北市林口區中正路54號","121.395133333333","25.0774783333333","6501700","林口區"
"244021","838-TS","2017/10/23 18:09:39","新北市林口區自強三街28-1號","121.398671666667","25.07688","6501700","林口區"
"243013","AAD-798","2017/10/23 18:09:39","新北市泰山區犁頭窠16號","121.421018333333","25.053","6501600","泰山區"
"243009","297-R6","2017/10/23 15:50:39","新北市泰山區黎明路25號","121.421936666667","25.0609916666667","6501600","泰山區"
"243015","380-SR","2017/10/23 17:46:49","新北市泰山區黎明路25號","121.422223333333","25.0607","6501600","泰山區"
"243016","680-BX","2017/10/23 16:07:00","新北市泰山區黎明路25號","121.422225","25.0606783333333","6501600","泰山區"
"222003","436-BY","2017/10/23 18:09:48","新北市深坑區腳坑5號","121.610078333333","24.9946516666667","6501800","深坑區"
"222001","628-TS","2017/10/23 18:09:32","新北市深坑區北深路二段118號","121.616635","25.0031616666667","6501800","深坑區"
"222002","659-BX","2017/10/23 18:09:44","新北市深坑區文化街42號","121.619081666667","25.00162","6501800","深坑區"
"231059","046-UY","2017/10/23 18:09:32","新北市新店區安華路28-1號","121.51958","24.960765","6500600","新店區"
"231061","047-UY","2017/10/23 18:09:37","新北市新店區安華路28-1號","121.5191","24.960895","6500600","新店區"
"231060","106-UY","2017/10/23 18:09:37","新北市新店區安華路28-1號","121.519601666667","24.9607583333333","6500600","新店區"
"231052","187-VK","2017/10/23 18:09:37","新北市新店區安華路28-1號","121.519585","24.9611433333333","6500600","新店區"
"231046","278-BY","2017/10/23 18:09:38","新北市新店區直潭路115號","121.531743333333","24.9363733333333","6500600","新店區"
"231058","3712-VJ","2017/10/23 18:09:38","新北市新店區安華路1-1號","121.519198333333","24.96051","6500600","新店區"
"231055","3713-VJ","2017/10/23 18:09:39","新北市新店區安華路28-1號","121.519228333333","24.960735","6500600","新店區"
"231056","4716-K9","2017/10/23 18:09:39","新北市新店區安華路28-1號","121.519625","24.96105","6500600","新店區"
"231067","4772-VM","2017/10/23 18:09:50","新北市新店區安華路28-1號","121.519246666667","24.9606066666667","6500600","新店區"
"231065","512-UM","2017/10/23 18:09:45","新北市新店區安華路28-1號","121.519353333333","24.9612316666667","6500600","新店區"
"231040","619-UM","2017/10/23 18:09:41","新北市新店區安華路28-1號","121.519571666667","24.9609616666667","6500600","新店區"
"231049","719-UM","2017/10/23 18:09:34","新北市新店區安華路28-1號","121.519493333333","24.9614483333333","6500600","新店區"
"231051","719-UY","2017/10/23 18:09:32","新北市新店區安華路28-1號","121.519668333333","24.9605833333333","6500600","新店區"
"231062","720-UM","2017/10/23 18:09:36","新北市新店區安華路28-1號","121.519276666667","24.961185","6500600","新店區"
"231044","897-TW","2017/10/23 18:09:45","新北市新店區安華路28-1號","121.519758333333","24.9607266666667","6500600","新店區"
"231045","898-TW","2017/10/23 18:09:39","新北市新店區安華路28-1號","121.519411666667","24.9609616666667","6500600","新店區"
"241024","743-BX","2017/10/23 18:09:41","新北市三重區中正北路193巷35弄39號","121.477706666667","25.0711633333333","6500200","三重區"
"241033","AAC-255","2017/10/23 18:09:52","新北市三重區光復路一段68巷38號","121.47054","25.0493183333333","6500200","三重區"
"235064","005-UY","2017/10/23 18:09:36","新北市中和區錦和路350-1號","121.490511666667","24.9935966666667","6500300","中和區"
"235063","006-UY","2017/10/23 18:09:47","新北市中和區員山路36巷16-3號","121.485073333333","24.991325","6500300","中和區"
"235056","096-UM","2017/10/23 18:09:45","新北市中和區新生街258號","121.483703333333","24.9974066666667","6500300","中和區"
"235065","098-UM","2017/10/23 18:09:45","新北市中和區民樂路81號","121.485013333333","25.00149","6500300","中和區"
"235058","151-BY","2017/10/23 18:09:41","新北市中和區圓通路367巷33弄59號","121.495625","24.9861583333333","6500300","中和區"
"235038","185-VK","2017/10/23 18:09:41","新北市中和區景平路231號","121.510213333333","24.9927083333333","6500300","中和區"
"235067","255-BX","2017/10/23 18:09:45","新北市中和區和城路一段271巷1號","121.485475","24.99195","6500300","中和區"
"235043","352-BY","2017/10/23 18:09:50","新北市中和區員山路36巷16-2號","121.485278333333","24.9916633333333","6500300","中和區"
"235051","376-QA","2017/10/23 18:09:32","新北市中和區興南路一段86號","121.50991","24.9893233333333","6500300","中和區"
"235061","378-QA","2017/10/23 18:09:48","新北市中和區中正路637巷52弄9號","121.485025","24.9936633333333","6500300","中和區"
"235050","4979-A6","2017/10/23 18:09:52","新北市中和區錦和路350-1號","121.490553333333","24.9935783333333","6500300","中和區"
"235069","4980-A6","2017/10/23 18:09:31","新北市中和區中正路637巷60弄61號","121.485413333333","24.993195","6500300","中和區"
"235042","551-UM","2017/10/23 18:09:46","新北市中和區景平路337號","121.505405","24.993355","6500300","中和區"
"235070","558-UM","2017/10/23 18:09:31","新北市中和區員山路36巷16-2號","121.485343333333","24.99175","6500300","中和區"
"235045","565-BX","2017/10/23 18:09:33","新北市中和區中正路637巷52弄1號","121.48545","24.9935","6500300","中和區"
"235054","640-BX","2017/10/23 18:09:39","新北市中和區員山路82巷10弄7號","121.481556666667","24.9936116666667","6500300","中和區"
"235060","647-TV","2017/10/23 18:09:43","新北市中和區員山路36巷16-3號","121.484851666667","24.991695","6500300","中和區"
"235062","800-TS","2017/10/23 18:09:43","新北市中和區中山路二段480號","121.487725","25.004875","6500300","中和區"
"235052","805-TS","2017/10/23 18:09:38","新北市中和區錦和路350-1號","121.49007","24.9935866666667","6500300","中和區"
"235053","900-TW","2017/10/23 18:09:41","新北市中和區員山路36巷16-2號","121.485283333333","24.99157","6500300","中和區"
"235037","AAC-213","2017/10/23 18:09:43","新北市中和區景平路275號","121.507881666667","24.99308","6500300","中和區"
"235059","AAC-215","2017/10/23 18:09:30","新北市中和區員山路36巷16-3號","121.485016666667","24.9912416666667","6500300","中和區"
"247012","546-UM","2017/10/23 18:09:53","新北市蘆洲區民族路87號","121.479435","25.0861416666667","6501400","蘆洲區"
"247002","337-TH","2017/10/23 18:09:33","新北市蘆洲區永平街32巷69弄5號","121.459683333333","25.0931733333333","6501400","蘆洲區"
"247008","053-VK","2017/10/23 18:09:48","新北市五股區中興路二段182巷15弄13號","121.457283333333","25.08144","6501400","蘆洲區"
"226004","312-R5","2017/10/23 18:09:34","新北市平溪區菁桐里菁桐街165號","121.723078333333","25.02342","6502400","平溪區"
"228003","097-TW","2017/10/23 18:09:30","新北市貢寮區真理里美艷山街6-2號","121.92893","25.0607333333333","6502600","貢寮區"
"228002","585-TW","2017/10/23 18:09:38","新北市貢寮區福連里馬崗街1號","121.995086666667","25.01502","6502600","貢寮區"
"228001","670-TC","2017/10/23 18:09:48","新北市貢寮區真理里新港街26巷55弄2-1號","121.927381666667","25.0528966666667","6502600","貢寮區"
"224006","676-BX","2017/10/23 18:09:53","新北市瑞芳區傑魚坑路70號","121.793058333333","25.1105416666667","6501200","瑞芳區"
"224002","639-TC","2017/10/23 18:09:41","新北市瑞芳區三爪子坑路64-22號","121.809381666667","25.105465","6501200","瑞芳區"
"224009","285-BY","2017/10/23 18:09:32","新北市瑞芳區金光路117號","121.853395","25.1061533333333","6501200","瑞芳區"
"224008","275-VK","2017/10/23 18:09:50","新北市瑞芳區員山子路23號","121.821406666667","25.1030133333333","6501200","瑞芳區"
"224007","273-VK","2017/10/23 18:09:46","新北市瑞芳區四腳亭坑路8號","121.777781666667","25.1097416666667","6501200","瑞芳區"
"224005","271-BY","2017/10/23 18:09:48","新北市瑞芳區深澳路10-3號","121.81745","25.12925","6501200","瑞芳區"
"227008","400-TW","2017/10/23 17:14:31","新北市雙溪區三貂里定福路1-2號","121.850743333333","25.06344","6502500","雙溪區"
"253005","032-BX","2017/10/23 18:09:40","新北市石門區福安街11號","121.56851","25.2927183333333","6502200","石門區"
"253006","295-VK","2017/10/23 18:09:29","新北市石門區老梅路52巷19號","121.546391666667","25.2886083333333","6502200","石門區"
"208002","742-BX","2017/10/23 18:09:35","新北市金山區半嶺1號","121.619001666667","25.23308","6502700","金山區"
"208003","665-BX","2017/10/23 18:09:34","新北市金山區磺港里磺港路48-1號","121.647851666667","25.2283566666667","6502700","金山區"
"208001","761-BX","2017/10/23 18:09:52","新北市金山區磺港里磺港路71號","121.647343333333","25.22682","6502700","金山區"
"251009","008-UM","2017/10/23 18:09:32","新北市淡水區大忠街34巷10號","121.44352","25.175485","6501000","淡水區"
"251004","009-UM","2017/10/23 18:09:46","新北市淡水區民族路110巷11號","121.461853333333","25.135425","6501000","淡水區"
"251001","011-UM","2017/10/23 18:09:46","新北市淡水區自立路8-6號","121.463131666667","25.1294416666667","6501000","淡水區"
"251008","181-VK","2017/10/23 18:09:32","新北市淡水區中正東路二段7號","121.458301666667","25.159015","6501000","淡水區"
"251013","182-VK","2017/10/23 18:09:51","新北市淡水區桂花樹4-3號","121.47653","25.195375","6501000","淡水區"
"251010","413-VK","2017/10/23 18:09:53","新北市淡水區中正路二段50巷10號","121.419871666667","25.183375","6501000","淡水區"
"251012","441-VK","2017/10/23 18:09:43","新北市淡水區北新路三段174號","121.492861666667","25.19284","6501000","淡水區"
"251015","442-VK","2017/10/23 18:09:48","新北市淡水區興福寮88巷1號","121.4856","25.1651133333333","6501000","淡水區"
"251005","443-VK","2017/10/23 18:09:44","新北市淡水區水源街一段141號","121.44724","25.1719383333333","6501000","淡水區"
"251006","561-UM","2017/10/23 18:09:51","新北市淡水區新民街79號","121.438036666667","25.17673","6501000","淡水區"
"251011","650-BX","2017/10/23 18:09:45","新北市淡水區三空泉9-2號","121.474145","25.16353","6501000","淡水區"
"251002","672-BX","2017/10/23 18:09:48","新北市淡水區中正東路一段64號","121.45282","25.1618983333333","6501000","淡水區"
"251003","766-UM","2017/10/23 18:09:51","新北市淡水區北新路182巷32號","121.448791666667","25.177845","6501000","淡水區"
"207003","550-UM","2017/10/23 18:09:44","新北市萬里區野柳里港西路70-3號","121.685463333333","25.20478","6502800","萬里區"
"207004","225-TW","2017/10/23 18:09:50","新北市萬里區中幅里中福路115號","121.676411666667","25.1683866666667","6502800","萬里區"
"252003","249-BX","2017/10/23 18:09:39","新北市三芝區埔頭里埔頭37號","121.498715","25.2605133333333","6502100","三芝區"
"252001","292-VK","2017/10/23 18:09:35","新北市三芝區中興街二段2號","121.498395","25.2567316666667","6502100","三芝區"
"237004","078-UY","2017/10/23 18:09:45","新北市三峽區大埔路150-1號","121.366511666667","24.9018716666667","6500900","三峽區"
"237007","153-BY","2017/10/23 18:09:38","新北市三峽區中正路二段370巷75號","121.364355","24.9114816666667","6500900","三峽區"
"237009","210-TH","2017/10/23 18:09:34","新北市三峽區大仁路50巷7號","121.365245","24.9378866666667","6500900","三峽區"
"237013","252-BX","2017/10/23 18:09:45","新北市三峽區長泰街70-2號","121.376736666667","24.9335583333333","6500900","三峽區"
"237012","275-BY","2017/10/23 18:09:40","新北市三峽區民生街1巷1-39號","121.377256666667","24.9356866666667","6500900","三峽區"
"237008","302-VK","2017/10/23 18:09:31","新北市三峽區白雞44號","121.378893333333","24.9107683333333","6500900","三峽區"
"237014","433-BY","2017/10/23 18:09:36","新北市三峽區和平街93號","121.370261666667","24.9378283333333","6500900","三峽區"
"237006","5529-G3","2017/10/23 18:09:48","新北市三峽區介壽路三段7號","121.395528333333","24.9362433333333","6500900","三峽區"
"237011","572-TV","2017/10/23 18:09:18","新北市三峽區橫溪路1號","121.396078333333","24.9361666666667","6500900","三峽區"
"237015","649-BX","2017/10/23 18:09:42","新北市三峽區紫新路21號","121.423236666667","24.9208266666667","6500900","三峽區"
"237010","706-TV","2017/10/23 18:09:34","新北市三峽區中園街18號","121.368113333333","24.9272716666667","6500900","三峽區"
"237005","AKY-6261","2017/10/23 18:09:43","新北市三峽區文化路65巷12號","121.371953333333","24.9355966666667","6500900","三峽區"
"236069","105-UM","2017/10/23 18:09:51","新北市土城區明德路二段137號","121.449043333333","24.98261","6501300","土城區"
"236042","107-UM","2017/10/23 18:09:39","新北市土城區裕生路84巷2號","121.447328333333","24.9854566666667","6501300","土城區"
"236078","166-UM","2017/10/23 18:09:46","新北市土城區永寧路41號","121.43003","24.9619316666667","6501300","土城區"
"236030","253-BX","2017/10/23 18:09:35","新北市土城區城林路6巷80號","121.438475","24.9798166666667","6501300","土城區"
"236026","269-VK","2017/10/23 18:09:33","新北市土城區承天路1號","121.435931666667","24.9666233333333","6501300","土城區"
"236014","270-VK","2017/10/23 18:09:44","新北市土城區學府路一段239號","121.450545","24.9836216666667","6501300","土城區"
"236036","271-VK","2017/10/23 18:09:43","新北市土城區青雲路449號","121.458786666667","24.9749233333333","6501300","土城區"
"236020","401-BY","2017/10/23 18:09:43","新北市土城區城林路6巷80號","121.438656666667","24.9797433333333","6501300","土城區"
"236058","912-UM","2017/10/23 18:09:41","新北市土城區中央路四段46巷28號","121.42192","24.961605","6501300","土城區"
"236048","913-UM","2017/10/23 18:07:07","新北市土城區明德路一段385-1號","121.452453333333","24.97971","6501300","土城區"
"236062","915-UM","2017/10/23 18:09:43","新北市土城區金城路三段202-3號","121.469468333333","24.9885766666667","6501300","土城區"
"236053","AAC-216","2017/10/23 18:09:43","新北市土城區中華路二段62號","121.438916666667","24.97669","6501300","土城區"
"242031","AAC-296","2017/10/23 18:09:48","新北市新莊區新泰路277巷47號","121.443881666667","25.0401383333333","6500500","新莊區"
"242029","986-R7","2017/10/23 18:09:47","新北市新莊區中平路79號","121.44474","25.045165","6500500","新莊區"
"242050","751-BX","2017/10/23 18:09:50","新北市新莊區民本街33巷22號","121.429081666667","25.0186466666667","6500500","新莊區"
"242025","705-TV","2017/10/23 18:09:48","新北市新莊區五工一路99號","121.460391666667","25.0681283333333","6500500","新莊區"
"242023","613-BX","2017/10/23 18:09:51","新北市新莊區幸福路763-3號","121.447696666667","25.0490466666667","6500500","新莊區"
"242027","612-BX","2017/10/23 18:09:32","新北市新莊區幸福路83-1號","121.456561666667","25.0493283333333","6500500","新莊區"
"242039","566-BX","2017/10/23 18:09:49","新北市新莊區民安西路38巷2號","121.427146666667","25.02097","6500500","新莊區"
"242044","497-BY","2017/10/23 18:09:40","新北市新莊區天泉二街1號","121.415278333333","25.0246716666667","6500500","新莊區"
"242034","442-UM","2017/10/23 18:09:38","新北市新莊區景德路295號","121.44749","25.033535","6500500","新莊區"
"242048","441-UM","2017/10/23 18:09:33","新北市新莊區福營路377號","121.423283333333","25.0272666666667","6500500","新莊區"
"242053","440-UM","2017/10/23 18:09:44","新北市新莊區西盛街429巷25號","121.428045","25.0115783333333","6500500","新莊區"
"242004","413-TV","2017/10/23 18:09:34","新北市新莊區中華路二段36-1號","121.453933333333","25.0453866666667","6500500","新莊區"
"242042","400-BY","2017/10/23 18:09:39","新北市新莊區雙鳳路114號","121.413506666667","25.0282083333333","6500500","新莊區"
"242060","362-BY","2017/10/23 18:09:51","新北市新莊區新樹路69-4號","121.438746666667","25.02978","6500500","新莊區"
"242058","353-BY","2017/10/23 18:09:51","新北市新莊區新北大道七段720號","121.412486666667","25.02605","6500500","新莊區"
"242007","132-UY","2017/10/23 18:09:48","新北市新莊區自立街79巷3號","121.454408333333","25.0456033333333","6500500","新莊區"
"242036","133-UY","2017/10/23 18:09:44","新北市新莊區後港一路65巷9弄1號","121.426255","25.0269233333333","6500500","新莊區"
"242021","135-UY","2017/10/23 18:09:43","新北市新莊區新興街110號","121.450613333333","25.0390933333333","6500500","新莊區"
"242046","172-VK","2017/10/23 18:09:44","新北市新莊區建福路27號","121.426548333333","25.0290783333333","6500500","新莊區"
"242017","173-VK","2017/10/23 18:09:33","新北市新莊區中港路286號","121.452965","25.0442816666667","6500500","新莊區"
"242015","175-VK","2017/10/23 18:09:48","新北市新莊區中平路152巷46號","121.446643333333","25.0473816666667","6500500","新莊區"
"242002","176-VK","2017/10/23 18:09:41","新北市新莊區新莊路41號","121.458728333333","25.037335","6500500","新莊區"
"242001","233-RS","2017/10/23 09:11:45","新北市新莊區環河路48-7號","121.436903333333","25.0097833333333","6500500","新莊區"
"242019","348-TH","2017/10/23 18:09:44","新北市新莊區長青街37巷22弄7號","121.456081666667","25.0412183333333","6500500","新莊區"
"242056","349-TH","2017/10/23 18:09:50","新北市新莊區豐年街豐1巷44號","121.447968333333","25.031205","6500500","新莊區"
"242011","351-TH","2017/10/23 18:09:45","新北市新莊區中榮街28號","121.450053333333","25.0528183333333","6500500","新莊區"
"238015","755-BX","2017/10/23 18:09:44","新北市樹林區大安路349號","121.416478333333","24.9905633333333","6500700","樹林區"
"238023","601-UM","2017/10/23 18:09:44","新北市樹林區龍興街46巷28號","121.402038333333","25.0152016666667","6500700","樹林區"
"238019","599-UM","2017/10/23 18:09:38","新北市樹林區國凱街140巷18號","121.42405","24.9801933333333","6500700","樹林區"
"238018","571-TV","2017/10/23 18:09:37","新北市樹林區樹新路227號","121.431155","25.0005916666667","6500700","樹林區"
"238024","5061-A6","2017/10/23 18:09:35","新北市樹林區大安路255號","121.419298333333","24.9941133333333","6500700","樹林區"
"238021","KEA-2217","2017/10/23 18:09:38","新北市樹林區田尾街111-1號","121.406643333333","24.9550683333333","6500700","樹林區"
"238022","KEA-2213","2017/10/23 18:09:44","新北市樹林區太平路150巷23弄20號","121.417271666667","24.9767816666667","6500700","樹林區"
"238025","303-VK","2017/10/23 18:09:41","新北市樹林區保安街二段67號","121.416036666667","25.0005516666667","6500700","樹林區"
"238017","283-BY","2017/10/23 18:09:44","新北市樹林區中正路698號","121.409331666667","25.01747","6500700","樹林區"
"238014","282-BY","2017/10/23 18:09:40","新北市樹林區中正路59號","121.426543333333","24.9998716666667","6500700","樹林區"
"238020","268-VK","2017/10/23 18:09:35","新北市樹林區三俊街153號","121.41882","25.0155783333333","6500700","樹林區"
"238026","172-UY","2017/10/23 18:09:33","新北市樹林區育德街18號","121.390508333333","24.9699716666667","6500700","樹林區"
"238016","169-UY","2017/10/23 18:09:42","新北市樹林區中山路一段276號","121.420771666667","24.987095","6500700","樹林區"
"239007","AAC-297","2017/10/23 18:09:42","新北市鶯歌區育英街79號","121.347378333333","24.9518","6500800","鶯歌區"
"239006","891-R6","2017/10/23 18:09:44","新北市鶯歌區鶯桃路367號","121.333773333333","24.9630266666667","6500800","鶯歌區"
"239008","527-UM","2017/10/23 18:09:46","新北市鶯歌區朝陽街53巷24號","121.338745","24.9777","6500800","鶯歌區"
"239005","526-UM","2017/10/23 18:09:46","新北市鶯歌區鶯桃路668巷73號","121.329941666667","24.9718083333333","6500800","鶯歌區"
"239001","417-VK","2017/10/23 18:09:40","新北市鶯歌區高職東街3巷18號","121.339978333333","24.9424183333333","6500800","鶯歌區"
"239003","360-BY","2017/10/23 18:09:37","新北市鶯歌區福安街11巷1號","121.335343333333","24.9651633333333","6500800","鶯歌區"
"239002","359-BY","2017/10/23 18:09:53","新北市鶯歌區國慶街77號","121.350091666667","24.9550183333333","6500800","鶯歌區"
"221008","489-VK","2017/10/23 18:09:50","新北市汐止區康寧街315號","121.627016666667","25.0679616666667","6501100","汐止區"
"221036","130-UY","2017/10/23 18:09:38","新北市汐止區長安路11號","121.667623333333","25.0776016666667","6501100","汐止區"
"221015","131-UY","2017/10/23 18:09:49","新北市汐止區鄉長路二段116號","121.664491666667","25.0860933333333","6501100","汐止區"
"221010","269-BY","2017/10/23 18:09:44","新北市汐止區汐萬路二段245巷56號","121.645276666667","25.0875733333333","6501100","汐止區"
"221012","278-VK","2017/10/23 18:09:42","新北市汐止區保長路37巷42號","121.6742","25.0797583333333","6501100","汐止區"
"221023","279-VK","2017/10/23 18:09:42","新北市汐止區民族六街2巷23號","121.628433333333","25.070215","6501100","汐止區"
"221032","280-BY","2017/10/23 18:09:34","新北市汐止區力行街2號","121.61722","25.0512133333333","6501100","汐止區"
"221027","281-BY","2017/10/23 18:09:39","新北市汐止區大同路二段516號","121.661013333333","25.068435","6501100","汐止區"
"221029","298-VK","2017/10/23 18:09:38","新北市汐止區樟樹二路134號","121.639965","25.0656083333333","6501100","汐止區"
"221021","299-VK","2017/10/23 18:09:36","新北市汐止區龍安路204號","121.652678333333","25.063075","6501100","汐止區"
"221031","353-TW","2017/10/23 18:09:44","新北市汐止區中興路181巷24弄14號","121.629238333333","25.06671","6501100","汐止區"
"221035","622-UM","2017/10/23 18:09:52","新北市汐止區大同路二段207號","121.652675","25.0644533333333","6501100","汐止區"
"221025","623-UM","2017/10/23 18:09:51","新北市汐止區勤進路16號","121.659615","25.0613933333333","6501100","汐止區"
"221038","646-BX","2017/10/23 18:09:37","新北市汐止區莊敬街119巷10號","121.655108333333","25.0602216666667","6501100","汐止區"
"221033","647-BX","2017/10/23 18:09:47","新北市汐止區林森街19號","121.621626666667","25.0405","6501100","汐止區"
"221002","707-TV","2017/10/23 18:09:52","新北市汐止區福德一路235號","121.633996666667","25.0649383333333","6501100","汐止區"
"221018","753-BX","2017/10/23 18:09:37","新北市汐止區忠孝東路351號","121.665535","25.0705116666667","6501100","汐止區"
"242001","281-VK","2017/10/23 14:59:30","新北市新莊區環河路636-7號","121.437361666667","25.0113566666667","6500500","新莊區"
"220010","305-R5","2017/10/23 18:09:49","新北市板橋區民生路二段120號","121.470435","25.0198033333333","6500100","板橋區"
"242009","280-VK","2017/10/23 18:09:38","新北市新莊區中原路179號","121.453338333333","25.053955","6500500","新莊區"
"220001","568-UM","2017/10/23 13:41:18","新北市板橋區華東街1-9號","121.448118333333","24.9948433333333","6500100","板橋區"
