"lineid","car","time","location","longitude","latitude","cityid","cityname"
"234007","207-UY","2017/10/23 18:19:37","新北市永和區保生路22巷23號","121.50734","25.008255","6500400","永和區"
"234026","9371-KE","2017/10/23 18:19:37","新北市永和區豫溪街40號","121.515533333333","25.0098216666667","6500400","永和區"
"234011","9373-KE","2017/10/23 18:19:47","新北市永和區福和路1號","121.525285","25.0094433333333","6500400","永和區"
"249005","172-UM","2017/10/23 18:19:34","新北市八里區荖阡坑路15-29號","121.400355","25.1404166666667","6502300","八里區"
"249001","173-UM","2017/10/23 18:19:44","新北市八里區龍米路一段131號","121.452141666667","25.1267133333333","6502300","八里區"
"249004","303-UY","2017/10/23 18:19:30","新北市八里區龍米路二段236-2號","121.431535","25.158965","6502300","八里區"
"249002","305-UY","2017/10/23 18:19:38","新北市八里區龍形二街56號","121.450236666667","25.1331066666667","6502300","八里區"
"248014","025-BX","2017/10/23 18:19:35","新北市五股區自強路16號","121.434553333333","25.0741033333333","6501500","五股區"
"248016","026-BX","2017/10/23 18:19:52","新北市五股區成泰路三段477巷18號","121.449876666667","25.09895","6501500","五股區"
"248006","077-UY","2017/10/23 18:19:40","新北市五股區中興路一段158號","121.46428","25.0739666666667","6501500","五股區"
"248008","095-VK","2017/10/23 18:19:46","新北市五股區更洲路32巷8弄14號","121.459231666667","25.0796683333333","6501500","五股區"
"248018","225-UY","2017/10/23 18:19:51","新北市五股區御史路120號","121.437558333333","25.0962916666667","6501500","五股區"
"248012","247-BX","2017/10/23 18:19:47","新北市五股區成泰路三段55號","121.443126666667","25.08952","6501500","五股區"
"248010","272-BY","2017/10/23 18:19:47","新北市五股區成泰路一段126號","121.435286666667","25.07432","6501500","五股區"
"248004","677-BX","2017/10/23 18:19:38","新北市五股區成泰路二段87號","121.438288333333","25.0841733333333","6501500","五股區"
"248002","678-BX","2017/10/23 18:19:38","新北市五股區西雲路16號","121.443068333333","25.0903566666667","6501500","五股區"
"232011","375-UM","2017/10/23 18:19:31","新北市坪林區坪雙路一段43號","121.711793333333","24.942475","6502000","坪林區"
"244013","069-UM","2017/10/23 18:19:42","新北市林口區中山路202-1號","121.38754","25.0792166666667","6501700","林口區"
"244007","080-UY","2017/10/23 18:19:35","新北市林口區林口路113巷47號","121.387935","25.0798933333333","6501700","林口區"
"244019","403-UM","2017/10/23 18:19:39","新北市林口區文化一路一段106號","121.373731666667","25.07141","6501700","林口區"
"244025","742-UY","2017/10/23 18:19:36","新北市林口區南勢四街71-3號","121.354821666667","25.0700083333333","6501700","林口區"
"244009","410-SL","2017/10/23 18:19:48","新北市林口區文林二街30號","121.376263333333","25.0880116666667","6501700","林口區"
"244023","483-VK","2017/10/23 18:19:33","新北市林口區仁愛路二段18號","121.385658333333","25.076145","6501700","林口區"
"244017","485-VK","2017/10/23 18:19:51","新北市林口區八德路20巷17號","121.367405","25.0678233333333","6501700","林口區"
"244011","701-TV","2017/10/23 18:19:41","新北市林口區仁愛路一段266號","121.393936666667","25.0760783333333","6501700","林口區"
"244021","838-TS","2017/10/23 18:19:19","新北市林口區自強一街61號","121.399645","25.077275","6501700","林口區"
"243013","AAD-798","2017/10/23 18:19:39","新北市泰山區南林路99巷1-1號","121.415478333333","25.0511316666667","6501600","泰山區"
"243009","297-R6","2017/10/23 15:50:39","新北市泰山區黎明路25號","121.421936666667","25.0609916666667","6501600","泰山區"
"243015","380-SR","2017/10/23 17:46:49","新北市泰山區黎明路25號","121.422223333333","25.0607","6501600","泰山區"
"243016","680-BX","2017/10/23 16:07:00","新北市泰山區黎明路25號","121.422225","25.0606783333333","6501600","泰山區"
"222003","436-BY","2017/10/23 18:19:48","新北市深坑區旺耽路67號","121.626251666667","25.0030183333333","6501800","深坑區"
"222001","628-TS","2017/10/23 18:19:52","新北市深坑區北深路二段51-1號","121.619033333333","25.0041216666667","6501800","深坑區"
"222002","659-BX","2017/10/23 18:19:49","新北市深坑區雲鄉路63號","121.621886666667","24.9988783333333","6501800","深坑區"
"231041","002-UM","2017/10/23 18:19:41","新北市新店區安華路28-1號","121.519723333333","24.96082","6500600","新店區"
"231059","046-UY","2017/10/23 18:19:52","新北市新店區安華路28-1號","121.519546666667","24.960795","6500600","新店區"
"231061","047-UY","2017/10/23 18:19:37","新北市新店區安華路28-1號","121.519103333333","24.9609283333333","6500600","新店區"
"231060","106-UY","2017/10/23 18:19:37","新北市新店區安華路28-1號","121.519568333333","24.9607766666667","6500600","新店區"
"231047","108-UY","2017/10/23 18:19:40","新北市新店區安華路28-1號","121.519548333333","24.9613866666667","6500600","新店區"
"231052","187-VK","2017/10/23 18:19:37","新北市新店區安康路一段323-3號","121.521126666667","24.963855","6500600","新店區"
"231050","KEA-2219","2017/10/23 18:19:38","新北市新店區安華路28-1號","121.51967","24.9612166666667","6500600","新店區"
"231057","256-BX","2017/10/23 18:19:43","新北市新店區安華路28-1號","121.519683333333","24.9611416666667","6500600","新店區"
"231046","278-BY","2017/10/23 18:19:38","新北市新店區直潭七街60號","121.532286666667","24.9397983333333","6500600","新店區"
"231058","3712-VJ","2017/10/23 18:19:38","新北市新店區環河路29巷1-1號","121.535758333333","24.96103","6500600","新店區"
"231055","3713-VJ","2017/10/23 18:19:39","新北市新店區安康路一段3-1號","121.534031666667","24.9606016666667","6500600","新店區"
"231056","4716-K9","2017/10/23 18:19:39","新北市新店區環河路121號","121.529923333333","24.9717416666667","6500600","新店區"
"231067","4772-VM","2017/10/23 18:19:31","新北市新店區安華路28-1號","121.519213333333","24.9606083333333","6500600","新店區"
"231065","512-UM","2017/10/23 18:19:45","新北市新店區安華路28-1號","121.51939","24.9612183333333","6500600","新店區"
"231054","513-UM","2017/10/23 18:19:47","新北市新店區安華路28-1號","121.519668333333","24.961115","6500600","新店區"
"231040","619-UM","2017/10/23 18:19:41","新北市新店區安華路28-1號","121.519613333333","24.9610033333333","6500600","新店區"
"231042","641-BX","2017/10/23 18:19:44","新北市新店區安華路28-1號","121.519556666667","24.9605566666667","6500600","新店區"
"231049","719-UM","2017/10/23 18:19:34","新北市新店區安華路28-1號","121.5195","24.961325","6500600","新店區"
"231051","719-UY","2017/10/23 18:19:32","新北市新店區安華路28-1號","121.519631666667","24.9606483333333","6500600","新店區"
"231062","720-UM","2017/10/23 18:19:36","新北市新店區安華路28-1號","121.519305","24.9612566666667","6500600","新店區"
"231044","897-TW","2017/10/23 18:19:45","新北市新店區安華路28-1號","121.519653333333","24.960735","6500600","新店區"
"231045","898-TW","2017/10/23 18:19:39","新北市新店區安華路28-1號","121.519386666667","24.9609666666667","6500600","新店區"
"231043","899-TW","2017/10/23 16:28:09","新北市新店區安華路28-1號","121.519145","24.960995","6500600","新店區"
"241033","AAC-255","2017/10/23 18:19:32","新北市三重區中興北街42巷41號","121.467736666667","25.0493066666667","6500200","三重區"
"235066","003-UY","2017/10/23 18:19:45","新北市中和區中山路二段120號","121.502738333333","25.0038016666667","6500300","中和區"
"235064","005-UY","2017/10/23 18:19:36","新北市中和區中正路140號","121.499221666667","24.9938083333333","6500300","中和區"
"235063","006-UY","2017/10/23 18:19:47","新北市中和區中正路589巷15號","121.486058333333","24.9938016666667","6500300","中和區"
"235056","096-UM","2017/10/23 18:19:45","新北市板橋區民生路一段26-1號","121.477258333333","25.0121833333333","6500300","中和區"
"235039","097-UM","2017/10/23 18:19:44","新北市中和區景平路359號","121.504603333333","24.993305","6500300","中和區"
"235065","098-UM","2017/10/23 18:19:45","新北市中和區中山路二段2巷45弄2號","121.502243333333","25.0071466666667","6500300","中和區"
"235040","150-BY","2017/10/23 18:19:40","新北市中和區中正路271號","121.495761666667","24.993865","6500300","中和區"
"235058","151-BY","2017/10/23 18:19:41","新北市中和區圓通路367巷58號","121.492251666667","24.984675","6500300","中和區"
"235055","183-VK","2017/10/23 18:19:38","新北市中和區連城路469巷4號","121.483576666667","24.995565","6500300","中和區"
"235038","185-VK","2017/10/23 18:19:41","新北市中和區大智街57號","121.521181666667","24.9920966666667","6500300","中和區"
"235049","186-VK","2017/10/23 18:19:44","新北市中和區中正路589巷15號","121.485711666667","24.9936133333333","6500300","中和區"
"235067","255-BX","2017/10/23 18:19:45","新北市中和區和城路一段271巷1號","121.485326666667","24.9919516666667","6500300","中和區"
"235072","301-VK","2017/10/23 18:19:34","新北市中和區錦和路117號","121.490535","24.9942483333333","6500300","中和區"
"235043","352-BY","2017/10/23 18:19:50","新北市中和區中正路271-1號","121.495753333333","24.993715","6500300","中和區"
"235051","376-QA","2017/10/23 18:19:12","新北市中和區忠孝街2-2號","121.508921666667","24.9828916666667","6500300","中和區"
"235068","377-QA","2017/10/23 18:15:04","新北市中和區員山路36巷16-3號","121.485026666667","24.9913983333333","6500300","中和區"
"235061","378-QA","2017/10/23 18:19:48","新北市中和區華安街96號","121.468535","24.99561","6500300","中和區"
"235050","4979-A6","2017/10/23 18:19:32","新北市中和區捷運路61巷9號","121.509043333333","24.9892983333333","6500300","中和區"
"235069","4980-A6","2017/10/23 18:19:51","新北市中和區連城路127巷11號","121.496596666667","24.9985083333333","6500300","中和區"
"235042","551-UM","2017/10/23 18:19:48","新北市中和區大仁街20巷25弄23號","121.518773333333","24.993625","6500300","中和區"
"235070","558-UM","2017/10/23 18:19:31","新北市中和區圓通路176-1號","121.497143333333","24.994555","6500300","中和區"
"235045","565-BX","2017/10/23 18:19:33","新北市中和區景安路200巷2弄2號","121.503998333333","24.991395","6500300","中和區"
"235054","640-BX","2017/10/23 18:19:39","新北市中和區莒光路185號","121.472613333333","24.9990016666667","6500300","中和區"
"235060","647-TV","2017/10/23 18:19:43","新北市中和區中正路637巷52弄11號","121.484925","24.9937766666667","6500300","中和區"
"235047","732-UM","2017/10/23 18:19:50","新北市中和區中正路271號","121.496021666667","24.9937583333333","6500300","中和區"
"235046","733-UM","2017/10/23 18:19:45","新北市中和區員山路36巷13號","121.484201666667","24.991035","6500300","中和區"
"235062","800-TS","2017/10/23 18:19:43","新北市中和區景平路999巷2號","121.495408333333","25.0060233333333","6500300","中和區"
"235057","801-TS","2017/10/23 18:19:41","新北市中和區中正路637巷60弄61號","121.485446666667","24.99303","6500300","中和區"
"235052","805-TS","2017/10/23 18:19:38","新北市中和區南山路198號","121.506005","24.9905433333333","6500300","中和區"
"235048","896-TW","2017/10/23 18:19:48","新北市中和區中正路637巷52弄1號","121.485473333333","24.9936","6500300","中和區"
"235053","900-TW","2017/10/23 18:19:41","新北市中和區員山路36巷16-2號","121.485335","24.9915533333333","6500300","中和區"
"235037","AAC-213","2017/10/23 18:19:43","新北市中和區景新街383巷50號","121.514456666667","24.9909583333333","6500300","中和區"
"235059","AAC-215","2017/10/23 18:19:50","新北市中和區員山路36巷16-3號","121.484906666667","24.991165","6500300","中和區"
"247008","053-VK","2017/10/23 18:19:28","新北市五股區中直路21號","121.420548333333","25.1122716666667","6501400","蘆洲區"
"226004","312-R5","2017/10/23 18:18:34","新北市平溪區靜安路二段3巷53號","121.70601","25.01836","6502400","平溪區"
"228003","097-TW","2017/10/23 18:19:30","新北市貢寮區和美里和美街63號","121.92215","25.071285","6502600","貢寮區"
"228002","585-TW","2017/10/23 18:19:38","新北市貢寮區福連里馬崗街1號","121.998395","25.0166116666667","6502600","貢寮區"
"228001","670-TC","2017/10/23 18:19:48","新北市貢寮區真理里新港街26巷55弄2-1號","121.927386666667","25.0529066666667","6502600","貢寮區"
"224006","676-BX","2017/10/23 18:19:33","新北市瑞芳區民權街3-2號","121.808123333333","25.10743","6501200","瑞芳區"
"224002","639-TC","2017/10/23 18:19:38","新北市瑞芳區三爪子坑路153號","121.810715","25.1062416666667","6501200","瑞芳區"
"224009","285-BY","2017/10/23 18:19:52","新北市瑞芳區金光路162號","121.855513333333","25.1066516666667","6501200","瑞芳區"
"224008","275-VK","2017/10/23 18:19:50","新北市瑞芳區逢甲路38號","121.811368333333","25.1084116666667","6501200","瑞芳區"
"224007","273-VK","2017/10/23 18:19:46","新北市瑞芳區大埔路67巷5-1號","121.764306666667","25.1015666666667","6501200","瑞芳區"
"224005","271-BY","2017/10/23 18:19:48","新北市瑞芳區建基路二段19號","121.807203333333","25.1331133333333","6501200","瑞芳區"
"227001","642-TC","2017/10/23 18:19:44","新北市雙溪區共和里中山路2號","121.863801666667","25.0337933333333","6502500","雙溪區"
"227008","400-TW","2017/10/23 18:19:50","新北市雙溪區牡丹里牡丹72號","121.851811666667","25.0606683333333","6502500","雙溪區"
"253005","032-BX","2017/10/23 18:19:40","新北市石門區中央路1-1號","121.565463333333","25.2913766666667","6502200","石門區"
"253006","295-VK","2017/10/23 18:19:49","新北市石門區老梅路93號","121.546631666667","25.2892116666667","6502200","石門區"
"208002","742-BX","2017/10/23 18:19:35","新北市金山區磺清路135號","121.639371666667","25.22739","6502700","金山區"
"208003","665-BX","2017/10/23 18:19:35","新北市金山區民生路160號","121.646861666667","25.2230233333333","6502700","金山區"
"208001","761-BX","2017/10/23 18:19:32","新北市金山區自強路11號","121.640386666667","25.2165916666667","6502700","金山區"
"251009","008-UM","2017/10/23 18:19:32","新北市淡水區埤島7-2號","121.444386666667","25.1926283333333","6501000","淡水區"
"251004","009-UM","2017/10/23 18:19:46","新北市淡水區民族路82號","121.462381666667","25.1355716666667","6501000","淡水區"
"251001","011-UM","2017/10/23 18:19:45","新北市淡水區自立路1巷31號","121.46233","25.129365","6501000","淡水區"
"251008","181-VK","2017/10/23 18:19:32","新北市淡水區淡金路12-3號","121.458256666667","25.1603233333333","6501000","淡水區"
"251013","182-VK","2017/10/23 18:19:40","新北市淡水區破瓦厝子1-10號","121.475013333333","25.20006","6501000","淡水區"
"251010","413-VK","2017/10/23 18:19:33","新北市淡水區淡海路196號","121.42028","25.1853216666667","6501000","淡水區"
"251012","441-VK","2017/10/23 18:19:43","新北市淡水區北新路二段77-5號","121.480495","25.1855766666667","6501000","淡水區"
"251015","442-VK","2017/10/23 18:19:48","新北市淡水區興福寮66巷539號","121.484605","25.1651283333333","6501000","淡水區"
"251005","443-VK","2017/10/23 18:19:44","新北市淡水區水源街一段122巷37號","121.447055","25.1703716666667","6501000","淡水區"
"251006","561-UM","2017/10/23 18:19:51","新北市淡水區新民街62號","121.438876666667","25.1759983333333","6501000","淡水區"
"251011","650-BX","2017/10/23 18:19:45","新北市淡水區坪頂路51巷2號","121.458128333333","25.16267","6501000","淡水區"
"251002","672-BX","2017/10/23 18:19:48","新北市淡水區中正東路一段87-2號","121.452898333333","25.1618283333333","6501000","淡水區"
"251003","766-UM","2017/10/23 18:19:51","新北市淡水區北新路180號","121.449508333333","25.17877","6501000","淡水區"
"207003","550-UM","2017/10/23 18:19:44","新北市萬里區野柳里港東新村1-1號","121.686138333333","25.2030766666667","6502800","萬里區"
"207004","225-TW","2017/10/23 18:19:50","新北市萬里區中幅里中福路39-2號","121.67702","25.16587","6502800","萬里區"
"252003","249-BX","2017/10/23 18:19:39","新北市三芝區錫板里海尾14-33號","121.478185","25.2603383333333","6502100","三芝區"
"252001","292-VK","2017/10/23 18:19:35","新北市三芝區中興街二段2號","121.498386666667","25.2566866666667","6502100","三芝區"
"237004","078-UY","2017/10/23 18:19:45","新北市三峽區五寮36-7號","121.3726","24.8688","6500900","三峽區"
"237007","153-BY","2017/10/23 18:19:38","新北市三峽區中正路二段556號","121.359956666667","24.906205","6500900","三峽區"
"237009","210-TH","2017/10/23 18:19:34","新北市三峽區大勇路36巷18號","121.366268333333","24.937175","6500900","三峽區"
"237013","252-BX","2017/10/23 18:19:45","新北市三峽區長泰街41巷12號","121.377488333333","24.9322066666667","6500900","三峽區"
"237012","275-BY","2017/10/23 18:19:40","新北市三峽區民生街1巷3-11號","121.37704","24.9361266666667","6500900","三峽區"
"237008","302-VK","2017/10/23 18:19:31","新北市三峽區白雞68-305號","121.391155","24.9095666666667","6500900","三峽區"
"237014","433-BY","2017/10/23 18:19:36","新北市三峽區復興路110巷4弄9號","121.373316666667","24.938345","6500900","三峽區"
"237006","5529-G3","2017/10/23 18:19:48","新北市三峽區溪東路235號","121.406515","24.932655","6500900","三峽區"
"237011","572-TV","2017/10/23 18:09:18","新北市三峽區橫溪路1號","121.396078333333","24.9361666666667","6500900","三峽區"
"237015","649-BX","2017/10/23 18:19:42","新北市三峽區紫微路3號","121.42654","24.92249","6500900","三峽區"
"237010","706-TV","2017/10/23 18:17:54","新北市三峽區民族街17-1號","121.369445","24.9306666666667","6500900","三峽區"
"237005","AKY-6261","2017/10/23 18:19:43","新北市三峽區忠孝街25-5號","121.371218333333","24.9342183333333","6500900","三峽區"
"236069","105-UM","2017/10/23 18:19:31","新北市土城區永豐路202巷1號","121.46663","24.9833383333333","6501300","土城區"
"236042","107-UM","2017/10/23 18:19:45","新北市土城區裕生路21巷6弄14號","121.448675","24.9867716666667","6501300","土城區"
"236078","166-UM","2017/10/23 18:19:48","新北市土城區永安街115巷22號","121.428993333333","24.96333","6501300","土城區"
"236030","253-BX","2017/10/23 18:19:35","新北市土城區順風路41號","121.440691666667","24.9767966666667","6501300","土城區"
"236026","269-VK","2017/10/23 18:19:33","新北市土城區承天路20號","121.439531666667","24.96341","6501300","土城區"
"236014","270-VK","2017/10/23 18:19:44","新北市土城區青雲路39巷7號","121.460328333333","24.9874383333333","6501300","土城區"
"236036","271-VK","2017/10/23 18:19:43","新北市土城區青雲路453號","121.458888333333","24.974615","6501300","土城區"
"236020","401-BY","2017/10/23 18:19:43","新北市土城區明德路一段398號","121.453261666667","24.979375","6501300","土城區"
"236058","912-UM","2017/10/23 18:19:41","新北市土城區中央路四段159-1號","121.415265","24.9569616666667","6501300","土城區"
"236048","913-UM","2017/10/23 18:19:47","新北市土城區明德路一段361-3號","121.456276666667","24.97777","6501300","土城區"
"236062","915-UM","2017/10/23 18:19:43","新北市土城區金城路三段185-1號","121.469695","24.9887783333333","6501300","土城區"
"236053","AAC-216","2017/10/23 18:19:43","新北市土城區中華路二段92號","121.438228333333","24.9747716666667","6501300","土城區"
"242031","AAC-296","2017/10/23 18:19:45","新北市新莊區新泰路255巷24號","121.445063333333","25.039715","6500500","新莊區"
"242029","986-R7","2017/10/23 18:19:47","新北市新莊區中平路117號","121.444755","25.0465783333333","6500500","新莊區"
"242050","751-BX","2017/10/23 18:19:51","新北市新莊區民安西路49巷8號","121.427981666667","25.020365","6500500","新莊區"
"242025","705-TV","2017/10/23 18:19:45","新北市新莊區五權一路12巷9弄15號","121.45775","25.0651983333333","6500500","新莊區"
"242023","613-BX","2017/10/23 18:19:31","新北市新莊區新泰路357巷3弄57號","121.442088333333","25.0397433333333","6500500","新莊區"
"242027","612-BX","2017/10/23 18:19:52","新北市新莊區幸福路599號","121.453376666667","25.04915","6500500","新莊區"
"242039","566-BX","2017/10/23 18:19:29","新北市新莊區新樹路535號","121.432765","25.0089983333333","6500500","新莊區"
"242044","497-BY","2017/10/23 18:19:40","新北市新莊區中山路三段656號","121.413408333333","25.024275","6500500","新莊區"
"242048","441-UM","2017/10/23 18:19:33","新北市樹林區中正路118號","121.424195","25.0022966666667","6500500","新莊區"
"242053","440-UM","2017/10/23 18:19:44","新北市新莊區民安西路410巷3弄1號","121.428508333333","25.009595","6500500","新莊區"
"242042","400-BY","2017/10/23 18:19:39","新北市新莊區天祥街81巷28號","121.41503","25.0285783333333","6500500","新莊區"
"242060","362-BY","2017/10/23 18:19:51","新北市新莊區富國路178號","121.424288333333","25.0244583333333","6500500","新莊區"
"242058","353-BY","2017/10/23 18:19:51","桃園市龜山區萬壽路一段42號","121.408923333333","25.0192466666667","6500500","新莊區"
"242007","132-UY","2017/10/23 18:19:41","新北市新莊區中華路二段9號","121.45375","25.0454883333333","6500500","新莊區"
"242036","133-UY","2017/10/23 18:19:40","新北市新莊區後港一路31巷1弄2號","121.425115","25.0264766666667","6500500","新莊區"
"242021","135-UY","2017/10/23 18:19:43","新北市新莊區中正路257號","121.449901666667","25.0354433333333","6500500","新莊區"
"242046","172-VK","2017/10/23 18:19:37","新北市新莊區中正路829巷57號","121.421458333333","25.0273116666667","6500500","新莊區"
"242015","175-VK","2017/10/23 18:19:48","新北市新莊區中和街122號","121.447461666667","25.047845","6500500","新莊區"
"242002","176-VK","2017/10/23 18:19:41","新北市新莊區碧江街21號","121.453845","25.033825","6500500","新莊區"
"242001","233-RS","2017/10/23 09:11:45","新北市新莊區環河路48-7號","121.436903333333","25.0097833333333","6500500","新莊區"
"242056","349-TH","2017/10/23 18:19:50","新北市新莊區瓊林路48號","121.446493333333","25.0288933333333","6500500","新莊區"
"242011","351-TH","2017/10/23 18:19:45","新北市新莊區中港路中慶巷27弄13號","121.450193333333","25.0532833333333","6500500","新莊區"
"238015","755-BX","2017/10/23 18:19:44","新北市樹林區文化街79巷1號","121.41685","24.9891316666667","6500700","樹林區"
"238023","601-UM","2017/10/23 18:19:44","新北市樹林區三福街67巷7號","121.408045","25.0157883333333","6500700","樹林區"
"238019","599-UM","2017/10/23 18:19:38","新北市樹林區中華路68號","121.41984","24.9816033333333","6500700","樹林區"
"238018","571-TV","2017/10/23 18:19:37","新北市樹林區鎮前街63號","121.425091666667","24.9909833333333","6500700","樹林區"
"238024","5061-A6","2017/10/23 18:19:35","新北市樹林區中山路一段205號","121.421091666667","24.9874316666667","6500700","樹林區"
"238021","KEA-2217","2017/10/23 18:19:39","新北市樹林區柑園街一段172號","121.396251666667","24.9566983333333","6500700","樹林區"
"238025","303-VK","2017/10/23 18:19:41","新北市樹林區保安街一段92號","121.42422","24.99463","6500700","樹林區"
"238017","283-BY","2017/10/23 18:19:44","新北市樹林區保安街二段333巷2號","121.412421666667","25.00767","6500700","樹林區"
"238014","282-BY","2017/10/23 18:19:40","新北市樹林區潭興街91巷6號","121.424458333333","24.9987466666667","6500700","樹林區"
"238020","268-VK","2017/10/23 18:19:45","新北市樹林區三龍街94巷30號","121.41434","25.0173333333333","6500700","樹林區"
"238026","172-UY","2017/10/23 18:19:46","新北市樹林區佳園路一段41巷22弄15號","121.394503333333","24.97035","6500700","樹林區"
"238016","169-UY","2017/10/23 18:19:42","新北市樹林區文化街23號","121.419236666667","24.9876783333333","6500700","樹林區"
"239007","AAC-297","2017/10/23 18:19:41","新北市鶯歌區文昌街27-2號","121.350146666667","24.9515066666667","6500800","鶯歌區"
"239006","891-R6","2017/10/23 18:19:44","新北市鶯歌區鶯桃路365巷35弄6號","121.332228333333","24.9614916666667","6500800","鶯歌區"
"239008","527-UM","2017/10/23 18:19:46","新北市鶯歌區國際一路179號","121.336266666667","24.97649","6500800","鶯歌區"
"239005","526-UM","2017/10/23 18:19:46","新北市鶯歌區鶯桃路658巷37弄18號","121.329708333333","24.9702583333333","6500800","鶯歌區"
"239001","417-VK","2017/10/23 18:19:40","新北市鶯歌區國中街178號","121.338253333333","24.9392016666667","6500800","鶯歌區"
"239003","360-BY","2017/10/23 18:19:37","新北市鶯歌區福安街58號","121.335573333333","24.9652066666667","6500800","鶯歌區"
"239002","359-BY","2017/10/23 18:19:33","新北市鶯歌區中正一路159號","121.352578333333","24.9563633333333","6500800","鶯歌區"
"239004","193-VK","2017/10/23 18:19:43","新北市鶯歌區尖山路137巷1號","121.347008333333","24.9485233333333","6500800","鶯歌區"
"221008","489-VK","2017/10/23 18:19:50","新北市汐止區康寧街706號","121.637878333333","25.072565","6501100","汐止區"
"221036","130-UY","2017/10/23 18:19:38","新北市汐止區長興街二段1號","121.670891666667","25.0803283333333","6501100","汐止區"
"221015","131-UY","2017/10/23 18:19:29","新北市汐止區鄉長路二段23巷19號","121.668021666667","25.0828283333333","6501100","汐止區"
"221010","269-BY","2017/10/23 18:19:44","新北市汐止區祥雲街2號","121.645701666667","25.08965","6501100","汐止區"
"221012","278-VK","2017/10/23 18:19:42","新北市汐止區保長路35巷20號","121.673268333333","25.080045","6501100","汐止區"
"221023","279-VK","2017/10/23 18:19:40","新北市汐止區中興路201號","121.629208333333","25.0684616666667","6501100","汐止區"
"221032","280-BY","2017/10/23 18:19:34","新北市汐止區橫科路23號","121.617998333333","25.05124","6501100","汐止區"
"221027","281-BY","2017/10/23 18:19:39","新北市汐止區和平街6巷5弄2號","121.66368","25.0717733333333","6501100","汐止區"
"221029","298-VK","2017/10/23 18:19:38","新北市汐止區康寧街777-1號","121.645066666667","25.075885","6501100","汐止區"
"221021","299-VK","2017/10/23 18:19:36","新北市汐止區連興街120號","121.653723333333","25.0625183333333","6501100","汐止區"
"221031","353-TW","2017/10/23 18:19:44","新北市汐止區中興路144號","121.632793333333","25.0644566666667","6501100","汐止區"
"221035","622-UM","2017/10/23 18:19:33","新北市汐止區大同路二段175號","121.651296666667","25.0643416666667","6501100","汐止區"
"221025","623-UM","2017/10/23 18:19:31","新北市汐止區秀峰路160號","121.660315","25.062125","6501100","汐止區"
"221038","646-BX","2017/10/23 18:19:37","新北市汐止區仁愛路311號","121.664675","25.0674266666667","6501100","汐止區"
"221033","647-BX","2017/10/23 18:19:47","新北市汐止區宜興街40巷5弄3號","121.622253333333","25.0419","6501100","汐止區"
"221002","707-TV","2017/10/23 18:19:44","新北市汐止區福德一路213巷35號","121.635783333333","25.0648433333333","6501100","汐止區"
"221018","753-BX","2017/10/23 18:19:37","新北市汐止區茄苳路118號","121.66798","25.0704","6501100","汐止區"
"242001","281-VK","2017/10/23 14:59:30","新北市新莊區環河路636-7號","121.437361666667","25.0113566666667","6500500","新莊區"
"220062","305-R5","2017/10/23 18:19:49","新北市板橋區民生路二段120號","121.470416666667","25.01969","6500100","板橋區"
"220064","486-VK","2017/10/23 18:19:49","新北市板橋區華東街1-8號","121.44779","24.994825","6500100","板橋區"
"242009","280-VK","2017/10/23 18:19:38","新北市新莊區自立街62號","121.454021666667","25.045435","6500500","新莊區"
"220001","568-UM","2017/10/23 13:41:18","新北市板橋區華東街1-9號","121.448118333333","24.9948433333333","6500100","板橋區"
