"lineid","car","time","location","longitude","latitude","cityid","cityname"
"234046","148-BY","2017/10/23 18:39:44","新北市永和區林森路92號","121.523078333333","25.00355","6500400","永和區"
"234013","149-BY","2017/10/23 18:39:38","新北市永和區保安路33號","121.509898333333","25.0162166666667","6500400","永和區"
"234007","207-UY","2017/10/23 18:39:37","新北市永和區文化路170號","121.51177","25.015585","6500400","永和區"
"234081","298-R6","2017/10/23 18:39:46","新北市永和區林森路68號","121.523835","25.00402","6500400","永和區"
"234064","337-UY","2017/10/23 18:39:45","新北市永和區福和路1號","121.526546666667","25.01018","6500400","永和區"
"234086","338-UY","2017/10/23 18:39:39","新北市永和區福和路130號","121.521893333333","25.0078633333333","6500400","永和區"
"234054","553-UM","2017/10/23 18:39:41","新北市永和區福和路1號","121.525886666667","25.0097233333333","6500400","永和區"
"234017","745-BX","2017/10/23 18:39:38","新北市永和區福和路1號","121.525966666667","25.009635","6500400","永和區"
"234030","746-BX","2017/10/23 18:39:47","新北市永和區得和路376號","121.524553333333","24.9993366666667","6500400","永和區"
"234061","AAD-866","2017/10/23 18:39:53","新北市永和區福和路1號","121.526021666667","25.0098866666667","6500400","永和區"
"234042","862-TW","2017/10/23 18:39:49","新北市永和區永和路一段95號","121.513666666667","25.0076416666667","6500400","永和區"
"234050","863-TW","2017/10/23 18:39:36","新北市永和區竹林路75巷4弄34號","121.521625","25.0143483333333","6500400","永和區"
"234026","9371-KE","2017/10/23 18:39:37","新北市永和區仁愛路285號","121.50555","25.0096216666667","6500400","永和區"
"234011","9373-KE","2017/10/23 18:39:47","新北市永和區仁愛路32號","121.514461666667","25.0135066666667","6500400","永和區"
"249005","172-UM","2017/10/23 18:39:34","新北市八里區中華路三段208號","121.388456666667","25.1259316666667","6502300","八里區"
"249001","173-UM","2017/10/23 18:39:44","新北市八里區龍米路一段360號","121.451535","25.131365","6502300","八里區"
"249004","303-UY","2017/10/23 18:39:50","新北市八里區龍米路三段60號","121.423651666667","25.1590183333333","6502300","八里區"
"249002","305-UY","2017/10/23 18:39:38","新北市八里區頂寮二街138號","121.449348333333","25.12947","6502300","八里區"
"248014","025-BX","2017/10/23 18:39:55","新北市五股區中興路四段70號","121.436981666667","25.083425","6501500","五股區"
"248016","026-BX","2017/10/23 18:39:52","新北市五股區凌雲路一段133巷27-3號","121.448633333333","25.100895","6501500","五股區"
"248008","095-VK","2017/10/23 18:39:46","新北市五股區中興路一段151巷3號","121.465108333333","25.0728633333333","6501500","五股區"
"248018","225-UY","2017/10/23 18:39:51","新北市五股區民義路二段52巷27號","121.411146666667","25.1141733333333","6501500","五股區"
"248012","247-BX","2017/10/23 18:39:55","新北市五股區御史路90號","121.440211666667","25.0949683333333","6501500","五股區"
"248010","272-BY","2017/10/23 18:39:47","新北市五股區水碓一路53號","121.43147","25.0719766666667","6501500","五股區"
"248004","677-BX","2017/10/23 18:39:37","新北市五股區民義路一段206號","121.430388333333","25.08909","6501500","五股區"
"248002","678-BX","2017/10/23 18:39:46","新北市五股區西雲路197號","121.447943333333","25.0958733333333","6501500","五股區"
"234023","9380-KE","2017/10/23 18:39:41","新北市永和區福和路76巷5弄14號","121.522333333333","25.0084066666667","6500400","永和區"
"234077","969-R7","2017/10/23 18:39:42","新北市永和區中正路586號","121.517046666667","25.006715","6500400","永和區"
"234067","AAC-212","2017/10/23 18:39:50","新北市永和區福和路160號","121.521453333333","25.00787","6500400","永和區"
"234003","AAC-295","2017/10/23 18:39:50","新北市永和區福和路1號","121.526531666667","25.01007","6500400","永和區"
"232011","375-UM","2017/10/23 18:20:45","新北市坪林區坪雙路一段43號","121.711808333333","24.9424783333333","6502000","坪林區"
"244013","069-UM","2017/10/23 18:39:37","新北市林口區中正路514巷33弄2號","121.382385","25.0783516666667","6501700","林口區"
"244007","080-UY","2017/10/23 18:39:55","新北市林口區後湖23-1號","121.38763","25.0991516666667","6501700","林口區"
"244019","403-UM","2017/10/23 18:39:39","新北市林口區忠孝路561巷10號","121.373143333333","25.0687166666667","6501700","林口區"
"244025","742-UY","2017/10/23 18:39:36","新北市林口區南勢里8鄰53號","121.355095","25.0749166666667","6501700","林口區"
"244009","410-SL","2017/10/23 18:39:48","新北市林口區林口路206號","121.387131666667","25.0833683333333","6501700","林口區"
"244023","483-VK","2017/10/23 18:39:53","新北市林口區文化二路二段86號","121.37856","25.0811616666667","6501700","林口區"
"244017","485-VK","2017/10/23 18:39:51","新北市林口區文化二路一段281號","121.367915","25.07114","6501700","林口區"
"244011","701-TV","2017/10/23 18:39:41","新北市林口區新寮1-83號","121.39274","25.076865","6501700","林口區"
"244021","838-TS","2017/10/23 18:39:39","新北市林口區粉寮路一段64號","121.397068333333","25.078595","6501700","林口區"
"243013","AAD-798","2017/10/23 18:39:39","新北市泰山區明志路三段206巷3號","121.423295","25.0379283333333","6501600","泰山區"
"243009","297-R6","2017/10/23 15:50:39","新北市泰山區黎明路25號","121.421936666667","25.0609916666667","6501600","泰山區"
"243015","380-SR","2017/10/23 18:39:36","新北市泰山區黎明路25號","121.422281666667","25.0607","6501600","泰山區"
"243011","KEA-2216","2017/10/23 18:39:46","新北市泰山區黎明路25號","121.421985","25.0608366666667","6501600","泰山區"
"243012","646-TV","2017/10/23 18:39:46","新北市泰山區泰林路二段73巷31號","121.434341666667","25.0578433333333","6501600","泰山區"
"243016","680-BX","2017/10/23 16:07:00","新北市泰山區黎明路25號","121.422225","25.0606783333333","6501600","泰山區"
"222003","436-BY","2017/10/23 18:39:48","新北市深坑區翠谷街79號","121.627991666667","25.009","6501800","深坑區"
"222001","628-TS","2017/10/23 18:39:52","新北市深坑區北深路一段98號","121.635905","25.010725","6501800","深坑區"
"222002","659-BX","2017/10/23 18:39:44","新北市深坑區文山路一段62巷3號","121.622913333333","25.0008716666667","6501800","深坑區"
"231041","002-UM","2017/10/23 18:39:41","新北市新店區安華路28-1號","121.51967","24.960965","6500600","新店區"
"231059","046-UY","2017/10/23 18:39:52","新北市新店區安華路28-1號","121.519531666667","24.9608333333333","6500600","新店區"
"231061","047-UY","2017/10/23 18:39:37","新北市新店區安華路28-1號","121.519181666667","24.9608783333333","6500600","新店區"
"231060","106-UY","2017/10/23 18:39:37","新北市新店區安華路28-1號","121.519671666667","24.960865","6500600","新店區"
"231047","108-UY","2017/10/23 18:39:40","新北市新店區環河路1-5號","121.538328333333","24.96168","6500600","新店區"
"231052","187-VK","2017/10/23 18:39:54","新北市新店區新烏路一段105巷6號","121.545996666667","24.94098","6500600","新店區"
"231050","KEA-2219","2017/10/23 18:39:38","新北市新店區安華路28-1號","121.519683333333","24.961225","6500600","新店區"
"231057","256-BX","2017/10/23 18:39:43","新北市新店區新烏路一段159-1號","121.547076666667","24.9325316666667","6500600","新店區"
"231063","268-BY","2017/10/23 18:39:40","新北市新店區安華路28-1號","121.519418333333","24.9607183333333","6500600","新店區"
"231046","278-BY","2017/10/23 18:39:38","新北市新店區直潭二街1號","121.535538333333","24.9432183333333","6500600","新店區"
"231058","3712-VJ","2017/10/23 18:39:38","新北市新店區國校路76-1號","121.538576666667","24.9530566666667","6500600","新店區"
"231055","3713-VJ","2017/10/23 18:39:39","新北市新店區華興街24號","121.537548333333","24.9692466666667","6500600","新店區"
"231056","4716-K9","2017/10/23 18:39:39","新北市新店區自立街42號","121.538326666667","24.978705","6500600","新店區"
"231067","4772-VM","2017/10/23 18:39:51","新北市新店區安華路28-1號","121.5192","24.9606433333333","6500600","新店區"
"231065","512-UM","2017/10/23 18:39:45","新北市新店區安華路28-1號","121.519275","24.9613216666667","6500600","新店區"
"231054","513-UM","2017/10/23 18:39:47","新北市新店區安華路28-1號","121.519613333333","24.9611133333333","6500600","新店區"
"231064","515-UM","2017/10/23 18:39:38","新北市新店區安華路28-1號","121.519426666667","24.9613716666667","6500600","新店區"
"231040","619-UM","2017/10/23 18:39:41","新北市新店區安華路28-1號","121.519635","24.961165","6500600","新店區"
"231042","641-BX","2017/10/23 18:39:44","新北市新店區安華路28-1號","121.519545","24.960535","6500600","新店區"
"231049","719-UM","2017/10/23 18:39:34","新北市新店區安康路一段52巷2號","121.530048333333","24.96121","6500600","新店區"
"231051","719-UY","2017/10/23 18:39:52","新北市新店區環河路103-5號","121.531663333333","24.9711466666667","6500600","新店區"
"231062","720-UM","2017/10/23 18:39:36","新北市新店區安華路28-1號","121.519303333333","24.96137","6500600","新店區"
"231044","897-TW","2017/10/23 18:39:45","新北市新店區環河路2號","121.538405","24.961705","6500600","新店區"
"231045","898-TW","2017/10/23 18:39:39","新北市新店區安華路28-1號","121.51942","24.9610983333333","6500600","新店區"
"231043","899-TW","2017/10/23 16:28:09","新北市新店區安華路28-1號","121.519145","24.960995","6500600","新店區"
"231066","AKT-0513","2017/10/23 18:39:45","新北市新店區安華路28-1號","121.519571666667","24.9605866666667","6500600","新店區"
"235066","003-UY","2017/10/23 18:39:45","新北市中和區水源路45號","121.504815","25.00363","6500300","中和區"
"235064","005-UY","2017/10/23 18:39:36","新北市中和區連城路89巷1號","121.496723333333","25.000075","6500300","中和區"
"235063","006-UY","2017/10/23 18:39:47","新北市中和區連城路248號","121.48729","24.9966683333333","6500300","中和區"
"235056","096-UM","2017/10/23 18:39:45","新北市中和區員山路611巷5弄1號","121.47796","25.0112633333333","6500300","中和區"
"235039","097-UM","2017/10/23 18:39:44","新北市永和區中正路97號","121.51495","24.997565","6500300","中和區"
"235065","098-UM","2017/10/23 18:39:44","新北市中和區莊敬路49巷17號","121.50136","25.0056816666667","6500300","中和區"
"235040","150-BY","2017/10/23 18:39:40","新北市中和區安平路59號","121.509591666667","24.9951816666667","6500300","中和區"
"235058","151-BY","2017/10/23 18:39:41","新北市中和區圓通路369巷35號","121.488956666667","24.987055","6500300","中和區"
"235055","183-VK","2017/10/23 18:39:38","新北市中和區民生街17號","121.47117","25.005815","6500300","中和區"
"235038","185-VK","2017/10/23 18:36:41","新北市中和區立人街55號","121.520361666667","24.9942583333333","6500300","中和區"
"235049","186-VK","2017/10/23 18:39:44","新北市中和區景平路510號","121.503811666667","24.9939183333333","6500300","中和區"
"235067","255-BX","2017/10/23 18:39:45","新北市中和區中山路二段475號","121.48315","25.0049183333333","6500300","中和區"
"235044","293-VK","2017/10/23 18:39:41","新北市中和區復興路301巷29號","121.502158333333","24.9897533333333","6500300","中和區"
"235072","301-VK","2017/10/23 18:39:54","新北市中和區連城路8號","121.499063333333","25.0023383333333","6500300","中和區"
"235043","352-BY","2017/10/23 18:39:50","新北市中和區景平路101號","121.517176666667","24.9918216666667","6500300","中和區"
"235051","376-QA","2017/10/23 18:39:51","新北市中和區華新街143巷106弄25號","121.50666","24.97826","6500300","中和區"
"235068","377-QA","2017/10/23 18:39:05","新北市中和區中興街118巷8號","121.500003333333","24.9933816666667","6500300","中和區"
"235061","378-QA","2017/10/23 18:39:48","新北市中和區民享街90巷8號","121.474261666667","25.0002833333333","6500300","中和區"
"235050","4979-A6","2017/10/23 18:39:52","新北市中和區景新街496巷30弄8號","121.513196666667","24.9855633333333","6500300","中和區"
"235069","4980-A6","2017/10/23 18:39:51","新北市中和區南山路73號","121.502275","24.9980583333333","6500300","中和區"
"235042","551-UM","2017/10/23 18:39:46","新北市中和區成功路97巷5弄13號","121.526495","24.9921566666667","6500300","中和區"
"235070","558-UM","2017/10/23 18:39:51","新北市中和區南山路127巷18弄44號","121.50345","24.9964866666667","6500300","中和區"
"235045","565-BX","2017/10/23 18:39:48","新北市中和區南山路236巷26號","121.505661666667","24.988745","6500300","中和區"
"235054","640-BX","2017/10/23 18:39:39","新北市中和區民享街86巷14號","121.473818333333","25.0008583333333","6500300","中和區"
"235060","647-TV","2017/10/23 18:39:55","新北市中和區中山路二段489號","121.482686666667","25.0049316666667","6500300","中和區"
"235047","732-UM","2017/10/23 18:39:50","新北市中和區南山路543號","121.507976666667","24.9867016666667","6500300","中和區"
"235046","733-UM","2017/10/23 18:39:45","新北市中和區捷運路8-1號","121.509715","24.9895683333333","6500300","中和區"
"235062","800-TS","2017/10/23 18:39:42","新北市中和區景平路703巷2弄7號","121.495668333333","25.00372","6500300","中和區"
"235057","801-TS","2017/10/23 18:39:45","新北市中和區民安街42巷32號","121.479216666667","25.0010883333333","6500300","中和區"
"235041","802-TS","2017/10/23 18:39:41","新北市中和區中正路2-1號","121.503146666667","24.9935183333333","6500300","中和區"
"235052","805-TS","2017/10/23 18:39:38","新北市中和區興南路三段80號","121.492043333333","24.9741133333333","6500300","中和區"
"235048","896-TW","2017/10/23 18:39:48","新北市中和區南山路317號","121.505003333333","24.9913983333333","6500300","中和區"
"235053","900-TW","2017/10/23 18:39:41","新北市土城區延壽路55巷1號","121.469843333333","24.99214","6500300","中和區"
"235037","AAC-213","2017/10/23 18:39:43","新北市中和區景平路151巷39號","121.514646666667","24.99067","6500300","中和區"
"235059","AAC-215","2017/10/23 18:39:50","新北市中和區錦和路350-1號","121.49055","24.9935366666667","6500300","中和區"
"220068","013-TV","2017/10/23 18:39:51","新北市板橋區民生路二段161巷5號","121.470255","25.01973","6500100","板橋區"
"220086","073-UY","2017/10/23 18:39:52","新北市板橋區南雅西路二段156巷2號","121.451801666667","25.013285","6500100","板橋區"
"220069","AAD-861","2017/10/23 18:39:55","新北市板橋區華東街1-10號","121.448345","24.995155","6500100","板橋區"
"247008","053-VK","2017/10/23 18:39:48","新北市八里區中華路三段62號","121.39414","25.1408166666667","6501400","蘆洲區"
"226004","312-R5","2017/10/23 18:39:55","新北市平溪區石底里石筍尖6-1號","121.736203333333","25.024905","6502400","平溪區"
"228003","097-TW","2017/10/23 18:39:49","新北市貢寮區和美里龍洞街12-2號","121.918311666667","25.1117566666667","6502600","貢寮區"
"228002","585-TW","2017/10/23 18:39:38","新北市貢寮區福隆里東興街6-11號","121.950738333333","25.0210933333333","6502600","貢寮區"
"228001","670-TC","2017/10/23 18:39:48","新北市貢寮區仁理村研海街12-1號","121.923818333333","25.0517283333333","6502600","貢寮區"
"224010","AGQ-8101","2017/10/23 18:37:05","新北市瑞芳區崙頂路41號","121.844813333333","25.1072933333333","6501200","瑞芳區"
"224006","676-BX","2017/10/23 18:39:53","新北市瑞芳區明燈路三段100號","121.805258333333","25.108405","6501200","瑞芳區"
"224002","639-TC","2017/10/23 18:39:51","新北市瑞芳區三爪子坑路44號","121.810655","25.1059066666667","6501200","瑞芳區"
"224009","285-BY","2017/10/23 18:39:52","新北市瑞芳區五號路308號","121.85684","25.1115","6501200","瑞芳區"
"224008","275-VK","2017/10/23 18:39:50","新北市瑞芳區岳王路37號","121.807941666667","25.11139","6501200","瑞芳區"
"224007","273-VK","2017/10/23 18:39:46","新北市瑞芳區大埔路117號","121.763516666667","25.1010566666667","6501200","瑞芳區"
"224005","271-BY","2017/10/23 18:39:48","新北市瑞芳區瑞濱路147-9號","121.818428333333","25.1183","6501200","瑞芳區"
"227001","642-TC","2017/10/23 18:39:44","新北市雙溪區魚行里坤溪3-5號","121.875543333333","25.0213733333333","6502500","雙溪區"
"227008","400-TW","2017/10/23 18:39:50","新北市雙溪區牡丹里下坑11號","121.851003333333","25.0562016666667","6502500","雙溪區"
"253005","032-BX","2017/10/23 18:39:48","新北市石門區石門街45號","121.566435","25.2903383333333","6502200","石門區"
"253006","295-VK","2017/10/23 18:39:49","新北市石門區崁子腳28-5號","121.538318333333","25.2894733333333","6502200","石門區"
"208002","742-BX","2017/10/23 18:39:35","新北市金山區忠孝一路20巷2號","121.6385","25.219485","6502700","金山區"
"208003","665-BX","2017/10/23 18:39:55","新北市金山區中山路379號","121.634221666667","25.224745","6502700","金山區"
"208001","761-BX","2017/10/23 18:39:52","新北市金山區文化三路7號","121.635058333333","25.2249383333333","6502700","金山區"
"251004","009-UM","2017/10/23 18:39:46","新北市淡水區中正東路二段143巷8弄2號","121.461375","25.147535","6501000","淡水區"
"251001","011-UM","2017/10/23 18:39:46","新北市淡水區自強路415巷2號","121.465496666667","25.1342433333333","6501000","淡水區"
"251008","181-VK","2017/10/23 18:39:52","新北市淡水區北投子77-1號","121.459378333333","25.178955","6501000","淡水區"
"251013","182-VK","2017/10/23 18:39:40","新北市淡水區雲廣坑9號","121.476191666667","25.2115483333333","6501000","淡水區"
"251010","413-VK","2017/10/23 18:39:33","新北市淡水區沙崙路122號","121.423318333333","25.1828366666667","6501000","淡水區"
"251012","441-VK","2017/10/23 18:39:43","新北市淡水區北新路169巷2號","121.450358333333","25.1793666666667","6501000","淡水區"
"251015","442-VK","2017/10/23 18:39:48","新北市淡水區興福寮66巷319號","121.484863333333","25.16175","6501000","淡水區"
"251011","650-BX","2017/10/23 18:39:45","新北市淡水區鄧公路36巷5號","121.456853333333","25.1690633333333","6501000","淡水區"
"251002","672-BX","2017/10/23 18:39:48","新北市淡水區中正東路一段3巷2號","121.450401666667","25.165075","6501000","淡水區"
"251003","766-UM","2017/10/23 18:39:51","新北市淡水區北新路69巷26號","121.44677","25.1801516666667","6501000","淡水區"
"207003","550-UM","2017/10/23 18:39:44","新北市萬里區野柳里港西路48號","121.680345","25.2025533333333","6502800","萬里區"
"207004","225-TW","2017/10/23 18:39:50","新北市萬里區萬里里獅頭路12-4號","121.692586666667","25.17935","6502800","萬里區"
"252002","178-VK","2017/10/23 18:39:45","新北市三芝區民生街64巷11號","121.50365","25.25507","6502100","三芝區"
"252003","249-BX","2017/10/23 18:39:46","新北市三芝區後厝里土地公坑54-16號","121.46606","25.2495966666667","6502100","三芝區"
"252001","292-VK","2017/10/23 18:39:35","新北市三芝區中興街二段64號","121.499751666667","25.25485","6502100","三芝區"
"237004","078-UY","2017/10/23 18:39:45","新北市三峽區插角82號","121.406193333333","24.8709116666667","6500900","三峽區"
"237007","153-BY","2017/10/23 18:39:38","新北市三峽區柑樹路2巷3號","121.362216666667","24.90555","6500900","三峽區"
"237009","210-TH","2017/10/23 18:39:34","新北市三峽區大同路286巷3號","121.364315","24.9253266666667","6500900","三峽區"
"237013","252-BX","2017/10/23 18:39:45","新北市三峽區光明路69巷25號","121.37663","24.9292233333333","6500900","三峽區"
"237012","275-BY","2017/10/23 18:39:40","新北市樹林區佳園路三段486號","121.382986666667","24.9439366666667","6500900","三峽區"
"237008","302-VK","2017/10/23 18:39:50","新北市三峽區白雞57-1號","121.389116666667","24.9123366666667","6500900","三峽區"
"237014","433-BY","2017/10/23 18:39:36","新北市三峽區文化路118號","121.371126666667","24.9361966666667","6500900","三峽區"
"237006","5529-G3","2017/10/23 18:39:48","新北市三峽區溪東路315巷112號","121.412053333333","24.9316233333333","6500900","三峽區"
"237011","572-TV","2017/10/23 18:09:18","新北市三峽區橫溪路1號","121.396078333333","24.9361666666667","6500900","三峽區"
"237015","649-BX","2017/10/23 18:39:42","新北市三峽區成福路295號","121.42881","24.9236333333333","6500900","三峽區"
"237010","706-TV","2017/10/23 18:39:54","新北市三峽區復興路357號","121.363796666667","24.9386283333333","6500900","三峽區"
"237005","AKY-6261","2017/10/23 18:39:43","新北市三峽區民生街104巷3-1號","121.37359","24.935895","6500900","三峽區"
"236069","105-UM","2017/10/23 18:39:50","新北市土城區永豐路157巷29弄1號","121.46873","24.981605","6501300","土城區"
"236042","107-UM","2017/10/23 18:39:38","新北市土城區學成路110號","121.449823333333","24.9893083333333","6501300","土城區"
"236078","166-UM","2017/10/23 18:39:39","新北市土城區中央路四段46巷28號","121.421906666667","24.96165","6501300","土城區"
"236030","253-BX","2017/10/23 18:39:55","新北市土城區慶利街23號","121.438971666667","24.9742016666667","6501300","土城區"
"236026","269-VK","2017/10/23 18:39:53","新北市土城區忠義路51號","121.440411666667","24.9690216666667","6501300","土城區"
"236014","270-VK","2017/10/23 18:39:44","新北市土城區清水路207巷11號","121.45996","24.9824","6501300","土城區"
"236036","271-VK","2017/10/23 18:39:44","新北市土城區明德路一段313巷3弄13號","121.46013","24.9765483333333","6501300","土城區"
"236020","401-BY","2017/10/23 18:39:43","新北市土城區延吉街262號","121.466095","24.984475","6501300","土城區"
"236058","912-UM","2017/10/23 18:39:44","新北市土城區中央路四段208號","121.415985","24.9574783333333","6501300","土城區"
"236048","913-UM","2017/10/23 18:39:47","新北市土城區青雲路113號","121.459","24.9844983333333","6501300","土城區"
"236062","915-UM","2017/10/23 18:39:43","新北市土城區延和路125巷39號","121.469183333333","24.9912833333333","6501300","土城區"
"236053","AAC-216","2017/10/23 18:39:43","新北市土城區中華路一段167號","121.443738333333","24.98602","6501300","土城區"
"242039","566-BX","2017/10/23 18:39:46","新北市樹林區八德街860號","121.391806666667","24.968645","6500500","新莊區"
"242048","441-UM","2017/10/23 18:39:53","新北市樹林區中山路三段214號","121.38016","24.9680166666667","6500500","新莊區"
"242060","362-BY","2017/10/23 18:39:51","新北市新莊區新樹路168號","121.434903333333","25.0222016666667","6500500","新莊區"
"242001","233-RS","2017/10/23 09:11:45","新北市新莊區環河路48-7號","121.436903333333","25.0097833333333","6500500","新莊區"
"242056","349-TH","2017/10/23 18:39:50","新北市新莊區環河路636-7號","121.43748","25.0117216666667","6500500","新莊區"
"238015","755-BX","2017/10/23 18:39:44","新北市樹林區大安路515號","121.414178333333","24.9861516666667","6500700","樹林區"
"238023","601-UM","2017/10/23 18:39:44","新北市樹林區三福街114號","121.406396666667","25.0163183333333","6500700","樹林區"
"238019","599-UM","2017/10/23 18:39:38","新北市樹林區中山路二段111號","121.410738333333","24.9811583333333","6500700","樹林區"
"238018","571-TV","2017/10/23 18:39:54","新北市樹林區樹新路50巷5弄28號","121.42951","24.9967583333333","6500700","樹林區"
"238024","5061-A6","2017/10/23 18:39:35","新北市樹林區中華路190-1號","121.411448333333","24.9805516666667","6500700","樹林區"
"238025","303-VK","2017/10/23 18:39:41","新北市樹林區中山路三段214號","121.380248333333","24.9680616666667","6500700","樹林區"
"238020","268-VK","2017/10/23 18:39:36","新北市樹林區俊安街42-1號","121.419536666667","25.0133466666667","6500700","樹林區"
"238026","172-UY","2017/10/23 18:39:53","新北市樹林區育德街78-1號","121.388478333333","24.96815","6500700","樹林區"
"238016","169-UY","2017/10/23 18:39:42","新北市樹林區文化街28號","121.419316666667","24.98769","6500700","樹林區"
"239007","AAC-297","2017/10/23 18:39:41","新北市鶯歌區中正一路478號","121.366481666667","24.956845","6500800","鶯歌區"
"239006","891-R6","2017/10/23 18:39:44","新北市鶯歌區鶯桃路296巷51號","121.335771666667","24.9614383333333","6500800","鶯歌區"
"239008","527-UM","2017/10/23 18:39:46","新北市鶯歌區國際一路179號","121.336255","24.9765233333333","6500800","鶯歌區"
"239005","526-UM","2017/10/23 18:39:45","新北市鶯歌區鳳吉二街108號","121.327576666667","24.9742633333333","6500800","鶯歌區"
"239001","417-VK","2017/10/23 18:39:40","新北市鶯歌區中正二路184號","121.340873333333","24.947705","6500800","鶯歌區"
"239003","360-BY","2017/10/23 18:39:37","新北市鶯歌區永和街249號","121.336995","24.972215","6500800","鶯歌區"
"239002","359-BY","2017/10/23 18:39:53","新北市鶯歌區中山路315號","121.344026666667","24.9569616666667","6500800","鶯歌區"
"239004","193-VK","2017/10/23 18:39:49","新北市鶯歌區尖山路251號","121.340666666667","24.9435683333333","6500800","鶯歌區"
"221008","489-VK","2017/10/23 18:39:49","新北市汐止區康寧街901號","121.651463333333","25.075085","6501100","汐止區"
"221036","130-UY","2017/10/23 18:39:38","新北市汐止區忠孝東路337號","121.665111666667","25.0699966666667","6501100","汐止區"
"221015","131-UY","2017/10/23 18:39:49","新北市汐止區鄉長路二段10-1號","121.668813333333","25.08089","6501100","汐止區"
"221010","269-BY","2017/10/23 18:39:44","新北市汐止區瑞松街10號","121.645206666667","25.104955","6501100","汐止區"
"221012","278-VK","2017/10/23 18:39:42","新北市汐止區長江街233號","121.66208","25.0780716666667","6501100","汐止區"
"221023","279-VK","2017/10/23 18:39:40","新北市汐止區康寧街541巷8號","121.63402","25.0694633333333","6501100","汐止區"
"221032","280-BY","2017/10/23 18:39:54","新北市汐止區民權街二段79號","121.619171666667","25.0480233333333","6501100","汐止區"
"221027","281-BY","2017/10/23 18:39:50","新北市汐止區中正路7號","121.663023333333","25.069945","6501100","汐止區"
"221029","298-VK","2017/10/23 18:39:37","新北市汐止區樟樹一路150號","121.642205","25.06511","6501100","汐止區"
"221021","299-VK","2017/10/23 18:39:36","新北市汐止區復興路72號","121.657153333333","25.062105","6501100","汐止區"
"221031","353-TW","2017/10/23 18:39:44","新北市汐止區中興路108號","121.633423333333","25.0635816666667","6501100","汐止區"
"221035","622-UM","2017/10/23 18:39:52","新北市汐止區大同路二段298號","121.65518","25.0667333333333","6501100","汐止區"
"221025","623-UM","2017/10/23 18:39:51","新北市汐止區福安街20巷20號","121.661993333333","25.064585","6501100","汐止區"
"221038","646-BX","2017/10/23 18:39:37","新北市汐止區汐萬路一段39號","121.655235","25.06888","6501100","汐止區"
"221033","647-BX","2017/10/23 18:39:47","新北市汐止區林森街129巷4號","121.624698333333","25.0409216666667","6501100","汐止區"
"221002","707-TV","2017/10/23 18:39:44","新北市汐止區中興路25號","121.636918333333","25.0596333333333","6501100","汐止區"
"221018","753-BX","2017/10/23 18:39:37","新北市汐止區茄苳路262號","121.671821666667","25.0681316666667","6501100","汐止區"
"220079","145-BY","2017/10/23 18:39:37","新北市板橋區板城路271號","121.449983333333","24.99845","6500100","板橋區"
"220080","200-UY","2017/10/23 18:39:44","新北市板橋區大觀路二段435-10號","121.445206666667","24.994475","6500100","板橋區"
"220082","610-BX","2017/10/23 18:39:48","新北市板橋區四川路二段橋頭1號","121.446505","24.9942183333333","6500100","板橋區"
"220101","245-BX","2017/10/23 16:57:57","新北市板橋區民生路二段161巷1號","121.47013","25.0199133333333","6500100","板橋區"
"220056","276-BY","2017/10/23 18:39:53","新北市板橋區四川路二段橋頭6號","121.448346666667","24.994075","6500100","板橋區"
"220072","277-BY","2017/10/23 18:39:54","新北市板橋區四川路二段橋頭1巷1號","121.446856666667","24.9941466666667","6500100","板橋區"
"220071","283-VK","2017/10/23 18:39:53","新北市板橋區華東街1-9號","121.448113333333","24.994905","6500100","板橋區"
"220053","285-VK","2017/10/23 18:39:49","新北市板橋區民生路二段120號","121.470293333333","25.0199433333333","6500100","板橋區"
"220083","286-VK","2017/10/23 18:39:46","新北市板橋區大觀路288號","121.449381666667","24.998405","6500100","板橋區"
"220081","287-VK","2017/10/23 18:39:44","新北市板橋區華東街1-10號","121.44827","24.9950266666667","6500100","板橋區"
"220061","293-UM","2017/10/23 18:39:36","新北市板橋區民生路二段161巷3號","121.470283333333","25.01985","6500100","板橋區"
"220084","296-UM","2017/10/23 18:39:50","新北市板橋區板城路327號","121.4492","24.9975033333333","6500100","板橋區"
"220075","297-UM","2017/10/23 18:39:47","新北市板橋區華東街1-9號","121.448203333333","24.9950016666667","6500100","板橋區"
"242001","281-VK","2017/10/23 14:59:30","新北市新莊區環河路636-7號","121.437361666667","25.0113566666667","6500500","新莊區"
"220062","305-R5","2017/10/23 18:39:49","新北市板橋區民生路二段120號","121.470416666667","25.0197183333333","6500100","板橋區"
"220092","307-R5","2017/10/23 18:39:46","新北市板橋區民生路二段161巷5號","121.470288333333","25.0197883333333","6500100","板橋區"
"220064","486-VK","2017/10/23 18:39:49","新北市板橋區民生路二段36-1號","121.472126666667","25.0167883333333","6500100","板橋區"
"220035","560-BX","2017/10/23 18:39:40","新北市板橋區南雅西路二段145巷10號","121.451571666667","25.0119166666667","6500100","板橋區"
"220001","568-UM","2017/10/23 13:41:18","新北市板橋區華東街1-9號","121.448118333333","24.9948433333333","6500100","板橋區"
"220063","609-BX","2017/10/23 16:53:01","新北市板橋區民生路二段120號","121.470356666667","25.0200433333333","6500100","板橋區"
"220057","686-BX","2017/10/23 18:39:55","新北市板橋區華東街1-9號","121.448191666667","24.9949333333333","6500100","板橋區"
"220077","687-BX","2017/10/23 18:39:38","新北市板橋區四川路二段橋頭1巷1號","121.446941666667","24.9940916666667","6500100","板橋區"
"220054","741-BX","2017/10/23 18:39:36","新北市板橋區華東街1-9號","121.4481","24.99493","6500100","板橋區"
"220055","827-TW","2017/10/23 18:39:50","新北市板橋區華東街1-9號","121.448163333333","24.9949416666667","6500100","板橋區"
"220102","830-TW","2017/10/23 16:44:25","新北市板橋區民生路二段161巷5號","121.470046666667","25.0196766666667","6500100","板橋區"
"220074","895-R6","2017/10/23 18:39:47","新北市板橋區四川路二段130巷25弄10號","121.448975","24.9945816666667","6500100","板橋區"
"220073","985-R7","2017/10/23 18:39:44","新北市板橋區南雅南路二段136號","121.45201","24.9965","6500100","板橋區"
"220097","AAC-210","2017/10/23 16:49:55","新北市板橋區民生路二段161巷3號","121.470136666667","25.019805","6500100","板橋區"
"220070","AAC-253","2017/10/23 18:39:37","新北市板橋區板城路407號","121.447476666667","24.995135","6500100","板橋區"
