"lineid","car","time","location","longitude","latitude","cityid","cityname"
"234046","148-BY","2017/10/23 19:49:43","新北市永和區秀朗路二段97號","121.523296666667","25.0017233333333","6500400","永和區"
"234013","149-BY","2017/10/23 19:49:38","新北市永和區仁愛路190號","121.509736666667","25.01251","6500400","永和區"
"234007","207-UY","2017/10/23 19:49:37","新北市中和區南工路1號","121.505275","24.9998266666667","6500400","永和區"
"234081","298-R6","2017/10/23 19:49:46","新北市永和區國中路1號","121.523981666667","25.0044083333333","6500400","永和區"
"234038","336-UY","2017/10/23 19:49:42","新北市永和區民樂街39巷18弄64號","121.52844","24.9987666666667","6500400","永和區"
"234064","337-UY","2017/10/23 19:49:45","新北市永和區中正路368巷18號","121.518493333333","25.0007566666667","6500400","永和區"
"234086","338-UY","2017/10/23 19:49:39","新北市永和區永亨路122號","121.524451666667","25.0040816666667","6500400","永和區"
"234070","552-UM","2017/10/23 19:49:44","新北市永和區竹林路88號","121.519386666667","25.012595","6500400","永和區"
"234054","553-UM","2017/10/23 19:49:41","新北市永和區竹林路73-1號","121.518585","25.013225","6500400","永和區"
"234017","745-BX","2017/10/23 19:49:39","新北市永和區永和路二段393-1號","121.515571666667","25.0167166666667","6500400","永和區"
"234030","746-BX","2017/10/23 19:49:47","新北市永和區民生路67巷33號","121.524533333333","24.99737","6500400","永和區"
"234061","AAD-866","2017/10/23 19:49:53","新北市永和區中正路184號","121.51527","24.9968866666667","6500400","永和區"
"234042","862-TW","2017/10/23 19:49:49","新北市永和區中和路389巷8號","121.508088333333","25.0009383333333","6500400","永和區"
"234050","863-TW","2017/10/23 19:49:42","新北市永和區保安路2號","121.510896666667","25.0174316666667","6500400","永和區"
"234026","9371-KE","2017/10/23 19:49:37","新北市永和區雙和街52巷1-1號","121.509088333333","25.00318","6500400","永和區"
"234011","9373-KE","2017/10/23 19:49:47","新北市永和區仁愛路352巷92弄2號","121.501198333333","25.0078516666667","6500400","永和區"
"249001","173-UM","2017/10/23 19:49:34","新北市八里區中華路二段252號","121.405378333333","25.1497066666667","6502300","八里區"
"249004","303-UY","2017/10/23 19:49:50","新北市八里區中山路一段268巷38號","121.41471","25.1607633333333","6502300","八里區"
"249002","305-UY","2017/10/23 19:49:38","新北市八里區頂寮五街20號","121.451306666667","25.12626","6502300","八里區"
"249003","759-BX","2017/10/23 19:49:46","新北市八里區華峰三街37號","121.398608333333","25.145445","6502300","八里區"
"248014","025-BX","2017/10/23 19:49:37","新北市五股區五福路42巷27號","121.434905","25.09015","6501500","五股區"
"248016","026-BX","2017/10/23 19:49:52","新北市五股區成泰路三段601巷17-1號","121.451751666667","25.103315","6501500","五股區"
"248008","095-VK","2017/10/23 19:49:45","新北市五股區四維路171巷5號","121.467493333333","25.0751366666667","6501500","五股區"
"248018","225-UY","2017/10/23 19:35:51","新北市五股區壟路16號","121.415023333333","25.0853966666667","6501500","五股區"
"248012","247-BX","2017/10/23 19:49:47","新北市五股區蓬萊路24號","121.433956666667","25.0798933333333","6501500","五股區"
"248010","272-BY","2017/10/23 19:49:47","新北市五股區登林路貿商巷1弄1號","121.430493333333","25.069595","6501500","五股區"
"248004","677-BX","2017/10/23 19:49:37","新北市五股區成泰路一段130-2號","121.4351","25.0752383333333","6501500","五股區"
"248002","678-BX","2017/10/23 19:49:37","新北市五股區成泰路四段15-4號","121.453008333333","25.1070516666667","6501500","五股區"
"234077","969-R7","2017/10/23 19:49:42","新北市永和區民治街45號","121.519006666667","24.997785","6500400","永和區"
"234074","AAC-211","2017/10/23 19:49:47","新北市永和區竹林路179巷26號","121.521713333333","25.0100783333333","6500400","永和區"
"234067","AAC-212","2017/10/23 19:49:50","新北市永和區永貞路355巷2號","121.509026666667","25.00757","6500400","永和區"
"234003","AAC-295","2017/10/23 19:49:50","新北市永和區福和路345號","121.515426666667","25.0071633333333","6500400","永和區"
"244019","403-UM","2017/10/23 19:49:53","新北市林口區文化二路一段565號","121.375056666667","25.0773466666667","6501700","林口區"
"244025","742-UY","2017/10/23 19:49:36","新北市八里區長道坑23-3號","121.397801666667","25.1074866666667","6501700","林口區"
"243013","AAD-798","2017/10/23 19:49:39","新北市泰山區應化街7號","121.423855","25.043755","6501600","泰山區"
"243009","297-R6","2017/10/23 19:49:44","新北市泰山區美寧街76號","121.431506666667","25.0645383333333","6501600","泰山區"
"243015","380-SR","2017/10/23 19:49:36","新北市泰山區明志路二段239號","121.427368333333","25.0480866666667","6501600","泰山區"
"243014","421-VK","2017/10/23 19:49:47","新北市泰山區泰林路二段33-7號","121.435203333333","25.0564266666667","6501600","泰山區"
"243010","KEA-2215","2017/10/23 19:49:45","新北市泰山區民生路33號","121.430621666667","25.0522183333333","6501600","泰山區"
"243011","KEA-2216","2017/10/23 19:49:46","新北市泰山區明志路三段182巷39號","121.423038333333","25.0394","6501600","泰山區"
"243012","646-TV","2017/10/23 19:49:46","新北市泰山區全興路13號","121.432311666667","25.059","6501600","泰山區"
"243016","680-BX","2017/10/23 19:49:42","新北市泰山區中山路三段114號","121.417871666667","25.032265","6501600","泰山區"
"222003","436-BY","2017/10/23 19:32:30","新北市深坑區深南路51-1號","121.621145","25.0100566666667","6501800","深坑區"
"222001","628-TS","2017/10/23 19:49:52","新北市深坑區北深路三段47號","121.607855","25.0013066666667","6501800","深坑區"
"222002","659-BX","2017/10/23 19:49:44","新北市深坑區北深路二段16號","121.620803333333","25.0044583333333","6501800","深坑區"
"231041","002-UM","2017/10/23 19:49:41","新北市新店區中央路224號","121.529666666667","24.97289","6500600","新店區"
"231059","046-UY","2017/10/23 19:49:52","新北市新店區安和路一段23號","121.517063333333","24.96495","6500600","新店區"
"231061","047-UY","2017/10/23 19:49:37","新北市新店區安民街283號","121.517461666667","24.9733266666667","6500600","新店區"
"231060","106-UY","2017/10/23 19:49:37","新北市新店區安康路二段161號","121.510225","24.9592916666667","6500600","新店區"
"231047","108-UY","2017/10/23 19:49:40","新北市新店區寶興路65巷2-1號","121.550888333333","24.9717083333333","6500600","新店區"
"231052","187-VK","2017/10/23 19:49:37","新北市新店區新烏路三段44號","121.553833333333","24.9047533333333","6500600","新店區"
"231050","KEA-2219","2017/10/23 19:47:38","新北市新店區北宜路二段579巷13號","121.565478333333","24.9544233333333","6500600","新店區"
"231057","256-BX","2017/10/23 19:49:53","新北市新店區花園二路三段19號","121.556405","24.931495","6500600","新店區"
"231063","268-BY","2017/10/23 19:49:40","新北市新店區黎明路3號","121.503165","24.952165","6500600","新店區"
"231046","278-BY","2017/10/23 19:49:38","新北市新店區三民路159巷19弄44號","121.532253333333","24.9732366666667","6500600","新店區"
"231055","3713-VJ","2017/10/23 19:49:39","新北市新店區北新路一段235號","121.540516666667","24.96572","6500600","新店區"
"231067","4772-VM","2017/10/23 19:49:51","新北市新店區精忠路10-1號","121.53269","24.9590533333333","6500600","新店區"
"231065","512-UM","2017/10/23 19:49:45","新北市新店區安祥路109巷90弄2號","121.477975","24.9598133333333","6500600","新店區"
"231054","513-UM","2017/10/23 19:49:46","新北市新店區光明街136號","121.53944","24.9612833333333","6500600","新店區"
"231064","515-UM","2017/10/23 19:49:47","新北市新店區安和路二段117巷10號","121.518333333333","24.9702716666667","6500600","新店區"
"231040","619-UM","2017/10/23 19:49:41","新北市新店區北新路一段96巷23號","121.543046666667","24.968745","6500600","新店區"
"231042","641-BX","2017/10/23 19:49:44","新北市新店區中興路一段267-3號","121.54502","24.9678166666667","6500600","新店區"
"231068","718-UY","2017/10/23 19:49:41","新北市新店區安華路28-1號","121.519251666667","24.96104","6500600","新店區"
"231049","719-UM","2017/10/23 19:49:54","新北市新店區民權路127巷7號","121.535488333333","24.98189","6500600","新店區"
"231051","719-UY","2017/10/23 19:49:52","新北市新店區中央路208號","121.530165","24.9739","6500600","新店區"
"231062","720-UM","2017/10/23 19:49:36","新北市新店區永業路113號","121.528473333333","24.948205","6500600","新店區"
"231044","897-TW","2017/10/23 19:49:48","新北市新店區復興路16號","121.539635","24.986805","6500600","新店區"
"231045","898-TW","2017/10/23 19:49:39","新北市新店區北宜路二段384號","121.564541666667","24.9528183333333","6500600","新店區"
"231043","899-TW","2017/10/23 19:49:52","新北市新店區中正路215號","121.539748333333","24.97285","6500600","新店區"
"241011","013-R5","2017/10/23 19:49:43","新北市三重區三和路二段173巷47號","121.499303333333","25.0702183333333","6500200","三重區"
"241028","022-UY","2017/10/23 19:49:49","新北市三重區中正南路157號","121.493816666667","25.056215","6500200","三重區"
"241008","059-VK","2017/10/23 19:49:35","新北市三重區永福街101號","121.479278333333","25.0773366666667","6500200","三重區"
"241009","060-VK","2017/10/23 19:49:48","新北市三重區三和路四段398-1號","121.481423333333","25.0792333333333","6500200","三重區"
"241031","061-VK","2017/10/23 19:49:41","新北市三重區重新路四段244巷10號","121.486223333333","25.053555","6500200","三重區"
"241017","063-VK","2017/10/23 19:49:43","新北市三重區重陽路三段5巷8弄16號","121.489575","25.066535","6500200","三重區"
"241024","065-VK","2017/10/23 19:49:41","新北市三重區大勇街82巷5號","121.47951","25.0714133333333","6500200","三重區"
"241026","066-VK","2017/10/23 19:49:37","新北市三重區文化南路42號","121.500418333333","25.0602666666667","6500200","三重區"
"241003","091-VK","2017/10/23 19:49:33","新北市三重區五華街93巷42號","121.493395","25.084695","6500200","三重區"
"241015","265-UM","2017/10/23 19:49:48","新北市三重區三和路一段2號","121.503861666667","25.0642783333333","6500200","三重區"
"241016","266-UM","2017/10/23 19:49:53","新北市三重區正德街43號","121.495725","25.0627116666667","6500200","三重區"
"241022","267-UM","2017/10/23 19:49:40","新北市三重區重新路三段115巷10號","121.49042","25.0602183333333","6500200","三重區"
"241018","268-UM","2017/10/23 19:49:49","新北市三重區雙園街57巷3號","121.494878333333","25.0676333333333","6500200","三重區"
"241032","269-UM","2017/10/23 19:49:37","新北市三重區重陽路一段44巷7號","121.486086666667","25.0577766666667","6500200","三重區"
"241013","270-UM","2017/10/23 19:49:56","新北市三重區仁愛街112巷12號","121.494803333333","25.0740633333333","6500200","三重區"
"241025","271-UM","2017/10/23 19:49:51","新北市三重區大有街1-1號","121.47767","25.06532","6500200","三重區"
"241007","398-BY","2017/10/23 19:49:36","新北市三重區三和路四段135巷8-1號","121.485055","25.0781516666667","6500200","三重區"
"241020","413-TH","2017/10/23 19:49:41","新北市三重區後竹圍街22號","121.491346666667","25.0735616666667","6500200","三重區"
"241035","462-BY","2017/10/23 19:49:36","新北市三重區文化北路18號","121.499393333333","25.0639366666667","6500200","三重區"
"241004","475-VK","2017/10/23 19:49:48","新北市三重區五華街74號","121.493406666667","25.0820133333333","6500200","三重區"
"241019","478-VK","2017/10/23 19:49:46","新北市三重區三張街104號","121.487918333333","25.0699366666667","6500200","三重區"
"241030","480-VK","2017/10/23 19:49:45","新北市三重區昌隆街71號","121.490868333333","25.05079","6500200","三重區"
"241014","543-UM","2017/10/23 19:49:52","新北市三重區三和路二段37-8號","121.5013","25.0675733333333","6500200","三重區"
"241023","545-UM","2017/10/23 19:49:41","新北市三重區頂崁街172號","121.477566666667","25.0659466666667","6500200","三重區"
"241001","547-UM","2017/10/23 19:49:42","新北市三重區仁愛街327巷52號","121.493383333333","25.0802166666667","6500200","三重區"
"241006","AAD-863","2017/10/23 19:49:46","新北市三重區永福街281-3號","121.4829","25.0744583333333","6500200","三重區"
"241012","941-UM","2017/10/23 19:49:51","新北市三重區仁興街56巷44號","121.498088333333","25.0754733333333","6500200","三重區"
"241029","942-UM","2017/10/23 19:49:45","新北市三重區光明路25號","121.49124","25.05852","6500200","三重區"
"241033","AAC-255","2017/10/23 19:49:52","新北市三重區中興南街64號","121.470626666667","25.0440483333333","6500200","三重區"
"235066","003-UY","2017/10/23 19:49:45","新北市中和區中山路二段47號","121.504383333333","25.0049133333333","6500300","中和區"
"235064","005-UY","2017/10/23 19:49:36","新北市中和區南山路28號","121.501908333333","24.9979733333333","6500300","中和區"
"235063","006-UY","2017/10/23 19:49:46","新北市中和區連城路174號","121.493268333333","24.997065","6500300","中和區"
"235056","096-UM","2017/10/23 19:49:45","新北市中和區中山路三段112號","121.476215","25.005985","6500300","中和區"
"235039","097-UM","2017/10/23 19:49:44","新北市中和區大勇街25巷2號","121.517201666667","24.9933033333333","6500300","中和區"
"235065","098-UM","2017/10/23 19:49:45","新北市中和區莊敬路23號","121.500076666667","25.0046033333333","6500300","中和區"
"235040","150-BY","2017/10/23 19:49:40","新北市中和區保健路44巷7號","121.509196666667","24.9968733333333","6500300","中和區"
"235058","151-BY","2017/10/23 19:49:41","新北市中和區員山路146巷24號","121.482508333333","24.9967766666667","6500300","中和區"
"235055","183-VK","2017/10/23 19:49:38","新北市中和區德光路17號","121.471088333333","25.0043633333333","6500300","中和區"
"235038","185-VK","2017/10/23 19:49:41","新北市中和區自立路29巷14弄2號","121.522861666667","24.9955016666667","6500300","中和區"
"235049","186-VK","2017/10/23 19:49:44","新北市中和區中興街55號","121.500626666667","24.9937533333333","6500300","中和區"
"235067","255-BX","2017/10/23 19:49:45","新北市中和區新生街186巷1弄2號","121.483333333333","24.9995616666667","6500300","中和區"
"235044","293-VK","2017/10/23 19:49:41","新北市中和區捷運路127號","121.506981666667","24.99048","6500300","中和區"
"235072","301-VK","2017/10/23 19:49:14","新北市中和區圓通路369巷35號","121.489451666667","24.9872783333333","6500300","中和區"
"235043","352-BY","2017/10/23 19:49:50","新北市中和區華新街230號","121.506005","24.9817833333333","6500300","中和區"
"235051","376-QA","2017/10/23 19:49:51","新北市中和區中興街180巷52弄5號","121.498395","24.9882883333333","6500300","中和區"
"235068","377-QA","2017/10/23 19:49:05","新北市中和區莊敬路16巷15弄9號","121.500498333333","25.00394","6500300","中和區"
"235061","378-QA","2017/10/23 19:49:48","新北市中和區員山路226巷7弄2號","121.481851666667","25.000545","6500300","中和區"
"235071","269-TV","2017/10/23 19:49:52","新北市中和區永和路335-1號","121.48483","25.011365","6500300","中和區"
"235050","4979-A6","2017/10/23 19:49:52","新北市中和區景平路241巷82弄28號","121.506726666667","24.992335","6500300","中和區"
"235069","4980-A6","2017/10/23 19:49:51","新北市中和區南山路37巷3弄2號","121.502855","24.99916","6500300","中和區"
"235042","551-UM","2017/10/23 19:49:46","新北市中和區景安路79巷37弄14-6號","121.508301666667","24.9960116666667","6500300","中和區"
"235070","558-UM","2017/10/23 19:49:51","新北市中和區景平路551號","121.498506666667","24.9996666666667","6500300","中和區"
"235045","565-BX","2017/10/23 19:49:53","新北市中和區安樂路1號","121.51163","24.9917583333333","6500300","中和區"
"235054","640-BX","2017/10/23 19:49:39","新北市中和區國光街107巷2弄32號","121.469341666667","24.999035","6500300","中和區"
"235060","647-TV","2017/10/23 19:49:43","新北市中和區中山路二段523巷12號","121.481478333333","25.0045066666667","6500300","中和區"
"235047","732-UM","2017/10/23 19:49:50","新北市中和區捷運路12號","121.509173333333","24.9898183333333","6500300","中和區"
"235046","733-UM","2017/10/23 19:49:45","新北市中和區仁愛街72號","121.511365","24.987685","6500300","中和區"
"235062","800-TS","2017/10/23 19:49:42","新北市中和區中正路563號","121.486886666667","24.9942833333333","6500300","中和區"
"235057","801-TS","2017/10/23 19:49:41","新北市中和區員山路150-5號","121.481313333333","24.99746","6500300","中和區"
"235041","802-TS","2017/10/23 19:49:41","新北市永和區中和路593號","121.512268333333","25.0041383333333","6500300","中和區"
"235052","805-TS","2017/10/23 19:49:38","新北市中和區華新街30巷3號","121.5073","24.9843516666667","6500300","中和區"
"235048","896-TW","2017/10/23 19:49:48","新北市中和區興南路一段137號","121.508838333333","24.98758","6500300","中和區"
"235053","900-TW","2017/10/23 19:49:45","新北市中和區國光街215巷9-2號","121.466576666667","25.0014266666667","6500300","中和區"
"235037","AAC-213","2017/10/23 19:49:43","新北市中和區秀朗路三段128巷1弄1號","121.524696666667","24.99211","6500300","中和區"
"235059","AAC-215","2017/10/23 19:49:50","新北市中和區圓通路335巷53號","121.494716666667","24.9891616666667","6500300","中和區"
"220068","013-TV","2017/10/23 19:49:51","新北市板橋區光復街192巷16弄24號","121.486285","25.0193216666667","6500100","板橋區"
"220065","072-UY","2017/10/23 19:49:36","新北市板橋區民族路69巷18弄1號","121.46645","25.0099966666667","6500100","板橋區"
"220086","073-UY","2017/10/23 19:49:52","新北市板橋區林園街7-1號","121.453941666667","25.009235","6500100","板橋區"
"220106","075-UY","2017/10/23 19:49:56","新北市板橋區民治街57巷32-1號","121.480198333333","25.0343416666667","6500100","板橋區"
"220069","AAD-861","2017/10/23 19:49:35","新北市板橋區南雅南路二段1-1號","121.454728333333","25.0036233333333","6500100","板橋區"
"247010","339-TH","2017/10/23 19:49:52","新北市三重區集賢路188號","121.483961666667","25.0880883333333","6501400","蘆洲區"
"247002","337-TH","2017/10/23 19:49:43","新北市蘆洲區永平街30號","121.458758333333","25.090845","6501400","蘆洲區"
"247004","336-TH","2017/10/23 19:49:46","新北市蘆洲區長安街225號","121.459483333333","25.0824066666667","6501400","蘆洲區"
"247006","056-VK","2017/10/23 19:49:43","新北市蘆洲區永安南路二段40號","121.466755","25.0772416666667","6501400","蘆洲區"
"247008","053-VK","2017/10/23 19:49:35","新北市蘆洲區中山一路49號","121.478805","25.0810416666667","6501400","蘆洲區"
"226004","312-R5","2017/10/23 19:49:54","新北市平溪區十分里十分街106號","121.776803333333","25.0428083333333","6502400","平溪區"
"228003","097-TW","2017/10/23 19:49:49","新北市貢寮區真理里延平街171號","121.925488333333","25.0593716666667","6502600","貢寮區"
"228001","670-TC","2017/10/23 19:49:48","新北市貢寮區仁理村仁愛路95-1號","121.927593333333","25.0554083333333","6502600","貢寮區"
"224010","AGQ-8101","2017/10/23 19:49:25","新北市瑞芳區輕便路147號","121.841633333333","25.1071383333333","6501200","瑞芳區"
"224002","639-TC","2017/10/23 19:49:51","新北市瑞芳區員山子路員山巷10號","121.817696666667","25.104055","6501200","瑞芳區"
"227001","642-TC","2017/10/23 19:49:44","新北市雙溪區雙溪里內挖路47號","121.863298333333","25.0366683333333","6502500","雙溪區"
"227008","400-TW","2017/10/23 19:49:50","新北市雙溪區新基里中華路90-1號","121.86606","25.039085","6502500","雙溪區"
"208002","742-BX","2017/10/23 19:49:35","新北市金山區中山路282號","121.634848333333","25.2244083333333","6502700","金山區"
"208003","665-BX","2017/10/23 19:49:34","新北市金山區中正路20號","121.635921666667","25.22231","6502700","金山區"
"208001","761-BX","2017/10/23 19:49:52","新北市金山區重和里茅埔頭22號","121.601118333333","25.2127866666667","6502700","金山區"
"251009","008-UM","2017/10/23 19:49:51","新北市淡水區中正路38-1號","121.443718333333","25.1692633333333","6501000","淡水區"
"251004","009-UM","2017/10/23 19:49:46","新北市淡水區民權路177巷55號","121.460518333333","25.1337916666667","6501000","淡水區"
"251001","011-UM","2017/10/23 19:49:45","新北市淡水區中正東路二段59號","121.45945","25.1550733333333","6501000","淡水區"
"251007","179-VK","2017/10/23 19:49:34","新北市淡水區竿蓁一街115號","121.455576666667","25.1660416666667","6501000","淡水區"
"251012","180-VK","2017/10/23 19:49:44","新北市淡水區淡金路三段2-1號","121.446928333333","25.197895","6501000","淡水區"
"251008","181-VK","2017/10/23 19:49:32","新北市淡水區中正路一段24巷2-4號","121.426788333333","25.1770216666667","6501000","淡水區"
"251013","182-VK","2017/10/23 19:49:40","新北市淡水區頂田寮1-3號","121.457545","25.2154066666667","6501000","淡水區"
"251015","442-VK","2017/10/23 19:49:47","新北市淡水區商工路329號","121.464963333333","25.1858166666667","6501000","淡水區"
"251005","443-VK","2017/10/23 19:49:44","新北市淡水區中山路108巷3號","121.442091666667","25.1711233333333","6501000","淡水區"
"251006","561-UM","2017/10/23 19:49:51","新北市淡水區水碓街15號","121.443478333333","25.1769683333333","6501000","淡水區"
"251011","650-BX","2017/10/23 19:49:45","新北市淡水區淡金路一段158號","121.45469","25.17922","6501000","淡水區"
"207003","550-UM","2017/10/23 19:49:44","新北市萬里區大鵬里萬里加投214號","121.642681666667","25.2162833333333","6502800","萬里區"
"207004","225-TW","2017/10/23 19:49:50","新北市萬里區萬里里瑪鋉路207號","121.690326666667","25.1794366666667","6502800","萬里區"
"252002","178-VK","2017/10/23 19:49:45","新北市三芝區三民街33-1號","121.504596666667","25.258595","6502100","三芝區"
"252001","292-VK","2017/10/23 19:49:34","新北市三芝區公正街9號","121.49975","25.2574783333333","6502100","三芝區"
"237004","078-UY","2017/10/23 19:49:45","新北市三峽區添福26-1號","121.37563","24.8979233333333","6500900","三峽區"
"237007","153-BY","2017/10/23 19:49:38","新北市三峽區二鬮路136巷2弄25號","121.359423333333","24.9087933333333","6500900","三峽區"
"237009","210-TH","2017/10/23 19:49:34","新北市三峽區中園街13-1號","121.368696666667","24.9270833333333","6500900","三峽區"
"237013","252-BX","2017/10/23 19:49:45","新北市三峽區橫溪路23號","121.39637","24.9357733333333","6500900","三峽區"
"237012","275-BY","2017/10/23 19:49:40","新北市三峽區中華路30-2號","121.373361666667","24.9318883333333","6500900","三峽區"
"237008","302-VK","2017/10/23 19:49:50","新北市三峽區永安街183號","121.373153333333","24.9269566666667","6500900","三峽區"
"237014","433-BY","2017/10/23 19:49:36","新北市三峽區嘉添227-5號","121.370483333333","24.9095483333333","6500900","三峽區"
"237006","5529-G3","2017/10/23 19:49:47","新北市三峽區中正路一段336巷15弄2號","121.36995","24.92496","6500900","三峽區"
"237015","649-BX","2017/10/23 19:49:42","新北市三峽區橫溪路99巷71-1號","121.400921666667","24.93759","6500900","三峽區"
"237005","AKY-6261","2017/10/23 19:49:45","新北市三峽區文化路144號","121.370545","24.9361616666667","6500900","三峽區"
"236069","105-UM","2017/10/23 19:49:50","新北市土城區水源街34號","121.44092","24.9756816666667","6501300","土城區"
"236042","107-UM","2017/10/23 19:49:38","新北市土城區裕民路270號","121.454911666667","24.9826216666667","6501300","土城區"
"236078","166-UM","2017/10/23 19:49:50","新北市土城區溪頭路45號","121.411993333333","24.9549666666667","6501300","土城區"
"236030","253-BX","2017/10/23 19:49:35","新北市土城區中央路一段294號","121.443285","24.9823766666667","6501300","土城區"
"236026","269-VK","2017/10/23 19:49:53","新北市土城區中央路二段61巷22號","121.443158333333","24.9787283333333","6501300","土城區"
"236036","271-VK","2017/10/23 19:49:43","新北市土城區國際路158巷54號","121.467981666667","24.9748983333333","6501300","土城區"
"236020","401-BY","2017/10/23 19:49:43","新北市土城區峰廷街3號","121.46932","24.9874583333333","6501300","土城區"
"236058","912-UM","2017/10/23 19:49:41","新北市土城區中央路一段260號","121.444133333333","24.9840883333333","6501300","土城區"
"236048","913-UM","2017/10/23 19:49:27","新北市土城區青雲路309號","121.458911666667","24.9792533333333","6501300","土城區"
"236062","915-UM","2017/10/23 19:49:51","新北市土城區延和路105巷8弄2號","121.467268333333","24.9912383333333","6501300","土城區"
"236053","AAC-216","2017/10/23 19:49:43","新北市土城區延和路64號","121.465765","24.9890783333333","6501300","土城區"
"242031","AAC-296","2017/10/23 19:49:35","新北市新莊區忠孝街63號","121.443885","25.036315","6500500","新莊區"
"242025","705-TV","2017/10/23 19:49:45","新北市新莊區五權一路12巷21弄6號","121.45791","25.064555","6500500","新莊區"
"242023","613-BX","2017/10/23 19:49:53","新北市新莊區化成路69號","121.46551","25.0458716666667","6500500","新莊區"
"242027","612-BX","2017/10/23 19:49:39","新北市新莊區立信五街5號","121.444268333333","25.0513683333333","6500500","新莊區"
"242039","566-BX","2017/10/23 19:49:48","新北市新莊區民安路291-1號","121.429428333333","25.0225866666667","6500500","新莊區"
"242044","497-BY","2017/10/23 19:49:40","新北市新莊區新北大道七段556號","121.412241666667","25.02889","6500500","新莊區"
"242034","442-UM","2017/10/23 19:49:38","新北市新莊區公園一路95號","121.444378333333","25.0379366666667","6500500","新莊區"
"242048","441-UM","2017/10/23 19:49:53","新北市新莊區後港一路28巷14號","121.42561","25.0250433333333","6500500","新莊區"
"242004","413-TV","2017/10/23 19:49:54","新北市新莊區化成路63巷6號","121.46487","25.0457866666667","6500500","新莊區"
"242060","362-BY","2017/10/23 19:49:43","新北市新莊區新莊路771巷10號","121.442025","25.0318933333333","6500500","新莊區"
"242058","353-BY","2017/10/23 19:49:52","新北市新莊區八德街57號","121.424838333333","25.0222133333333","6500500","新莊區"
"242007","132-UY","2017/10/23 19:49:40","新北市新莊區新北大道三段7號","121.457936666667","25.0599733333333","6500500","新莊區"
"242036","133-UY","2017/10/23 19:49:40","新北市新莊區建安街60號","121.42719","25.0246533333333","6500500","新莊區"
"242021","135-UY","2017/10/23 19:49:41","新北市新莊區建中街37號","121.448518333333","25.0371433333333","6500500","新莊區"
"242017","173-VK","2017/10/23 19:49:34","新北市新莊區中華路一段162號","121.45259","25.0415433333333","6500500","新莊區"
"242002","176-VK","2017/10/23 19:49:41","新北市新莊區武前街29號","121.450191666667","25.0325366666667","6500500","新莊區"
"242001","233-RS","2017/10/23 09:11:45","新北市新莊區環河路48-7號","121.436903333333","25.0097833333333","6500500","新莊區"
"242013","346-TH","2017/10/23 19:49:40","新北市新莊區中誠街71號","121.450676666667","25.0477816666667","6500500","新莊區"
"242019","348-TH","2017/10/23 19:49:37","新北市新莊區明智街21巷1號","121.454115","25.04137","6500500","新莊區"
"238015","755-BX","2017/10/23 19:49:44","新北市樹林區中山路一段135-4號","121.422421666667","24.9898","6500700","樹林區"
"238023","601-UM","2017/10/23 19:49:44","新北市樹林區三寶街12號","121.40648","25.0154533333333","6500700","樹林區"
"238024","5061-A6","2017/10/23 19:49:35","新北市樹林區育德街40-1號","121.390085","24.9693266666667","6500700","樹林區"
"238021","KEA-2217","2017/10/23 19:49:38","新北市樹林區佳園路三段181巷10號","121.386345","24.9479433333333","6500700","樹林區"
"238022","KEA-2213","2017/10/23 19:49:44","新北市樹林區名園街51巷6弄10號","121.420636666667","24.9781466666667","6500700","樹林區"
"238025","303-VK","2017/10/23 19:49:41","新北市樹林區東佳路218號","121.410858333333","24.9819833333333","6500700","樹林區"
"238017","283-BY","2017/10/23 19:49:44","新北市樹林區保安街二段155號","121.415293333333","25.0024883333333","6500700","樹林區"
"238014","282-BY","2017/10/23 19:49:40","新北市樹林區千歲街70巷6弄6號","121.426798333333","24.9968433333333","6500700","樹林區"
"238020","268-VK","2017/10/23 19:49:35","新北市樹林區千歲街111-1號","121.429165","25.0015366666667","6500700","樹林區"
"239006","292-BY","2017/10/23 19:49:42","新北市鶯歌區文化路253號","121.353426666667","24.9530916666667","6500800","鶯歌區"
"221008","489-VK","2017/10/23 19:49:49","新北市汐止區康寧街135號","121.621085","25.0665883333333","6501100","汐止區"
"221036","130-UY","2017/10/23 19:49:38","新北市汐止區汐萬路一段265巷2號","121.6507","25.0742316666667","6501100","汐止區"
"221015","131-UY","2017/10/23 19:49:49","新北市汐止區茄苳路43號","121.665895","25.070815","6501100","汐止區"
"221010","269-BY","2017/10/23 19:49:44","新北市汐止區汐萬路一段333巷1號","121.649913333333","25.07624","6501100","汐止區"
"221012","278-VK","2017/10/23 19:49:42","新北市汐止區保長路271巷2號","121.680921666667","25.074325","6501100","汐止區"
"221023","279-VK","2017/10/23 19:49:32","新北市汐止區民族六街4巷1號","121.62956","25.070125","6501100","汐止區"
"221032","280-BY","2017/10/23 19:49:34","新北市汐止區橫科路119號","121.619915","25.0504033333333","6501100","汐止區"
"221027","281-BY","2017/10/23 19:49:53","新北市汐止區忠孝東路9號","121.658458333333","25.06603","6501100","汐止區"
"221029","298-VK","2017/10/23 19:49:37","新北市汐止區汐萬路一段301號","121.649568333333","25.07579","6501100","汐止區"
"221021","299-VK","2017/10/23 19:49:36","新北市汐止區新興路110號","121.657435","25.06092","6501100","汐止區"
"221031","353-TW","2017/10/23 19:49:44","新北市汐止區福德三路129巷2號","121.633521666667","25.0675133333333","6501100","汐止區"
"221035","622-UM","2017/10/23 19:49:43","新北市汐止區長江街13巷5弄2號","121.654625","25.0717083333333","6501100","汐止區"
"221025","623-UM","2017/10/23 19:49:51","新北市汐止區秀峰路81巷15弄2號","121.660745","25.064405","6501100","汐止區"
"221038","646-BX","2017/10/23 19:49:37","新北市汐止區忠孝東路295號","121.664211666667","25.0689216666667","6501100","汐止區"
"221033","647-BX","2017/10/23 19:49:47","新北市汐止區東勢街76巷100-1號","121.636431666667","25.038965","6501100","汐止區"
"221018","753-BX","2017/10/23 19:49:37","新北市汐止區大同路二段643號","121.664541666667","25.0714116666667","6501100","汐止區"
"220079","145-BY","2017/10/23 19:49:37","新北市板橋區建國街61號","121.458975","25.0172266666667","6500100","板橋區"
"220080","200-UY","2017/10/23 19:49:44","新北市板橋區大觀路二段153巷46弄10號","121.448915","24.9995516666667","6500100","板橋區"
"220082","610-BX","2017/10/23 19:49:48","新北市板橋區溪崑一街54號","121.429605","24.9902483333333","6500100","板橋區"
"220101","245-BX","2017/10/23 19:49:41","新北市板橋區縣民大道三段91號","121.475753333333","25.0220383333333","6500100","板橋區"
"220072","277-BY","2017/10/23 19:49:52","新北市板橋區金門街253巷1號","121.432336666667","24.9887","6500100","板橋區"
"220094","280-UM","2017/10/23 19:49:40","新北市板橋區長江路一段121號","121.460088333333","25.029895","6500100","板橋區"
"220071","283-VK","2017/10/23 19:49:47","新北市板橋區信義路279巷11-3號","121.462478333333","24.989625","6500100","板橋區"
"220053","285-VK","2017/10/23 19:49:49","新北市板橋區中山路二段60巷9號","121.474308333333","25.015365","6500100","板橋區"
"220083","286-VK","2017/10/23 19:49:46","新北市板橋區僑中二街8巷19號","121.446175","25.0112516666667","6500100","板橋區"
"220081","287-VK","2017/10/23 19:21:23","新北市板橋區南雅西路一段88號","121.45328","25.005905","6500100","板橋區"
"220090","288-VK","2017/10/23 19:49:46","新北市板橋區龍泉街54巷8弄12號","121.457393333333","25.0269416666667","6500100","板橋區"
"220061","293-UM","2017/10/23 19:49:36","新北市板橋區縣民大道二段172號","121.468743333333","25.016485","6500100","板橋區"
"220084","296-UM","2017/10/23 19:49:50","新北市板橋區溪崑二街124巷20號","121.425433333333","24.9884333333333","6500100","板橋區"
"220075","297-UM","2017/10/23 19:49:47","新北市板橋區大勇街10號","121.455366666667","25.0176083333333","6500100","板橋區"
"242001","281-VK","2017/10/23 14:59:30","新北市新莊區環河路636-7號","121.437361666667","25.0113566666667","6500500","新莊區"
"220062","305-R5","2017/10/23 19:49:49","新北市板橋區中山路二段416巷54弄11號","121.482333333333","25.019285","6500100","板橋區"
"220092","307-R5","2017/10/23 19:49:47","新北市板橋區四維路259巷21號","121.462281666667","25.0275166666667","6500100","板橋區"
"220098","317-R6","2017/10/23 19:49:50","新北市板橋區新海路396號","121.458765","25.0265716666667","6500100","板橋區"
"220064","486-VK","2017/10/23 19:49:49","新北市板橋區實踐路181-2號","121.464386666667","25.0035966666667","6500100","板橋區"
"220089","487-VK","2017/10/23 19:49:36","新北市板橋區綠堤街45號","121.455321666667","25.0259283333333","6500100","板橋區"
"220088","491-VK","2017/10/23 19:49:49","新北市板橋區文聖街94號","121.4764","25.031475","6500100","板橋區"
"220035","560-BX","2017/10/23 19:49:40","新北市板橋區金華街86號","121.458011666667","25.020655","6500100","板橋區"
"220103","561-BX","2017/10/23 19:49:41","新北市板橋區陽明街29巷2號","121.465203333333","25.02172","6500100","板橋區"
"220001","568-UM","2017/10/23 13:41:18","新北市板橋區華東街1-9號","121.448118333333","24.9948433333333","6500100","板橋區"
"220063","609-BX","2017/10/23 19:49:49","新北市板橋區三民路一段94號","121.4794","25.0215466666667","6500100","板橋區"
"220091","637-BX","2017/10/23 19:49:48","新北市板橋區民治街79號","121.479588333333","25.03231","6500100","板橋區"
"220057","686-BX","2017/10/23 19:49:35","新北市板橋區廣和街81號","121.462731666667","24.9920416666667","6500100","板橋區"
"220077","687-BX","2017/10/23 19:49:37","新北市板橋區僑中一街124巷3弄25號","121.444555","25.0120783333333","6500100","板橋區"
"220093","689-BX","2017/10/23 19:49:48","新北市板橋區長江路三段52號","121.473301666667","25.0339166666667","6500100","板橋區"
"220054","741-BX","2017/10/23 19:49:36","新北市板橋區忠孝路239巷16號","121.4667","25.003295","6500100","板橋區"
"220055","827-TW","2017/10/23 19:49:51","新北市板橋區國慶路167巷21號","121.46178","24.997575","6500100","板橋區"
"220067","829-TW","2017/10/23 19:49:39","新北市板橋區長安街331巷19弄8號","121.473493333333","25.0123233333333","6500100","板橋區"
"220102","830-TW","2017/10/23 19:49:49","新北市板橋區仁化街42巷5弄3號","121.475535","25.0314566666667","6500100","板橋區"
"220096","831-TW","2017/10/23 19:49:48","新北市板橋區莒光路40巷18號","121.470065","25.0235716666667","6500100","板橋區"
"220074","895-R6","2017/10/23 19:49:47","新北市板橋區宮口街1號","121.457326666667","25.0096366666667","6500100","板橋區"
"220073","985-R7","2017/10/23 19:49:44","新北市板橋區大仁街40號","121.455173333333","25.0167233333333","6500100","板橋區"
"220097","AAC-210","2017/10/23 19:49:41","新北市板橋區文化路一段285巷2弄1號","121.464613333333","25.01915","6500100","板橋區"
"220070","AAC-253","2017/10/23 19:49:37","新北市板橋區館前東路124號","121.463846666667","25.00781","6500100","板橋區"
