"lineid","car","time","location","longitude","latitude","cityid","cityname"
"234046","148-BY","2017/10/23 20:29:44","新北市永和區永元路2號","121.521881666667","24.9997716666667","6500400","永和區"
"234081","298-R6","2017/10/23 20:29:46","新北市永和區永貞路62號","121.520731666667","25.0055866666667","6500400","永和區"
"234038","336-UY","2017/10/23 20:29:42","新北市永和區成功路一段82號","121.526725","25.00309","6500400","永和區"
"234064","337-UY","2017/10/23 20:29:45","新北市永和區中正路435號","121.51712","25.0051166666667","6500400","永和區"
"234086","338-UY","2017/10/23 20:29:41","新北市永和區光復街11號","121.516371666667","25.0169383333333","6500400","永和區"
"234070","552-UM","2017/10/23 20:29:44","新北市永和區永寧街5號","121.520056666667","25.00689","6500400","永和區"
"234054","553-UM","2017/10/23 20:29:42","新北市永和區環河東路一段76號","121.519496666667","25.0165916666667","6500400","永和區"
"234030","746-BX","2017/10/23 20:29:47","新北市永和區民族街81巷60號","121.520118333333","24.9965533333333","6500400","永和區"
"234061","AAD-866","2017/10/23 20:29:33","新北市永和區得和路25號","121.515646666667","25.00029","6500400","永和區"
"234042","862-TW","2017/10/23 20:29:00","新北市永和區安樂路242-14號","121.514785","25.0030533333333","6500400","永和區"
"234050","863-TW","2017/10/23 20:29:36","新北市永和區文化路210號","121.510201666667","25.016705","6500400","永和區"
"249001","173-UM","2017/10/23 20:29:35","新北市八里區中山路三段109號","121.390248333333","25.1421333333333","6502300","八里區"
"249004","303-UY","2017/10/23 20:29:50","新北市八里區中山路一段129巷19-1號","121.413948333333","25.15865","6502300","八里區"
"249002","305-UY","2017/10/23 20:29:38","新北市八里區龍米路二段125巷13號","121.445915","25.1455466666667","6502300","八里區"
"249003","759-BX","2017/10/23 20:29:46","新北市八里區華峰一街27號","121.399098333333","25.1465333333333","6502300","八里區"
"248002","678-BX","2017/10/23 20:29:53","新北市五股區成泰路三段21號","121.441795","25.088195","6501500","五股區"
"234023","9380-KE","2017/10/23 20:29:41","新北市永和區光復街4號","121.516333333333","25.0167133333333","6500400","永和區"
"234074","AAC-211","2017/10/23 20:29:47","新北市永和區豫溪街217巷25號","121.524388333333","25.010135","6500400","永和區"
"234067","AAC-212","2017/10/23 20:29:50","新北市永和區保平路292巷4號","121.507856666667","25.0048216666667","6500400","永和區"
"234003","AAC-295","2017/10/23 20:29:50","新北市永和區中正路620號","121.517111666667","25.00783","6500400","永和區"
"244019","403-UM","2017/10/23 20:29:19","新北市林口區太平里180號","121.368351666667","25.13445","6501700","林口區"
"244025","742-UY","2017/10/23 20:00:36","新北市林口區粉寮69號","121.405006666667","25.0907616666667","6501700","林口區"
"243009","297-R6","2017/10/23 20:29:44","新北市泰山區忠孝街40巷1號","121.428551666667","25.0654266666667","6501600","泰山區"
"243015","380-SR","2017/10/23 20:29:36","新北市泰山區仁德路80號","121.432953333333","25.0565116666667","6501600","泰山區"
"243014","421-VK","2017/10/23 20:29:52","新北市泰山區泰林路二段589號","121.421855","25.06348","6501600","泰山區"
"243010","KEA-2215","2017/10/23 20:29:45","新北市泰山區明志路二段237巷21號","121.428011666667","25.0481833333333","6501600","泰山區"
"243011","KEA-2216","2017/10/23 20:29:46","新北市泰山區明志路三段85號","121.424983333333","25.0416416666667","6501600","泰山區"
"243012","646-TV","2017/10/23 20:29:46","新北市泰山區忠孝街19巷3弄1號","121.427503333333","25.0657766666667","6501600","泰山區"
"243016","680-BX","2017/10/23 20:29:43","新北市泰山區新生路33號","121.427656666667","25.04531","6501600","泰山區"
"222003","436-BY","2017/10/23 20:29:36","新北市深坑區深坑街47號","121.615376666667","25.0018183333333","6501800","深坑區"
"222001","628-TS","2017/10/23 20:29:52","新北市深坑區北深路三段345號","121.597191666667","25.0050583333333","6501800","深坑區"
"222002","659-BX","2017/10/23 20:29:49","新北市深坑區萬福路69號","121.601531666667","25.0080633333333","6501800","深坑區"
"231041","002-UM","2017/10/23 20:29:41","新北市新店區中正路501-4號","121.533598333333","24.9837933333333","6500600","新店區"
"231059","046-UY","2017/10/23 20:29:52","新北市新店區安豐路49號","121.500046666667","24.9548916666667","6500600","新店區"
"231061","047-UY","2017/10/23 20:29:37","新北市新店區新和街46號","121.519338333333","24.9849616666667","6500600","新店區"
"231060","106-UY","2017/10/23 20:29:53","新北市新店區錦秀路47號","121.47917","24.9435916666667","6500600","新店區"
"231047","108-UY","2017/10/23 20:29:40","新北市新店區寶慶街58巷10號","121.542046666667","24.9871833333333","6500600","新店區"
"231052","187-VK","2017/10/23 20:29:37","新北市新店區松林路38號","121.546236666667","24.9102516666667","6500600","新店區"
"231050","KEA-2219","2017/10/23 20:29:38","新北市新店區博愛街27巷1號","121.541508333333","24.9740783333333","6500600","新店區"
"231057","256-BX","2017/10/23 20:29:50","新北市新店區花園五路二段3號","121.553576666667","24.9341583333333","6500600","新店區"
"231063","268-BY","2017/10/23 20:29:40","新北市新店區安康路三段31巷2弄24號","121.492693333333","24.9520966666667","6500600","新店區"
"231058","3712-VJ","2017/10/23 20:29:55","新北市新店區自由街2-1號","121.535566666667","24.9756583333333","6500600","新店區"
"231056","4716-K9","2017/10/23 20:29:39","新北市新店區建安街33巷28號","121.5384","24.9753966666667","6500600","新店區"
"231067","4772-VM","2017/10/23 20:29:51","新北市新店區安華路28-1號","121.519663333333","24.9611416666667","6500600","新店區"
"231065","512-UM","2017/10/23 20:29:45","新北市新店區安祥路102巷42弄41號","121.485463333333","24.9633583333333","6500600","新店區"
"231054","513-UM","2017/10/23 20:29:53","新北市新店區檳榔路109號","121.544568333333","24.9616416666667","6500600","新店區"
"231064","515-UM","2017/10/23 20:29:47","新北市新店區新和街50號","121.519566666667","24.985085","6500600","新店區"
"231040","619-UM","2017/10/23 20:29:41","新北市新店區中正路331-1號","121.53618","24.9752466666667","6500600","新店區"
"231042","641-BX","2017/10/23 20:29:44","新北市新店區寶橋路228號","121.551385","24.9786916666667","6500600","新店區"
"231068","718-UY","2017/10/23 20:29:41","新北市新店區寶元路一段65號","121.542168333333","24.9858166666667","6500600","新店區"
"231049","719-UM","2017/10/23 20:29:54","新北市新店區永業路81巷34號","121.530201666667","24.94839","6500600","新店區"
"231051","719-UY","2017/10/23 20:29:52","新北市新店區中央六街68號","121.527435","24.9760733333333","6500600","新店區"
"231062","720-UM","2017/10/23 20:29:45","新北市新店區安泰路60巷55弄131號","121.48431","24.9469","6500600","新店區"
"231044","897-TW","2017/10/23 20:29:46","新北市新店區建國路147號","121.53886","24.9787133333333","6500600","新店區"
"231045","898-TW","2017/10/23 20:29:39","新北市新店區新坡一街36號","121.549258333333","24.9623766666667","6500600","新店區"
"231043","899-TW","2017/10/23 20:29:52","新北市新店區建國路125號","121.539746666667","24.977955","6500600","新店區"
"231066","AKT-0513","2017/10/23 20:29:45","新北市新店區安興路105-1號","121.514618333333","24.9777083333333","6500600","新店區"
"241011","013-R5","2017/10/23 20:29:43","新北市三重區龍門路19巷5號","121.495468333333","25.07174","6500200","三重區"
"241028","022-UY","2017/10/23 20:29:49","新北市三重區光興街91號","121.49738","25.059945","6500200","三重區"
"241008","059-VK","2017/10/23 20:29:55","新北市三重區下竹圍街42號","121.48105","25.0748816666667","6500200","三重區"
"241009","060-VK","2017/10/23 20:29:48","新北市三重區永福街46-1號","121.482161666667","25.0781916666667","6500200","三重區"
"241031","061-VK","2017/10/23 20:29:41","新北市三重區三寧街25號","121.48953","25.0598566666667","6500200","三重區"
"241017","063-VK","2017/10/23 20:29:43","新北市三重區自強路一段288號","121.491548333333","25.0682266666667","6500200","三重區"
"241024","065-VK","2017/10/23 20:29:48","新北市三重區三民街283巷4號","121.479076666667","25.0685516666667","6500200","三重區"
"241026","066-VK","2017/10/23 20:29:37","新北市三重區福德南路8巷15號","121.503463333333","25.0635383333333","6500200","三重區"
"241002","090-VK","2017/10/23 20:29:50","新北市三重區仁義街211巷1號","121.496935","25.0818783333333","6500200","三重區"
"241003","091-VK","2017/10/23 20:29:54","新北市三重區富華街119號","121.492501666667","25.0843766666667","6500200","三重區"
"241005","262-UM","2017/10/23 20:29:54","新北市三重區碧華街319號","121.49129","25.084475","6500200","三重區"
"241015","265-UM","2017/10/23 20:29:48","新北市三重區文化北路41-2號","121.498913333333","25.065255","6500200","三重區"
"241016","266-UM","2017/10/23 20:29:53","新北市三重區正義北路190巷5號","121.496058333333","25.066855","6500200","三重區"
"241022","267-UM","2017/10/23 20:29:40","新北市三重區中正北路20巷9號","121.48805","25.0630033333333","6500200","三重區"
"241018","268-UM","2017/10/23 20:29:49","新北市三重區正義北路218號","121.49599","25.06755","6500200","三重區"
"241032","269-UM","2017/10/23 20:29:37","新北市三重區重陽路一段120巷48號","121.484973333333","25.0601616666667","6500200","三重區"
"241013","270-UM","2017/10/23 20:29:50","新北市三重區三和路三段167巷49號","121.49363","25.0746166666667","6500200","三重區"
"241025","271-UM","2017/10/23 20:29:51","新北市三重區頂崁街210巷27號","121.475811666667","25.0681916666667","6500200","三重區"
"241007","398-BY","2017/10/23 20:29:56","新北市三重區自強路四段32-2號","121.489046666667","25.07707","6500200","三重區"
"241020","413-TH","2017/10/23 20:29:40","新北市三重區三和路三段109-6號","121.493498333333","25.0727033333333","6500200","三重區"
"241035","462-BY","2017/10/23 20:29:56","新北市三重區正義北路110號","121.496971666667","25.0651516666667","6500200","三重區"
"241004","475-VK","2017/10/23 20:29:48","新北市三重區溪尾街188號","121.488356666667","25.0809516666667","6500200","三重區"
"241019","478-VK","2017/10/23 20:29:46","新北市三重區重陽路四段124號","121.492485","25.071065","6500200","三重區"
"241030","480-VK","2017/10/23 20:29:41","新北市三重區成功路62號","121.488598333333","25.051","6500200","三重區"
"241014","543-UM","2017/10/23 20:29:51","新北市三重區長興街90號","121.501646666667","25.0691866666667","6500200","三重區"
"241023","545-UM","2017/10/23 20:29:41","新北市三重區自由街19號","121.479781666667","25.0665683333333","6500200","三重區"
"241001","547-UM","2017/10/23 20:29:42","新北市三重區福隆路12號","121.490345","25.077445","6500200","三重區"
"241012","941-UM","2017/10/23 20:29:37","新北市三重區龍濱路269號","121.501406666667","25.07292","6500200","三重區"
"241029","942-UM","2017/10/23 20:29:45","新北市三重區集美街225號","121.491988333333","25.0550733333333","6500200","三重區"
"241033","AAC-255","2017/10/23 20:29:52","新北市三重區五谷王北街80巷35號","121.475266666667","25.053185","6500200","三重區"
"235039","097-UM","2017/10/23 20:29:44","新北市中和區大勇街29巷12-2號","121.515855","24.9946083333333","6500300","中和區"
"235072","301-VK","2017/10/23 20:29:54","新北市中和區員山路36巷13號","121.484021666667","24.9909716666667","6500300","中和區"
"235050","4979-A6","2017/10/23 20:29:52","新北市中和區景平路385巷9弄27號","121.502073333333","24.9941033333333","6500300","中和區"
"235069","4980-A6","2017/10/23 20:29:51","新北市中和區新生街215號","121.483845","24.9995966666667","6500300","中和區"
"235026","800-TS","2017/10/23 20:01:49","新北市中和區員山路36巷16-3號","121.485103333333","24.99153","6500300","中和區"
"235037","AAC-213","2017/10/23 20:29:43","新北市五股區五工二路134號","121.453878333333","25.0735933333333","6500300","中和區"
"235059","AAC-215","2017/10/23 20:29:50","新北市中和區員山路36巷11號","121.483578333333","24.9911166666667","6500300","中和區"
"247022","893-R6","2017/10/23 20:29:38","新北市蘆洲區中正路323號","121.466138333333","25.0888083333333","6501400","蘆洲區"
"247012","546-UM","2017/10/23 20:29:53","新北市蘆洲區民族路165號","121.479325","25.0883066666667","6501400","蘆洲區"
"247020","500-BY","2017/10/23 20:29:41","新北市蘆洲區民族路331號","121.473836666667","25.0917533333333","6501400","蘆洲區"
"247010","339-TH","2017/10/23 20:29:52","新北市蘆洲區集賢路237號","121.481785","25.0852733333333","6501400","蘆洲區"
"247002","337-TH","2017/10/23 20:29:45","新北市蘆洲區環堤大道122號","121.455433333333","25.0872483333333","6501400","蘆洲區"
"247004","336-TH","2017/10/23 20:29:46","新北市蘆洲區長安街299巷31號","121.456546666667","25.0845266666667","6501400","蘆洲區"
"247016","057-VK","2017/10/23 20:29:43","新北市蘆洲區光華路85號","121.467763333333","25.0825616666667","6501400","蘆洲區"
"247006","056-VK","2017/10/23 20:29:40","新北市蘆洲區光華路175巷56號","121.465635","25.0808266666667","6501400","蘆洲區"
"247008","053-VK","2017/10/23 20:29:35","新北市蘆洲區永安北路二段76巷11號","121.482858333333","25.0851816666667","6501400","蘆洲區"
"247014","007-UY","2017/10/23 20:29:48","新北市蘆洲區中山二路76號","121.47331","25.082","6501400","蘆洲區"
"247024","002-UY","2017/10/23 20:29:52","新北市蘆洲區光復路70巷19號","121.46475","25.08517","6501400","蘆洲區"
"247018","001-UY","2017/10/23 20:29:45","新北市蘆洲區民族路327巷100-1號","121.475096666667","25.0903166666667","6501400","蘆洲區"
"251001","011-UM","2017/10/23 20:29:45","新北市淡水區中山北路二段171號","121.444275","25.1845533333333","6501000","淡水區"
"251012","180-VK","2017/10/23 20:29:40","新北市淡水區興仁路40巷1號","121.45286","25.2159166666667","6501000","淡水區"
"251008","181-VK","2017/10/23 20:29:52","新北市淡水區淡海路203號","121.420346666667","25.1849316666667","6501000","淡水區"
"251013","182-VK","2017/10/23 20:29:40","新北市淡水區後坑子7號","121.463895","25.2056366666667","6501000","淡水區"
"251010","413-VK","2017/10/23 20:29:53","新北市淡水區沙崙路181巷15號","121.423936666667","25.1843433333333","6501000","淡水區"
"251015","442-VK","2017/10/23 20:29:44","新北市淡水區淡金路四段542巷17號","121.452641666667","25.2271016666667","6501000","淡水區"
"251006","561-UM","2017/10/23 20:29:51","新北市淡水區北投子25號","121.46117","25.184465","6501000","淡水區"
"251011","650-BX","2017/10/23 20:29:45","新北市淡水區崁頂二路250號","121.435871666667","25.198055","6501000","淡水區"
"251002","672-BX","2017/10/23 20:29:42","新北市淡水區中正路11-3號","121.44314","25.169565","6501000","淡水區"
"251003","766-UM","2017/10/23 20:29:50","新北市淡水區新生街108巷2號","121.44013","25.1747716666667","6501000","淡水區"
"207004","225-TW","2017/10/23 20:29:50","新北市萬里區北基里忠二街13號","121.684925","25.1754633333333","6502800","萬里區"
"252002","178-VK","2017/10/23 20:29:45","新北市三芝區淡金路二段47-2號","121.50368","25.26051","6502100","三芝區"
"252001","292-VK","2017/10/23 20:29:55","新北市三芝區中山路一段31號","121.500608333333","25.2580033333333","6502100","三芝區"
"236069","105-UM","2017/10/23 20:29:50","新北市土城區福安街70巷26號","121.418145","24.965405","6501300","土城區"
"236014","270-VK","2017/10/23 20:29:44","新北市土城區廣明街63巷29號","121.453935","24.9931883333333","6501300","土城區"
"236036","271-VK","2017/10/23 20:29:43","新北市土城區城林路6巷80號","121.438321666667","24.98012","6501300","土城區"
"236020","401-BY","2017/10/23 20:29:43","新北市土城區延吉街55號","121.472215","24.98761","6501300","土城區"
"242031","AAC-296","2017/10/23 20:29:55","新北市新莊區義豐街25巷10號","121.440596666667","25.0352516666667","6500500","新莊區"
"242029","986-R7","2017/10/23 20:29:49","新北市新莊區中原路319號","121.446518333333","25.0544016666667","6500500","新莊區"
"242050","751-BX","2017/10/23 20:29:41","新北市新莊區民安西路263號","121.426105","25.01304","6500500","新莊區"
"242025","705-TV","2017/10/23 20:29:45","新北市新莊區五工三路60號","121.45963","25.0644983333333","6500500","新莊區"
"242023","613-BX","2017/10/23 20:29:53","新北市新莊區化成路968號","121.465035","25.06344","6500500","新莊區"
"242027","612-BX","2017/10/23 20:29:39","新北市新莊區思源路307號","121.459835","25.0489366666667","6500500","新莊區"
"242039","566-BX","2017/10/23 20:29:46","新北市新莊區成功街17號","121.425725","25.02155","6500500","新莊區"
"242044","497-BY","2017/10/23 20:29:49","新北市新莊區中正路新建巷15弄24號","121.414801666667","25.0219666666667","6500500","新莊區"
"242034","442-UM","2017/10/23 20:29:51","新北市新莊區中正路230號","121.448425","25.0353166666667","6500500","新莊區"
"242048","441-UM","2017/10/23 20:29:53","新北市新莊區成功街208號","121.421058333333","25.0181333333333","6500500","新莊區"
"242053","440-UM","2017/10/23 20:29:49","新北市新莊區民安西路247號","121.426093333333","25.013675","6500500","新莊區"
"242004","413-TV","2017/10/23 20:29:34","新北市新莊區化成路746巷39號","121.466883333333","25.0581733333333","6500500","新莊區"
"242042","400-BY","2017/10/23 20:29:31","新北市新莊區中正路694巷3弄2號","121.41841","25.0283766666667","6500500","新莊區"
"242060","362-BY","2017/10/23 20:29:55","新北市新莊區新樹路244巷40號","121.431336666667","25.01898","6500500","新莊區"
"242058","353-BY","2017/10/23 20:29:52","新北市新莊區四維路137號","121.422758333333","25.0224033333333","6500500","新莊區"
"242007","132-UY","2017/10/23 20:29:40","新北市新莊區思源路287巷1弄2號","121.45933","25.0479766666667","6500500","新莊區"
"242036","133-UY","2017/10/23 20:29:40","新北市新莊區建安街62巷6號","121.426996666667","25.02489","6500500","新莊區"
"242021","135-UY","2017/10/23 20:29:41","新北市新莊區公園路10巷2號","121.447811666667","25.0387883333333","6500500","新莊區"
"242046","172-VK","2017/10/23 20:29:37","新北市新莊區中正路新雅巷2弄15號","121.417793333333","25.0249566666667","6500500","新莊區"
"242017","173-VK","2017/10/23 20:29:54","新北市新莊區中港二街121號","121.448725","25.04562","6500500","新莊區"
"242015","175-VK","2017/10/23 20:29:54","新北市新莊區中平路46巷29號","121.445995","25.04385","6500500","新莊區"
"242002","176-VK","2017/10/23 20:29:53","新北市新莊區中正路育農巷1號","121.456923333333","25.0381666666667","6500500","新莊區"
"242001","233-RS","2017/10/23 09:11:45","新北市新莊區環河路48-7號","121.436903333333","25.0097833333333","6500500","新莊區"
"242013","346-TH","2017/10/23 20:29:40","新北市新莊區中平路302巷8號","121.445443333333","25.0518316666667","6500500","新莊區"
"242019","348-TH","2017/10/23 20:29:37","新北市新莊區民樂街87巷10號","121.457306666667","25.043475","6500500","新莊區"
"242056","349-TH","2017/10/23 20:29:50","新北市新莊區瓊泰路146號","121.443198333333","25.0322633333333","6500500","新莊區"
"242011","351-TH","2017/10/23 20:29:45","新北市新莊區中義街49號","121.449283333333","25.05107","6500500","新莊區"
"221008","489-VK","2017/10/23 20:29:49","新北市汐止區康寧街475號","121.632091666667","25.0684066666667","6501100","汐止區"
"221036","130-UY","2017/10/23 20:29:38","新北市汐止區仁愛路151巷28號","121.66321","25.0654933333333","6501100","汐止區"
"221015","131-UY","2017/10/23 20:29:49","新北市汐止區建成路160巷41號","121.661713333333","25.0740266666667","6501100","汐止區"
"221010","269-BY","2017/10/23 20:29:44","新北市汐止區八連路二段439號","121.628601666667","25.1035133333333","6501100","汐止區"
"221012","278-VK","2017/10/23 20:29:42","新北市汐止區大同路三段400號","121.68174","25.0718","6501100","汐止區"
"221023","279-VK","2017/10/23 20:29:52","新北市汐止區湖東街8號","121.633598333333","25.0720666666667","6501100","汐止區"
"221032","280-BY","2017/10/23 20:29:54","新北市汐止區弘道街53巷25號","121.61876","25.0498416666667","6501100","汐止區"
"221027","281-BY","2017/10/23 20:29:53","新北市汐止區中正路271號","121.65684","25.0683783333333","6501100","汐止區"
"221029","298-VK","2017/10/23 20:29:37","新北市汐止區樟樹一路129巷34弄13號","121.640415","25.0650916666667","6501100","汐止區"
"221021","299-VK","2017/10/23 20:29:56","新北市汐止區水源路一段282巷1號","121.65407","25.0582083333333","6501100","汐止區"
"221031","353-TW","2017/10/23 20:29:43","新北市汐止區中興路110巷10號","121.633785","25.0641616666667","6501100","汐止區"
"221035","622-UM","2017/10/23 20:29:43","新北市汐止區長江街101-5號","121.658656666667","25.07315","6501100","汐止區"
"221025","623-UM","2017/10/23 20:29:51","新北市汐止區水源路2段108-1號","121.656741666667","25.0554266666667","6501100","汐止區"
"221038","646-BX","2017/10/23 20:29:37","新北市汐止區忠孝東路290號","121.663955","25.0684166666667","6501100","汐止區"
"221033","647-BX","2017/10/23 20:29:47","新北市汐止區林森街73巷7號","121.623535","25.04099","6501100","汐止區"
"221018","753-BX","2017/10/23 20:29:37","新北市汐止區茄苳路225巷13號","121.671486666667","25.0692383333333","6501100","汐止區"
"220083","286-VK","2017/10/23 20:29:46","新北市板橋區僑中二街112巷5號","121.445383333333","25.0071283333333","6500100","板橋區"
"220061","293-UM","2017/10/23 20:29:36","新北市板橋區文華街8號","121.458041666667","25.00037","6500100","板橋區"
"242001","281-VK","2017/10/23 14:59:30","新北市新莊區環河路636-7號","121.437361666667","25.0113566666667","6500500","新莊區"
"220062","305-R5","2017/10/23 20:29:49","新北市八里區中山路三段383號","121.372543333333","25.137685","6500100","板橋區"
"220089","487-VK","2017/10/23 20:29:36","新北市板橋區四維路268號","121.4632","25.0285366666667","6500100","板橋區"
"242009","280-VK","2017/10/23 20:29:39","新北市新莊區昌盛街103巷2號","121.456138333333","25.0501633333333","6500500","新莊區"
"220088","491-VK","2017/10/23 20:29:49","新北市八里區荖阡坑路15-66號","121.398663333333","25.1398533333333","6500100","板橋區"
"220103","561-BX","2017/10/23 20:29:52","新北市板橋區漢生東路23巷56弄2號","121.46608","25.018175","6500100","板橋區"
"220001","568-UM","2017/10/23 13:41:18","新北市板橋區華東街1-9號","121.448118333333","24.9948433333333","6500100","板橋區"
"220070","AAC-253","2017/10/23 20:29:37","新北市新莊區中正路459號","121.442236666667","25.0335016666667","6500100","板橋區"
