"lineid","car","time","location","longitude","latitude","cityid","cityname"
"244025","742-UY","2017/10/23 20:00:36","新北市林口區粉寮69號","121.405006666667","25.0907616666667","6501700","林口區"
"231050","KEA-2219","2017/10/23 21:29:38","新北市新店區中正路288號","121.537906666667","24.9743633333333","6500600","新店區"
"231063","268-BY","2017/10/23 21:29:40","新北市新店區吉祥街7巷1號","121.497338333333","24.9474966666667","6500600","新店區"
"231051","719-UY","2017/10/23 21:29:52","新北市新店區中正路680巷41號","121.534848333333","24.98929","6500600","新店區"
"241017","063-VK","2017/10/23 21:29:43","新北市三重區中正北路25巷25弄3號","121.493248333333","25.0626616666667","6500200","三重區"
"241024","065-VK","2017/10/23 21:29:52","新北市三重區中正北路145巷1弄12號","121.483611666667","25.067195","6500200","三重區"
"241026","066-VK","2017/10/23 21:29:57","新北市三重區環河南路255號","121.491063333333","25.05048","6500200","三重區"
"241003","091-VK","2017/10/23 21:29:54","新北市三重區進安街190號","121.494198333333","25.0865533333333","6500200","三重區"
"241005","262-UM","2017/10/23 21:29:34","新北市三重區仁華街65號","121.484326666667","25.0827533333333","6500200","三重區"
"241016","266-UM","2017/10/23 21:29:53","新北市三重區正義北路93號","121.497056666667","25.0652633333333","6500200","三重區"
"241007","398-BY","2017/10/23 21:29:35","新北市三重區正義北路113號","121.49684","25.0656933333333","6500200","三重區"
"235026","800-TS","2017/10/23 20:01:49","新北市中和區員山路36巷16-3號","121.485103333333","24.99153","6500300","中和區"
"247020","500-BY","2017/10/23 21:29:41","新北市蘆洲區永平街62號","121.457345","25.0917633333333","6501400","蘆洲區"
"247010","339-TH","2017/10/23 21:29:52","新北市蘆洲區中山一路165號","121.475263333333","25.0815583333333","6501400","蘆洲區"
"247004","336-TH","2017/10/23 21:29:46","新北市五股區中直路17-4號","121.422306666667","25.1115033333333","6501400","蘆洲區"
"247008","053-VK","2017/10/23 21:29:55","新北市蘆洲區中山一路161號","121.475665","25.0813083333333","6501400","蘆洲區"
"247014","007-UY","2017/10/23 21:29:48","新北市蘆洲區環堤大道88號","121.455311666667","25.0849","6501400","蘆洲區"
"247024","002-UY","2017/10/23 21:29:52","新北市五股區天乙路101-6號","121.44636","25.1071516666667","6501400","蘆洲區"
"251009","008-UM","2017/10/23 21:29:51","新北市淡水區民族路65巷62號","121.46349","25.1360083333333","6501000","淡水區"
"251004","009-UM","2017/10/23 21:29:46","新北市淡水區民族路5號","121.46021","25.1372183333333","6501000","淡水區"
"251001","011-UM","2017/10/23 21:29:45","新北市淡水區濱海路一段221號","121.43715","25.189845","6501000","淡水區"
"251012","180-VK","2017/10/23 21:29:39","新北市淡水區淡金路五段20號","121.452705","25.23216","6501000","淡水區"
"251008","181-VK","2017/10/23 21:29:52","新北市淡水區水源街二段148號","121.454275","25.1750116666667","6501000","淡水區"
"251013","182-VK","2017/10/23 21:29:40","新北市淡水區埤島61-3號","121.460086666667","25.1956116666667","6501000","淡水區"
"251010","413-VK","2017/10/23 21:29:53","新北市淡水區沙崙路25巷21號","121.420566666667","25.1824433333333","6501000","淡水區"
"251015","442-VK","2017/10/23 21:29:44","新北市淡水區淡金路二段15號","121.446215","25.1891983333333","6501000","淡水區"
"251005","443-VK","2017/10/23 21:29:44","新北市淡水區長興街65號","121.444345","25.1722333333333","6501000","淡水區"
"251006","561-UM","2017/10/23 21:29:47","新北市淡水區公明街75號","121.443956666667","25.1684366666667","6501000","淡水區"
"251011","650-BX","2017/10/23 21:29:44","新北市淡水區新民街166號","121.436915","25.1785266666667","6501000","淡水區"
"251002","672-BX","2017/10/23 21:21:04","新北市淡水區英專路151號","121.448366666667","25.1748666666667","6501000","淡水區"
"251003","766-UM","2017/10/23 21:29:50","新北市淡水區崁頂15-5號","121.43898","25.1859333333333","6501000","淡水區"
"242001","233-RS","2017/10/23 09:11:45","新北市新莊區環河路48-7號","121.436903333333","25.0097833333333","6500500","新莊區"
"242001","281-VK","2017/10/23 14:59:30","新北市新莊區環河路636-7號","121.437361666667","25.0113566666667","6500500","新莊區"
"220001","568-UM","2017/10/23 13:41:18","新北市板橋區華東街1-9號","121.448118333333","24.9948433333333","6500100","板橋區"
"220070","AAC-253","2017/10/23 21:29:37","新北市五股區新五路三段19號","121.445431666667","25.08921","6500100","板橋區"
