"lineid","car","time","location","longitude","latitude","cityid","cityname"
"244025","742-UY","2017/10/23 20:00:36","新北市林口區粉寮69號","121.405006666667","25.0907616666667","6501700","林口區"
"231063","268-BY","2017/10/23 21:39:40","新北市新店區如意街36號","121.49333","24.9484133333333","6500600","新店區"
"241005","262-UM","2017/10/23 21:39:54","新北市三重區仁華街6號","121.483415","25.0812233333333","6500200","三重區"
"235026","800-TS","2017/10/23 20:01:49","新北市中和區員山路36巷16-3號","121.485103333333","24.99153","6500300","中和區"
"247010","339-TH","2017/10/23 21:39:52","新北市五股區凌雲路三段24巷9號","121.436441666667","25.10685","6501400","蘆洲區"
"247008","053-VK","2017/10/23 21:39:35","新北市五股區新五路三段260號","121.448218333333","25.0907033333333","6501400","蘆洲區"
"251009","008-UM","2017/10/23 21:39:51","新北市淡水區民族路29巷2弄6號","121.462641666667","25.137025","6501000","淡水區"
"251004","009-UM","2017/10/23 21:39:46","新北市淡水區民權路111號","121.460463333333","25.13758","6501000","淡水區"
"251001","011-UM","2017/10/23 21:39:45","新北市淡水區崁頂49-6號","121.439021666667","25.1967566666667","6501000","淡水區"
"251012","180-VK","2017/10/23 21:39:39","新北市淡水區淡金路四段9-1號","121.450458333333","25.2152383333333","6501000","淡水區"
"251008","181-VK","2017/10/23 21:39:52","新北市淡水區水源街二段88號","121.451718333333","25.1742816666667","6501000","淡水區"
"251010","413-VK","2017/10/23 21:39:53","新北市淡水區沙崙路216巷56號","121.426308333333","25.1841283333333","6501000","淡水區"
"251015","442-VK","2017/10/23 21:39:44","新北市淡水區淡金路二段15號","121.446215","25.1892066666667","6501000","淡水區"
"251005","443-VK","2017/10/23 21:39:44","新北市淡水區水源街一段62巷12號","121.444883333333","25.171635","6501000","淡水區"
"251006","561-UM","2017/10/23 21:39:47","新北市淡水區中正路103號","121.44006","25.169585","6501000","淡水區"
"251011","650-BX","2017/10/23 21:39:45","新北市淡水區新民街218號","121.436058333333","25.1802266666667","6501000","淡水區"
"251002","672-BX","2017/10/23 21:21:04","新北市淡水區英專路151號","121.448366666667","25.1748666666667","6501000","淡水區"
"251003","766-UM","2017/10/23 21:39:50","新北市淡水區新春街39號","121.437485","25.1818","6501000","淡水區"
"242001","233-RS","2017/10/23 09:11:45","新北市新莊區環河路48-7號","121.436903333333","25.0097833333333","6500500","新莊區"
"242001","281-VK","2017/10/23 14:59:30","新北市新莊區環河路636-7號","121.437361666667","25.0113566666667","6500500","新莊區"
"220001","568-UM","2017/10/23 13:41:18","新北市板橋區華東街1-9號","121.448118333333","24.9948433333333","6500100","板橋區"
"220070","AAC-253","2017/10/23 21:39:37","新北市板橋區僑中一街124巷70-5號","121.449185","25.0155533333333","6500100","板橋區"
