"lineid","car","time","location","longitude","latitude","cityid","cityname"
"244025","742-UY","2017/10/23 20:00:36","新北市林口區粉寮69號","121.405006666667","25.0907616666667","6501700","林口區"
"241024","743-BX","2017/10/23 22:49:51","新北市三重區三和市場9號","121.49846","25.0678133333333","6500200","三重區"
"235026","800-TS","2017/10/23 20:01:49","新北市中和區員山路36巷16-3號","121.485103333333","24.99153","6500300","中和區"
"251008","181-VK","2017/10/23 22:49:52","新北市淡水區下圭柔山90-8號","121.431576666667","25.2117216666667","6501000","淡水區"
"242001","233-RS","2017/10/23 09:11:45","新北市新莊區環河路48-7號","121.436903333333","25.0097833333333","6500500","新莊區"
"242001","281-VK","2017/10/23 14:59:30","新北市新莊區環河路636-7號","121.437361666667","25.0113566666667","6500500","新莊區"
"220001","568-UM","2017/10/23 13:41:18","新北市板橋區華東街1-9號","121.448118333333","24.9948433333333","6500100","板橋區"
