"lineid","car","time","location","longitude","latitude","cityid","cityname"
"232002","290-BY","2017/10/24 06:59:40","新北市坪林區下坑子口15-1號","121.715466666667","24.94945","6502000","坪林區"
"232013","291-BY","2017/10/24 06:59:43","新北市坪林區粗窟4-1號","121.682291666667","24.937915","6502000","坪林區"
"232006","758-BX","2017/10/24 06:59:44","新北市坪林區北宜路九段86號","121.73629","24.8945133333333","6502000","坪林區"
"235001","157-BY","2017/10/24 06:59:40","新北市中和區和平街29-1號","121.50747","24.99108","6500300","中和區"
"226002","7418-A5","2017/10/24 06:59:41","新北市平溪區石底里公園街18-3號","121.733541666667","25.0256933333333","6502400","平溪區"
"223006","022-BY","2017/10/24 06:59:43","新北市石碇區崩山3號","121.675936666667","24.9746516666667","6501900","石碇區"
"223002","198-BX","2017/10/24 06:59:40","新北市石碇區烏塗窟48號","121.653013333333","24.9699766666667","6501900","石碇區"
"223003","205-TH","2017/10/24 06:59:45","新北市石碇區石碇東街143號","121.658971666667","24.9891366666667","6501900","石碇區"
"223008","406-TH","2017/10/24 06:59:45","新北市石碇區雙溪84-1號","121.661286666667","25.008955","6501900","石碇區"
"223001","437-BY","2017/10/24 06:59:40","新北市石碇區石碇東街46號","121.65957","24.9911033333333","6501900","石碇區"
"223004","660-BX","2017/10/24 06:59:42","新北市石碇區碇坪路一段58號","121.657093333333","24.9915083333333","6501900","石碇區"
"223007","661-BX","2017/10/24 06:59:43","新北市石碇區雙溪37號","121.656765","25.00791","6501900","石碇區"
"223005","677-TV","2017/10/24 06:59:39","新北市石碇區碇坪路一段66號","121.657251666667","24.9914616666667","6501900","石碇區"
"227006","282-VK","2017/10/24 06:59:53","新北市雙溪區新基里自強路5號","121.86633","25.03906","6502500","雙溪區"
"252006","073-UM","2017/10/24 06:59:50","新北市三芝區中正路三段3號","121.502963333333","25.2542016666667","6502100","三芝區"
"252004","249-BX","2017/10/24 06:59:53","新北市三芝區埔坪里埔頭坑44號","121.504606666667","25.2618233333333","6502100","三芝區"
"252007","AAC-283","2017/10/24 06:59:36","新北市三芝區埔坪里埔頭坑107號","121.504561666667","25.261625","6502100","三芝區"
"236008","165-UM","2017/10/24 06:59:39","新北市土城區永平街51號","121.42796","24.9591883333333","6501300","土城區"
"220064","282-UM","2017/10/24 06:59:43","新北市板橋區國光路67巷14號","121.458888333333","25.0186416666667","6500100","板橋區"
