"lineid","car","time","location","longitude","latitude","cityid","cityname"
"248018","225-UY","2017/12/11 10:49:46","新北市五股區中興路二段37巷26號","121.46041","25.0750683333333","6501500","五股區"
"244025","837-TS","2017/12/11 09:30:04","新北市林口區粉寮路二段160巷28號","121.405215","25.0907016666667","6501700","林口區"
"231007","189-VK","2017/12/11 10:49:42","新北市新店區新潭路三段15號","121.508518333333","24.9148133333333","6500600","新店區"
"231008","192-VK","2017/12/11 10:49:35","新北市新店區松林路81號","121.547048333333","24.9070616666667","6500600","新店區"
"247001","402-BY","2017/12/11 10:49:43","新北市五股區中興路二段27-7號","121.460543333333","25.0790816666667","6501400","蘆洲區"
"227005","282-VK","2017/12/11 10:49:48","新北市雙溪區泰平里溪尾寮46號","121.821405","24.9675333333333","6502500","雙溪區"
"237001","159-UY","2017/12/11 10:49:51","新北市三峽區大仁路1號","121.366858333333","24.9376","6500900","三峽區"
"239006","661-UM","2017/12/11 10:49:36","新北市鶯歌區環河路177-3號","121.345998333333","24.9353416666667","6500800","鶯歌區"
