"lineid","car","time","location","longitude","latitude","cityid","cityname"
"234044","148-BY","2017/12/11 12:39:40","新北市永和區永元路68號","121.522553333333","25.0015633333333","6500400","永和區"
"234005","207-UY","2017/12/11 12:39:47","新北市永和區豫溪街217巷27號","121.52461","25.0104266666667","6500400","永和區"
"234078","298-R6","2017/12/11 12:39:35","新北市永和區林森路83號","121.523885","25.0037916666667","6500400","永和區"
"234036","336-UY","2017/12/11 12:39:41","新北市永和區福和路1號","121.525913333333","25.0091483333333","6500400","永和區"
"234062","337-UY","2017/12/11 12:39:51","新北市永和區福和路1號","121.526605","25.010135","6500400","永和區"
"234084","338-UY","2017/12/11 12:39:42","新北市中和區安平路100號","121.511615","24.9972216666667","6500400","永和區"
"234068","552-UM","2017/12/11 12:39:53","新北市永和區福和路1號","121.525383333333","25.0094666666667","6500400","永和區"
"234015","745-BX","2017/12/11 12:39:40","新北市永和區福和路1號","121.526356666667","25.00957","6500400","永和區"
"234028","746-BX","2017/12/11 12:39:46","新北市永和區福和路1號","121.52635","25.0095883333333","6500400","永和區"
"234060","AAD-866","2017/12/11 12:39:51","新北市永和區豫溪街217巷7號","121.525055","25.0099633333333","6500400","永和區"
"234040","862-TW","2017/12/11 12:39:45","新北市永和區永和路一段23號","121.512998333333","25.00576","6500400","永和區"
"234048","863-TW","2017/12/11 12:39:55","新北市永和區環河東路二段92號","121.52477","25.010635","6500400","永和區"
"234025","9371-KE","2017/12/11 12:39:40","新北市永和區福和路1號","121.525565","25.0094916666667","6500400","永和區"
"234010","9373-KE","2017/12/11 12:39:34","新北市永和區保安路23號","121.510331666667","25.01669","6500400","永和區"
"248015","026-BX","2017/12/11 12:39:52","新北市五股區中興路二段83巷26-6號","121.460068333333","25.07527","6501500","五股區"
"234022","9380-KE","2017/12/11 12:39:48","新北市永和區竹林路203號","121.520606666667","25.0090066666667","6500400","永和區"
"234076","969-R7","2017/12/11 12:39:44","新北市永和區中正路70號","121.51354","24.9950516666667","6500400","永和區"
"234066","AAC-212","2017/12/11 12:39:39","新北市永和區中正路399號","121.517078333333","25.0042583333333","6500400","永和區"
"244018","403-UM","2017/12/11 10:54:21","新北市林口區粉寮69號","121.405081666667","25.0907866666667","6501700","林口區"
"244025","837-TS","2017/12/11 09:30:04","新北市林口區粉寮路二段160巷28號","121.405215","25.0907016666667","6501700","林口區"
"243001","KEA-2216","2017/12/11 12:27:29","新北市泰山區犁頭窠3-1號","121.42297","25.06065","6501600","泰山區"
"231030","047-UY","2017/12/11 12:39:52","新北市新店區安華路28-1號","121.519128333333","24.9608916666667","6500600","新店區"
"231014","KEA-2219","2017/12/11 12:39:53","新北市新店區安華路8號","121.519981666667","24.9615216666667","6500600","新店區"
"231010","278-BY","2017/12/11 00:51:38","新北市新店區安華路28-1號","121.5196","24.9611633333333","6500600","新店區"
"231023","AAD-862","2017/12/11 08:41:05","新北市新店區安華路28-1號","121.51974","24.9611683333333","6500600","新店區"
"231036","512-UM","2017/12/11 03:06:17","新北市新店區安華路28-1號","121.519118333333","24.9612266666667","6500600","新店區"
"231013","719-UM","2017/12/11 12:39:45","新北市新店區安華路28-1號","121.519286666667","24.96136","6500600","新店區"
"231031","720-UM","2017/12/11 12:39:47","新北市新店區安華路28-1號","121.51918","24.9612166666667","6500600","新店區"
"231004","899-TW","2017/12/11 12:39:37","新北市新店區安華路28-1號","121.519105","24.9608016666667","6500600","新店區"
"231037","AKT-0513","2017/12/11 12:39:35","新北市新店區安華路1-1號","121.51966","24.96031","6500600","新店區"
"235031","255-BX","2017/12/11 12:39:40","新北市中和區中正路839巷29號","121.483553333333","25.0023266666667","6500300","中和區"
"235024","911-UM","2017/12/11 12:39:55","新北市中和區員山路36巷16-3號","121.485228333333","24.9909083333333","6500300","中和區"
"247001","402-BY","2017/12/11 11:01:13","新北市五股區中興路三段5號","121.449641666667","25.0793","6501400","蘆洲區"
"207002","749-BX","2017/12/11 12:39:50","新北市萬里區雙興里太和路7-2號","121.658546666667","25.1740316666667","6502800","萬里區"
"221008","489-VK","2017/12/11 12:39:45","新北市汐止區康寧街901號","121.651376666667","25.0750766666667","6501100","汐止區"
