"lineid","car","time","location","longitude","latitude","cityid","cityname"
"234044","148-BY","2017/12/11 12:49:40","新北市永和區秀朗路二段124-3號","121.524803333333","25.0014616666667","6500400","永和區"
"234012","149-BY","2017/12/11 12:49:44","新北市永和區保福路二段133巷1號","121.509565","25.0138316666667","6500400","永和區"
"234005","207-UY","2017/12/11 12:49:47","新北市永和區文化路5號","121.515565","25.01493","6500400","永和區"
"234078","298-R6","2017/12/11 12:49:55","新北市永和區永利路120號","121.521555","25.003075","6500400","永和區"
"234036","336-UY","2017/12/11 12:49:41","新北市永和區福和路1號","121.525061666667","25.00906","6500400","永和區"
"234062","337-UY","2017/12/11 12:49:51","新北市永和區福和路46號","121.523635","25.0081383333333","6500400","永和區"
"234084","338-UY","2017/12/11 12:49:42","新北市永和區中正路61號","121.514693333333","24.9965216666667","6500400","永和區"
"234068","552-UM","2017/12/11 12:49:53","新北市永和區竹林路125-1號","121.520061666667","25.0111433333333","6500400","永和區"
"234052","553-UM","2017/12/11 12:49:47","新北市永和區環河東路二段92號","121.52443","25.0106516666667","6500400","永和區"
"234015","745-BX","2017/12/11 12:49:40","新北市永和區永和路二段393號","121.51575","25.0166333333333","6500400","永和區"
"234028","746-BX","2017/12/11 12:49:46","新北市永和區得和路297號","121.522878333333","24.9996033333333","6500400","永和區"
"234060","AAD-866","2017/12/11 12:49:51","新北市永和區福和路307號","121.516223333333","25.0071216666667","6500400","永和區"
"234040","862-TW","2017/12/11 12:49:45","新北市永和區永貞路271號","121.511706666667","25.0047433333333","6500400","永和區"
"234048","863-TW","2017/12/11 12:49:55","新北市永和區保安路2號","121.510768333333","25.0173983333333","6500400","永和區"
"234025","9371-KE","2017/12/11 12:49:40","新北市永和區中正路748號","121.514831666667","25.010265","6500400","永和區"
"234010","9373-KE","2017/12/11 12:49:54","新北市永和區保安路73號","121.508898333333","25.0149033333333","6500400","永和區"
"248013","025-BX","2017/12/11 12:49:44","新北市五股區中興路二段83巷15號","121.459885","25.0764383333333","6501500","五股區"
"248015","026-BX","2017/12/11 12:49:52","新北市五股區中興路二段83巷26-6號","121.459298333333","25.0754316666667","6501500","五股區"
"248019","225-UY","2017/12/11 12:49:40","新北市五股區中興路二段83巷26-6號","121.459925","25.07524","6501500","五股區"
"234022","9380-KE","2017/12/11 12:49:48","新北市永和區竹林路119巷45號","121.521911666667","25.0118066666667","6500400","永和區"
"234076","969-R7","2017/12/11 12:49:44","新北市永和區中正路2巷5號","121.512858333333","24.9933883333333","6500400","永和區"
"234066","AAC-212","2017/12/11 12:49:39","新北市永和區中和路625號","121.512968333333","25.00492","6500400","永和區"
"234001","AAC-295","2017/12/11 12:49:43","新北市永和區中正路657號","121.514841666667","25.0101566666667","6500400","永和區"
"244018","403-UM","2017/12/11 10:54:21","新北市林口區粉寮69號","121.405081666667","25.0907866666667","6501700","林口區"
"244025","837-TS","2017/12/11 09:30:04","新北市林口區粉寮路二段160巷28號","121.405215","25.0907016666667","6501700","林口區"
"243001","KEA-2216","2017/12/11 12:27:29","新北市泰山區犁頭窠3-1號","121.42297","25.06065","6501600","泰山區"
"231028","046-UY","2017/12/11 12:49:47","新北市新店區安華路28-1號","121.519806666667","24.96085","6500600","新店區"
"231030","047-UY","2017/12/11 12:49:52","新北市新店區安康路一段359-27號","121.518776666667","24.96107","6500600","新店區"
"231029","106-UY","2017/12/11 03:01:44","新北市新店區安華路28-1號","121.51959","24.9606966666667","6500600","新店區"
"231011","108-UY","2017/12/11 04:27:52","新北市新店區安華路28-1號","121.519571666667","24.961055","6500600","新店區"
"231019","187-VK","2017/12/11 12:49:55","新北市新店區安華路28-1號","121.51952","24.9608433333333","6500600","新店區"
"231014","KEA-2219","2017/12/11 12:49:53","新北市新店區安華路28-1號","121.520063333333","24.9614316666667","6500600","新店區"
"231010","278-BY","2017/12/11 00:51:38","新北市新店區安華路28-1號","121.5196","24.9611633333333","6500600","新店區"
"231023","AAD-862","2017/12/11 12:49:48","新北市新店區安華路28-1號","121.519825","24.9611666666667","6500600","新店區"
"231038","4715-K9","2017/12/11 12:49:42","新北市新店區安華路28-1號","121.519516666667","24.9605216666667","6500600","新店區"
"231036","512-UM","2017/12/11 03:06:17","新北市新店區安華路28-1號","121.519118333333","24.9612266666667","6500600","新店區"
"231001","619-UM","2017/12/11 12:49:39","新北市新店區安華路28-1號","121.520031666667","24.960515","6500600","新店區"
"231013","719-UM","2017/12/11 12:49:45","新北市新店區安華路28-1號","121.519623333333","24.96127","6500600","新店區"
"231031","720-UM","2017/12/11 12:49:47","新北市新店區安華路28-1號","121.519298333333","24.9613283333333","6500600","新店區"
"231004","899-TW","2017/12/11 12:49:17","新北市新店區安康路一段359-27號","121.518341666667","24.9607966666667","6500600","新店區"
"231037","AKT-0513","2017/12/11 12:49:55","新北市新店區安華路1-1號","121.519703333333","24.9602833333333","6500600","新店區"
"235002","185-VK","2017/12/11 12:49:54","新北市永和區成功路二段213號","121.526536666667","24.9957816666667","6500300","中和區"
"235031","255-BX","2017/12/11 12:49:40","新北市中和區新民街92號","121.481798333333","25.0081983333333","6500300","中和區"
"235025","378-QA","2017/12/11 12:49:45","新北市中和區員山路36巷16-3號","121.4846","24.9912283333333","6500300","中和區"
"235026","800-TS","2017/12/11 01:46:02","新北市中和區員山路36巷16-3號","121.48486","24.9915866666667","6500300","中和區"
"235024","911-UM","2017/12/11 12:49:56","新北市中和區員山路36巷20號","121.485348333333","24.9906366666667","6500300","中和區"
"247001","402-BY","2017/12/11 11:01:13","新北市五股區中興路三段5號","121.449641666667","25.0793","6501400","蘆洲區"
"208004","AAC-292","2017/12/11 12:49:35","新北市金山區磺清路135號","121.639388333333","25.2277116666667","6502700","金山區"
"207002","749-BX","2017/12/11 12:49:50","新北市萬里區雙興里二坪路32號","121.645006666667","25.1687516666667","6502800","萬里區"
"207001","662-BX","2017/12/11 12:49:38","新北市萬里區萬里里獅頭路23號","121.69331","25.1782783333333","6502800","萬里區"
"236005","498-BY","2017/12/11 12:49:51","新北市土城區永寧路18號","121.430451666667","24.9627116666667","6501300","土城區"
"221008","489-VK","2017/12/11 12:49:45","新北市汐止區康寧街901號","121.651376666667","25.07511","6501100","汐止區"
"221032","280-BY","2017/12/11 12:49:39","新北市汐止區汐萬路一段39號","121.654913333333","25.06911","6501100","汐止區"
