"lineid","car","time","location","longitude","latitude","cityid","cityname"
"234044","148-BY","2017/12/11 13:29:40","新北市永和區秀朗路二段255號","121.52628","24.99932","6500400","永和區"
"234012","149-BY","2017/12/11 13:29:44","新北市永和區中山路一段211號","121.508745","25.008425","6500400","永和區"
"234005","207-UY","2017/12/11 13:29:47","新北市永和區中山路一段222號","121.508156666667","25.008265","6500400","永和區"
"234078","298-R6","2017/12/11 13:29:55","新北市永和區福和路7巷5弄7號","121.525503333333","25.0082616666667","6500400","永和區"
"234036","336-UY","2017/12/11 13:29:41","新北市永和區民樂街38號","121.527525","25.00074","6500400","永和區"
"234062","337-UY","2017/12/11 13:29:51","新北市永和區中正路428巷30弄59號","121.519831666667","25.0013683333333","6500400","永和區"
"234084","338-UY","2017/12/11 13:29:58","新北市永和區林森路92號","121.523163333333","25.0037033333333","6500400","永和區"
"234068","552-UM","2017/12/11 13:29:53","新北市永和區警光街1-1號","121.52009","25.00961","6500400","永和區"
"234052","553-UM","2017/12/11 13:29:49","新北市永和區復興街19巷6號","121.516141666667","25.0132016666667","6500400","永和區"
"234015","745-BX","2017/12/11 13:29:40","新北市永和區環河西路一段51巷1號","121.514073333333","25.0181766666667","6500400","永和區"
"234028","746-BX","2017/12/11 13:29:46","新北市永和區民族街81巷64號","121.52047","24.9962466666667","6500400","永和區"
"234060","AAD-866","2017/12/11 13:29:52","新北市永和區中正路532號","121.517255","25.005175","6500400","永和區"
"234040","862-TW","2017/12/11 13:29:44","新北市永和區永貞路302號","121.512135","25.00471","6500400","永和區"
"234048","863-TW","2017/12/11 13:29:55","新北市永和區仁愛路108號","121.51194","25.0132183333333","6500400","永和區"
"234025","9371-KE","2017/12/11 13:29:39","新北市永和區和平街32號","121.513236666667","25.0101","6500400","永和區"
"234010","9373-KE","2017/12/11 13:29:54","新北市永和區仁愛路141巷30弄5號","121.511898333333","25.011635","6500400","永和區"
"248013","025-BX","2017/12/11 13:29:44","新北市五股區成泰路一段204號","121.435986666667","25.0788016666667","6501500","五股區"
"248015","026-BX","2017/12/11 13:29:41","新北市五股區凌雲路一段83巷7弄2號","121.449863333333","25.1007216666667","6501500","五股區"
"248005","077-UY","2017/12/11 13:29:51","新北市五股區四維路4號","121.467156666667","25.0710233333333","6501500","五股區"
"248007","095-VK","2017/12/11 13:29:50","新北市五股區四維路185巷42弄1號","121.463411666667","25.0768866666667","6501500","五股區"
"248019","225-UY","2017/12/11 13:29:40","新北市五股區孝義路82號","121.449325","25.1157316666667","6501500","五股區"
"248011","247-BX","2017/12/11 13:29:52","新北市五股區御成路138號","121.441106666667","25.0942533333333","6501500","五股區"
"248009","272-BY","2017/12/11 13:29:39","新北市五股區明德路12巷1號","121.433328333333","25.07169","6501500","五股區"
"248001","655-BX","2017/12/11 13:29:54","新北市五股區西雲路103號","121.443728333333","25.092445","6501500","五股區"
"248003","677-BX","2017/12/11 13:29:56","新北市五股區六合街3號","121.431998333333","25.0885333333333","6501500","五股區"
"234022","9380-KE","2017/12/11 13:29:48","新北市永和區環河東路二段8號","121.522151666667","25.0135116666667","6500400","永和區"
"234076","969-R7","2017/12/11 13:29:44","新北市永和區中正路286巷12號","121.517591666667","24.9985166666667","6500400","永和區"
"234072","AAC-211","2017/12/11 13:29:55","新北市永和區永和路二段183號","121.515425","25.0134466666667","6500400","永和區"
"234066","AAC-212","2017/12/11 13:29:40","新北市永和區永貞路360巷2號","121.510416666667","25.0066966666667","6500400","永和區"
"234001","AAC-295","2017/12/11 13:29:50","新北市永和區永和路一段93號","121.513366666667","25.007525","6500400","永和區"
"244018","403-UM","2017/12/11 10:54:21","新北市林口區粉寮69號","121.405081666667","25.0907866666667","6501700","林口區"
"244001","657-BX","2017/12/11 13:29:47","新北市林口區嘉寶里89-1號","121.333221666667","25.120945","6501700","林口區"
"244025","837-TS","2017/12/11 09:30:04","新北市林口區粉寮路二段160巷28號","121.405215","25.0907016666667","6501700","林口區"
"243001","KEA-2216","2017/12/11 13:29:46","新北市泰山區泰林路二段475號","121.425191666667","25.0638616666667","6501600","泰山區"
"243005","646-TV","2017/12/11 13:29:43","新北市泰山區明志路三段206巷3號","121.4233","25.0379833333333","6501600","泰山區"
"231025","0293-UT","2017/12/11 13:29:41","新北市新店區中央七街61巷20號","121.529046666667","24.9760316666667","6500600","新店區"
"231028","046-UY","2017/12/11 13:29:47","新北市新店區安康路一段266巷4號","121.519916666667","24.96395","6500600","新店區"
"231030","047-UY","2017/12/11 13:29:52","新北市新店區安康路一段351-1號","121.519265","24.9639333333333","6500600","新店區"
"231029","106-UY","2017/12/11 13:29:54","新北市新店區安豐路49號","121.500166666667","24.9540933333333","6500600","新店區"
"231018","107-UY","2017/12/11 13:29:49","新北市新店區中央路177-1號","121.535008333333","24.969475","6500600","新店區"
"231011","108-UY","2017/12/11 13:29:47","新北市新店區寶橋路6巷4號","121.543425","24.9735683333333","6500600","新店區"
"231019","187-VK","2017/12/11 13:29:55","新北市新店區北宜路一段170號","121.54064","24.9529716666667","6500600","新店區"
"231014","KEA-2219","2017/12/11 13:29:53","新北市新店區北宜路二段30巷5弄18號","121.548541666667","24.9507066666667","6500600","新店區"
"231026","256-BX","2017/12/11 13:29:46","新北市新店區安康路一段9-2號","121.5336","24.960535","6500600","新店區"
"231034","268-BY","2017/12/11 13:29:44","新北市新店區車子路110號","121.505263333333","24.9520733333333","6500600","新店區"
"231010","278-BY","2017/12/11 13:29:40","新北市新店區三民路191號","121.535448333333","24.9757233333333","6500600","新店區"
"231023","AAD-862","2017/12/11 13:29:48","新北市新店區新店路21號","121.540223333333","24.9527133333333","6500600","新店區"
"231002","355-BY","2017/12/11 13:29:55","新北市新店區環河路80巷1號","121.537021666667","24.963355","6500600","新店區"
"231027","3712-VJ","2017/12/11 13:29:56","新北市新店區新店後街102號","121.537621666667","24.9552666666667","6500600","新店區"
"231024","4716-K9","2017/12/11 13:29:45","新北市新店區中正路128巷11號","121.542516666667","24.9720666666667","6500600","新店區"
"231038","4715-K9","2017/12/11 13:29:42","新北市新店區安華路30巷1號","121.519566666667","24.9592483333333","6500600","新店區"
"231036","512-UM","2017/12/11 13:29:37","新北市新店區建業路47-1號","121.478758333333","24.9549916666667","6500600","新店區"
"231035","515-UM","2017/12/11 13:29:36","新北市新店區安忠路4號","121.514636666667","24.9634966666667","6500600","新店區"
"231003","616-UM","2017/12/11 13:29:40","新北市新店區安康路一段35-1號","121.53205","24.9606366666667","6500600","新店區"
"231001","619-UM","2017/12/11 13:29:39","新北市新店區中央路179-1號","121.53559","24.969215","6500600","新店區"
"231013","719-UM","2017/12/11 13:29:45","新北市新店區中正路454-5號","121.534448333333","24.9790383333333","6500600","新店區"
"231031","720-UM","2017/12/11 13:29:47","新北市新店區安忠路205巷8號","121.509173333333","24.954645","6500600","新店區"
"231005","897-TW","2017/12/11 13:29:55","新北市新店區北新路二段2號","121.542571666667","24.970635","6500600","新店區"
"231006","898-TW","2017/12/11 13:29:42","新北市新店區安康路一段75號","121.530201666667","24.9610966666667","6500600","新店區"
"231004","899-TW","2017/12/11 13:29:36","新北市新店區光明街119號","121.539015","24.961655","6500600","新店區"
"231037","AKT-0513","2017/12/11 13:29:55","新北市新店區薏仁坑路6-1號","121.499873333333","24.958485","6500600","新店區"
"235030","003-UY","2017/12/11 13:29:43","新北市中和區中山路二段121號","121.502726666667","25.0036083333333","6500300","中和區"
"235028","005-UY","2017/12/11 13:29:44","新北市中和區圓通路167巷8號","121.498016666667","24.9949983333333","6500300","中和區"
"235027","006-UY","2017/12/11 13:29:48","新北市中和區連城路347巷2弄2號","121.488005","24.9958783333333","6500300","中和區"
"235010","031-BX","2017/12/11 13:29:52","新北市中和區中正路275號","121.49549","24.993725","6500300","中和區"
"235020","096-UM","2017/12/11 13:29:48","新北市中和區新民街5號","121.482361666667","25.00574","6500300","中和區"
"235003","097-UM","2017/12/11 13:29:40","新北市中和區景平路392號","121.510196666667","24.9929283333333","6500300","中和區"
"235004","150-BY","2017/12/11 13:29:38","新北市中和區保健路50巷66號","121.509376666667","24.99514","6500300","中和區"
"235022","151-BY","2017/12/11 13:29:46","新北市中和區圓通路369巷152號","121.488046666667","24.9814883333333","6500300","中和區"
"235019","183-VK","2017/12/11 13:29:55","新北市中和區民享街287-1號","121.470428333333","24.9956966666667","6500300","中和區"
"235002","185-VK","2017/12/11 13:29:57","新北市永和區民有街75巷2弄15號","121.519005","24.9959833333333","6500300","中和區"
"235013","186-VK","2017/12/11 13:29:51","新北市中和區錦和路350-1號","121.49049","24.9935783333333","6500300","中和區"
"235031","255-BX","2017/12/11 13:29:40","新北市中和區員山路148巷42號","121.482516666667","24.9970916666667","6500300","中和區"
"235008","293-VK","2017/12/11 13:29:40","新北市中和區復興路301巷2弄1號","121.501511666667","24.9899466666667","6500300","中和區"
"235036","301-VK","2017/12/11 13:29:57","新北市中和區連城路224號","121.491148333333","24.9964783333333","6500300","中和區"
"235007","352-BY","2017/12/11 13:29:43","新北市中和區景平路323號","121.505946666667","24.9930416666667","6500300","中和區"
"235032","377-QA","2017/12/11 13:29:52","新北市中和區中正路271-1號","121.495753333333","24.9936066666667","6500300","中和區"
"235025","378-QA","2017/12/11 13:29:45","新北市中和區莒光路175-3號","121.472721666667","24.9994966666667","6500300","中和區"
"235035","269-TV","2017/12/11 13:29:52","新北市中和區永和路458巷3弄23號","121.483416666667","25.01312","6500300","中和區"
"235014","4979-A6","2017/12/11 13:29:46","新北市中和區景新街410巷18弄1號","121.51201","24.9892616666667","6500300","中和區"
"235033","4980-A6","2017/12/11 13:29:57","新北市中和區連城路89巷38號","121.497503333333","24.9985383333333","6500300","中和區"
"235006","551-UM","2017/12/11 13:29:34","新北市中和區自立路56巷7號","121.523178333333","24.9917133333333","6500300","中和區"
"235034","558-UM","2017/12/11 13:29:46","新北市中和區景平路620號","121.500638333333","24.997125","6500300","中和區"
"235009","565-BX","2017/12/11 13:29:45","新北市中和區復興路33號","121.505318333333","24.98982","6500300","中和區"
"235018","640-BX","2017/12/11 13:29:42","新北市中和區民享街108號","121.474608333333","24.9993783333333","6500300","中和區"
"235024","647-TV","2017/12/11 13:29:49","新北市中和區員山路287號","121.481283333333","24.9998166666667","6500300","中和區"
"235011","732-UM","2017/12/11 13:29:47","新北市中和區中正路589巷15號","121.485905","24.99365","6500300","中和區"
"235026","800-TS","2017/12/11 13:29:37","新北市中和區中山路二段312巷53號","121.49505","25.0045833333333","6500300","中和區"
"235021","801-TS","2017/12/11 13:29:40","新北市中和區民享街97巷22號","121.47539","24.9999616666667","6500300","中和區"
"235005","802-TS","2017/12/11 13:29:46","新北市中和區中和路320號","121.509646666667","25.0006183333333","6500300","中和區"
"235016","805-TS","2017/12/11 13:29:51","新北市中和區興南路二段116號","121.504683333333","24.9838183333333","6500300","中和區"
"235012","896-TW","2017/12/11 13:29:46","新北市中和區錦和路350-1號","121.49024","24.99355","6500300","中和區"
"235017","900-TW","2017/12/11 13:29:40","新北市中和區華安街98-1號","121.468453333333","24.9958816666667","6500300","中和區"
"235024","911-UM","2017/12/11 13:29:36","新北市中和區莊敬路51號","121.501478333333","25.005285","6500300","中和區"
"235015","157-BY","2017/12/11 13:29:41","新北市中和區興南路二段142巷37弄1號","121.502231666667","24.9846183333333","6500300","中和區"
"235001","AAC-213","2017/12/11 13:29:45","新北市中和區景德街137號","121.514678333333","24.9910766666667","6500300","中和區"
"235023","AAC-215","2017/12/11 13:29:51","新北市中和區員山路36巷16-3號","121.48502","24.9913266666667","6500300","中和區"
"220016","013-TV","2017/12/11 13:29:44","新北市板橋區民生路二段120號","121.470321666667","25.0196533333333","6500100","板橋區"
"220013","072-UY","2017/12/11 13:29:53","新北市板橋區南雅西路一段19巷8號","121.454168333333","25.0038966666667","6500100","板橋區"
"220034","073-UY","2017/12/11 13:29:44","新北市板橋區華東街11號","121.451371666667","24.9984183333333","6500100","板橋區"
"247001","402-BY","2017/12/11 13:29:40","新北市五股區成泰路一段98巷77號","121.45034","25.0783183333333","6501400","蘆洲區"
"247007","341-TH","2017/12/11 13:29:43","新北市五股區成泰路三段544-1號","121.454591666667","25.1016283333333","6501400","蘆洲區"
"247009","339-TH","2017/12/11 13:29:57","新北市五股區新城八路26號","121.448183333333","25.0901483333333","6501400","蘆洲區"
"247003","336-TH","2017/12/11 13:29:36","新北市五股區中興路三段5號","121.449438333333","25.08017","6501400","蘆洲區"
"247005","056-VK","2017/12/11 13:29:50","新北市五股區中興路三段5號","121.449606666667","25.0797666666667","6501400","蘆洲區"
"247017","001-UY","2017/12/11 13:29:43","新北市五股區中興路三段163號","121.449306666667","25.0809583333333","6501400","蘆洲區"
"253003","6232-TK","2017/12/11 13:29:37","新北市石門區內石門50-1號","121.5719","25.2617883333333","6502200","石門區"
"253001","6251-TK","2017/12/11 13:29:42","新北市石門區八甲3號","121.522708333333","25.2854066666667","6502200","石門區"
"253002","637-UY","2017/12/11 13:29:35","新北市石門區九芎林5-2號","121.560291666667","25.267775","6502200","石門區"
"253004","8270-PC","2017/12/11 13:29:56","新北市石門區竹子湖1號","121.615105","25.264225","6502200","石門區"
"208004","AAC-292","2017/12/11 13:29:55","新北市金山區南勢湖53號","121.612653333333","25.21335","6502700","金山區"
"207002","749-BX","2017/12/11 13:29:49","新北市萬里區崁腳里崁腳路166號","121.644928333333","25.1558916666667","6502800","萬里區"
"252005","073-UM","2017/12/11 13:29:54","新北市三芝區圓山里木屐寮31號","121.531408333333","25.2209583333333","6502100","三芝區"
"207001","662-BX","2017/12/11 13:29:38","新北市萬里區大鵬里頂社24-5號","121.664783333333","25.205545","6502800","萬里區"
"236005","498-BY","2017/12/11 13:29:31","新北市土城區慶祥街124號","121.434771666667","24.9719683333333","6501300","土城區"
"221008","489-VK","2017/12/11 13:29:45","新北市汐止區伯爵街92號","121.636725","25.0832333333333","6501100","汐止區"
"221032","280-BY","2017/12/11 13:29:53","新北市汐止區龍安路34號","121.654855","25.0641683333333","6501100","汐止區"
"220027","145-BY","2017/12/11 13:29:46","新北市板橋區華東街1-9號","121.44815","24.994965","6500100","板橋區"
"220030","610-BX","2017/12/11 13:29:48","新北市板橋區華東街1-10號","121.448296666667","24.9948883333333","6500100","板橋區"
"220019","283-VK","2017/12/11 13:29:41","新北市板橋區華東街1-9號","121.44809","24.9948833333333","6500100","板橋區"
"220010","305-R5","2017/12/11 13:29:54","新北市板橋區民生路二段120號","121.47034","25.0197433333333","6500100","板橋區"
"220028","461-BY","2017/12/11 13:29:44","新北市板橋區華東街1-9號","121.448086666667","24.9948333333333","6500100","板橋區"
"220104","560-BX","2017/12/11 13:29:48","新北市板橋區南雅西路二段4號","121.45373","25.009145","6500100","板橋區"
"220023","568-UM","2017/12/11 13:29:48","新北市板橋區華東街1-9號","121.448151666667","24.9948433333333","6500100","板橋區"
"220011","609-BX","2017/12/11 00:25:40","新北市板橋區民生路二段161巷1號","121.470005","25.0199033333333","6500100","板橋區"
"220005","686-BX","2017/12/11 13:29:48","新北市板橋區華東街1-10號","121.448013333333","24.9954866666667","6500100","板橋區"
"220025","687-BX","2017/12/11 13:29:44","新北市板橋區篤行路一段37號","121.432018333333","24.9938733333333","6500100","板橋區"
"220014","829-TW","2017/12/11 13:29:50","新北市板橋區民生路二段120號","121.470703333333","25.0199116666667","6500100","板橋區"
"220022","895-R6","2017/12/11 13:29:47","新北市板橋區華東街1-10號","121.448235","24.9949583333333","6500100","板橋區"
