"lineid","car","time","location","longitude","latitude","cityid","cityname"
"234044","148-BY","2017/12/11 13:39:40","新北市永和區永利路322巷25號","121.525226666667","25.002725","6500400","永和區"
"234012","149-BY","2017/12/11 13:39:44","新北市永和區仁愛路243巷8號","121.509481666667","25.0118666666667","6500400","永和區"
"234005","207-UY","2017/12/11 13:39:46","新北市永和區永和路二段35號","121.514326666667","25.01039","6500400","永和區"
"234078","298-R6","2017/12/11 13:39:36","新北市永和區林森路44巷15號","121.525683333333","25.0057616666667","6500400","永和區"
"234036","336-UY","2017/12/11 13:39:41","新北市永和區民樂街29號","121.527715","25.0015366666667","6500400","永和區"
"234062","337-UY","2017/12/11 13:39:51","新北市永和區中正路412巷19號","121.518613333333","25.0020916666667","6500400","永和區"
"234084","338-UY","2017/12/11 13:39:42","新北市永和區林森路41巷31號","121.526225","25.0043116666667","6500400","永和區"
"234068","552-UM","2017/12/11 13:39:53","新北市永和區永和路二段183號","121.515405","25.0134283333333","6500400","永和區"
"234052","553-UM","2017/12/11 13:39:42","新北市永和區竹林路39巷1號","121.518045","25.0143233333333","6500400","永和區"
"234015","745-BX","2017/12/11 13:39:40","新北市永和區永和路二段425巷60號","121.513783333333","25.0175083333333","6500400","永和區"
"234028","746-BX","2017/12/11 13:39:46","新北市永和區民權路1巷38號","121.522085","24.9982116666667","6500400","永和區"
"234060","AAD-866","2017/12/11 13:39:51","新北市永和區中正路400號","121.517566666667","25.0017183333333","6500400","永和區"
"234040","862-TW","2017/12/11 13:39:44","新北市永和區永貞路267號","121.511788333333","25.004755","6500400","永和區"
"234048","863-TW","2017/12/11 13:39:55","新北市永和區保安路46號","121.510341666667","25.0168916666667","6500400","永和區"
"234010","9373-KE","2017/12/11 13:39:54","新北市永和區保福路二段6號","121.511038333333","25.0111133333333","6500400","永和區"
"248013","025-BX","2017/12/11 13:39:44","新北市五股區民義路一段40號","121.436958333333","25.0838733333333","6501500","五股區"
"248015","026-BX","2017/12/11 13:39:41","新北市五股區凌雲路一段149巷5-1號","121.448945","25.101775","6501500","五股區"
"248005","077-UY","2017/12/11 13:39:51","新北市五股區中興路一段53號","121.468098333333","25.0725566666667","6501500","五股區"
"248007","095-VK","2017/12/11 13:39:50","新北市五股區中興路一段148號","121.464676666667","25.074055","6501500","五股區"
"248019","225-UY","2017/12/11 13:39:40","新北市五股區孝義路73-1號","121.44554","25.1195083333333","6501500","五股區"
"248011","247-BX","2017/12/11 13:39:52","新北市五股區成泰路三段2巷1-20號","121.44122","25.08666","6501500","五股區"
"248009","272-BY","2017/12/11 13:39:39","新北市五股區水碓三路139號","121.431725","25.0736","6501500","五股區"
"248001","655-BX","2017/12/11 13:39:54","新北市五股區西雲路218號","121.448088333333","25.0960866666667","6501500","五股區"
"248003","677-BX","2017/12/11 13:39:46","新北市五股區民義路一段277號","121.425945","25.0926483333333","6501500","五股區"
"234022","9380-KE","2017/12/11 13:39:48","新北市永和區保生路55-1號","121.50453","25.0109533333333","6500400","永和區"
"234076","969-R7","2017/12/11 13:39:51","新北市永和區得和路233-2號","121.520121666667","25.00012","6500400","永和區"
"234072","AAC-211","2017/12/11 13:39:55","新北市永和區竹林路213巷24號","121.522115","25.00895","6500400","永和區"
"234066","AAC-212","2017/12/11 13:39:39","新北市永和區中山路一段174號","121.509135","25.009015","6500400","永和區"
"234001","AAC-295","2017/12/11 13:39:43","新北市永和區秀朗路一段10巷2號","121.513838333333","25.0070466666667","6500400","永和區"
"244018","403-UM","2017/12/11 10:54:21","新北市林口區粉寮69號","121.405081666667","25.0907866666667","6501700","林口區"
"244001","657-BX","2017/12/11 13:39:47","新北市林口區瑞樹坑60-2號","121.347208333333","25.1280433333333","6501700","林口區"
"244025","837-TS","2017/12/11 09:30:04","新北市林口區粉寮路二段160巷28號","121.405215","25.0907016666667","6501700","林口區"
"243004","AAD-798","2017/12/11 13:39:40","新北市泰山區泰林路二段177號","121.433648333333","25.0608583333333","6501600","泰山區"
"243007","380-SR","2017/12/11 09:44:25","新北市泰山區犁頭窠3-1號","121.422351666667","25.0605633333333","6501600","泰山區"
"243001","KEA-2216","2017/12/11 13:34:34","新北市泰山區犁頭窠3-1號","121.421998333333","25.060445","6501600","泰山區"
"243005","646-TV","2017/12/11 13:36:31","新北市泰山區明志路三段206巷3號","121.423288333333","25.0379916666667","6501600","泰山區"
"243008","680-BX","2017/12/11 13:39:42","新北市泰山區黎明路25號","121.421933333333","25.060855","6501600","泰山區"
"231025","0293-UT","2017/12/11 13:39:41","新北市新店區中央五街57號","121.527755","24.97567","6500600","新店區"
"231028","046-UY","2017/12/11 13:39:47","新北市新店區安和路二段146巷1號","121.519693333333","24.9727733333333","6500600","新店區"
"231030","047-UY","2017/12/11 13:39:52","新北市新店區安康路一段65號","121.530391666667","24.96107","6500600","新店區"
"231029","106-UY","2017/12/11 13:39:35","新北市新店區安康路二段216號","121.509831666667","24.95937","6500600","新店區"
"231018","107-UY","2017/12/11 13:39:49","新北市新店區百忍街17巷2號","121.5343","24.975595","6500600","新店區"
"231011","108-UY","2017/12/11 13:39:47","新北市新店區德正街27巷36號","121.545691666667","24.971465","6500600","新店區"
"231019","187-VK","2017/12/11 13:39:55","新北市新店區永興路125號","121.544226666667","24.9310216666667","6500600","新店區"
"231014","KEA-2219","2017/12/11 13:39:53","新北市新店區竹林路2巷32號","121.55025","24.9503416666667","6500600","新店區"
"231026","256-BX","2017/12/11 13:39:46","新北市新店區北新路一段309號","121.541556666667","24.9678583333333","6500600","新店區"
"231034","268-BY","2017/12/11 13:39:44","新北市新店區車子路117號","121.505436666667","24.9515783333333","6500600","新店區"
"231010","278-BY","2017/12/11 13:39:39","新北市新店區中正路307巷22號","121.536178333333","24.974175","6500600","新店區"
"231023","AAD-862","2017/12/11 13:39:48","新北市新店區新店路191號","121.537135","24.9562283333333","6500600","新店區"
"231002","355-BY","2017/12/11 13:39:55","新北市新店區中央三街127號","121.524126666667","24.976825","6500600","新店區"
"231027","3712-VJ","2017/12/11 13:39:43","新北市新店區北宜路一段115巷10號","121.540905","24.9547916666667","6500600","新店區"
"231024","4716-K9","2017/12/11 13:39:45","新北市新店區華興街18號","121.537711666667","24.96944","6500600","新店區"
"231038","4715-K9","2017/12/11 13:39:42","新北市新店區安華路30巷1號","121.519556666667","24.95926","6500600","新店區"
"231036","512-UM","2017/12/11 13:39:37","新北市新店區安祥路147巷80號","121.47569","24.9555333333333","6500600","新店區"
"231035","515-UM","2017/12/11 13:39:36","新北市新店區安忠路90-10號","121.511273333333","24.9575166666667","6500600","新店區"
"231003","616-UM","2017/12/11 13:39:40","新北市新店區中正路7號","121.545746666667","24.9692616666667","6500600","新店區"
"231001","619-UM","2017/12/11 13:39:39","新北市新店區中正路429-1號","121.534115","24.9782183333333","6500600","新店區"
"231013","719-UM","2017/12/11 13:39:45","新北市新店區中正路450號","121.534425","24.9790133333333","6500600","新店區"
"231031","720-UM","2017/12/11 13:39:47","新北市新店區莒光路52號","121.522363333333","24.956465","6500600","新店區"
"231005","897-TW","2017/12/11 13:39:55","新北市新店區寶中路72號","121.547868333333","24.9806016666667","6500600","新店區"
"231006","898-TW","2017/12/11 13:39:42","新北市新店區北宜路一段88號","121.53866","24.95553","6500600","新店區"
"231004","899-TW","2017/12/11 13:39:36","新北市新店區北新路二段18號","121.542778333333","24.9713316666667","6500600","新店區"
"231037","AKT-0513","2017/12/11 13:39:35","新北市新店區薏仁坑路57號","121.49071","24.9639983333333","6500600","新店區"
"235030","003-UY","2017/12/11 13:39:43","新北市中和區水源路24號","121.50438","25.0035183333333","6500300","中和區"
"235028","005-UY","2017/12/11 13:39:44","新北市中和區連城路139巷20號","121.496243333333","24.9982","6500300","中和區"
"235027","006-UY","2017/12/11 13:39:48","新北市中和區連城路403號","121.486133333333","24.9961","6500300","中和區"
"235010","031-BX","2017/12/11 13:39:52","新北市中和區仁愛街38號","121.511045","24.9883333333333","6500300","中和區"
"235020","096-UM","2017/12/11 13:39:48","新北市中和區員山路466巷17弄31號","121.48044","25.0074183333333","6500300","中和區"
"235003","097-UM","2017/12/11 13:39:40","新北市中和區大勇街25巷40號","121.515455","24.9939816666667","6500300","中和區"
"235004","150-BY","2017/12/11 13:39:38","新北市中和區安平路59號","121.509428333333","24.9952483333333","6500300","中和區"
"235022","151-BY","2017/12/11 13:39:46","新北市中和區圓通路369巷39號","121.489738333333","24.9859316666667","6500300","中和區"
"235019","183-VK","2017/12/11 13:39:54","新北市中和區莒光路120巷15弄1號","121.471656666667","25.00125","6500300","中和區"
"235002","185-VK","2017/12/11 13:39:54","新北市中和區自強路62巷6號","121.519605","24.99453","6500300","中和區"
"235013","186-VK","2017/12/11 13:39:51","新北市中和區景安路80號","121.505698333333","24.9962833333333","6500300","中和區"
"235031","255-BX","2017/12/11 13:39:40","新北市中和區新生街220巷5號","121.483263333333","24.9984466666667","6500300","中和區"
"235008","293-VK","2017/12/11 13:39:52","新北市中和區復興路280巷6號","121.502301666667","24.990925","6500300","中和區"
"235036","301-VK","2017/12/11 13:39:37","新北市中和區連城路137號","121.495781666667","24.9988766666667","6500300","中和區"
"235007","352-BY","2017/12/11 13:39:43","新北市中和區景平路163號","121.512345","24.992385","6500300","中和區"
"235032","377-QA","2017/12/11 13:39:52","新北市中和區中正路211巷13弄7號","121.497115","24.9932716666667","6500300","中和區"
"235025","378-QA","2017/12/11 13:39:45","新北市中和區民享街88巷20號","121.473571666667","25.0004683333333","6500300","中和區"
"235035","269-TV","2017/12/11 13:39:52","新北市中和區光環路二段39號","121.485103333333","25.013855","6500300","中和區"
"235014","4979-A6","2017/12/11 13:39:49","新北市中和區景新街496巷28-2號","121.513211666667","24.9855583333333","6500300","中和區"
"235033","4980-A6","2017/12/11 13:39:37","新北市中和區泰和街12號","121.499878333333","25.0011","6500300","中和區"
"235006","551-UM","2017/12/11 13:39:54","新北市中和區秀朗路三段119號","121.525885","24.9932266666667","6500300","中和區"
"235034","558-UM","2017/12/11 13:39:46","新北市中和區南華路49號","121.50397","24.9968283333333","6500300","中和區"
"235009","565-BX","2017/12/11 13:39:46","新北市中和區南山路236巷24號","121.505665","24.988865","6500300","中和區"
"235018","640-BX","2017/12/11 13:39:42","新北市中和區民享街86巷11號","121.473898333333","25.0007866666667","6500300","中和區"
"235024","647-TV","2017/12/11 13:39:49","新北市中和區員山路489號","121.479993333333","25.0055716666667","6500300","中和區"
"235011","732-UM","2017/12/11 13:39:47","新北市中和區南山路417號","121.507198333333","24.9896066666667","6500300","中和區"
"235026","800-TS","2017/12/11 13:39:37","新北市中和區景平路677巷2弄2號","121.496268333333","25.0028766666667","6500300","中和區"
"235021","801-TS","2017/12/11 13:39:40","新北市中和區民安街42巷36號","121.479058333333","25.0011966666667","6500300","中和區"
"235005","802-TS","2017/12/11 13:39:46","新北市中和區中和路400巷21號","121.51166","25.00229","6500300","中和區"
"235016","805-TS","2017/12/11 13:39:51","新北市中和區興南路三段52號","121.494926666667","24.9762516666667","6500300","中和區"
"235012","896-TW","2017/12/11 13:39:46","新北市中和區中正路45號","121.502003333333","24.9933816666667","6500300","中和區"
"235017","900-TW","2017/12/11 13:39:40","新北市中和區華順街103巷12號","121.46587","24.9972866666667","6500300","中和區"
"235024","911-UM","2017/12/11 13:39:36","新北市中和區莊敬路33巷3弄2號","121.500011666667","25.0062533333333","6500300","中和區"
"235015","157-BY","2017/12/11 13:39:41","新北市中和區華新街143巷106弄26號","121.506061666667","24.978825","6500300","中和區"
"235001","AAC-213","2017/12/11 13:39:45","新北市中和區景德街88號","121.516235","24.9914866666667","6500300","中和區"
"235023","AAC-215","2017/12/11 13:39:51","新北市中和區中正路637巷52弄1號","121.485458333333","24.9934416666667","6500300","中和區"
"220016","013-TV","2017/12/11 13:39:44","新北市板橋區民生路二段120號","121.470511666667","25.0195016666667","6500100","板橋區"
"220013","072-UY","2017/12/11 13:39:32","新北市板橋區漢生東路282號","121.471213333333","25.00905","6500100","板橋區"
"220034","073-UY","2017/12/11 13:39:44","新北市板橋區南雅西路二段175巷2號","121.45165","25.012535","6500100","板橋區"
"220017","AAD-861","2017/12/11 13:39:34","新北市板橋區華東街1-9號","121.448243333333","24.99482","6500100","板橋區"
"247001","402-BY","2017/12/11 13:39:40","新北市蘆洲區長樂路93號","121.462213333333","25.08746","6501400","蘆洲區"
"247007","341-TH","2017/12/11 13:39:43","新北市三重區集賢路186號","121.484333333333","25.0883066666667","6501400","蘆洲區"
"247009","339-TH","2017/12/11 13:39:10","新北市蘆洲區三民路550號","121.4618","25.0935116666667","6501400","蘆洲區"
"247003","336-TH","2017/12/11 13:39:36","新北市蘆洲區中原路79號","121.458348333333","25.0819033333333","6501400","蘆洲區"
"247015","057-VK","2017/12/11 13:39:46","新北市五股區凌雲路一段21號","121.455198333333","25.0978033333333","6501400","蘆洲區"
"247005","056-VK","2017/12/11 13:39:50","新北市五股區中興路二段182巷15弄13號","121.456773333333","25.0817666666667","6501400","蘆洲區"
"247017","001-UY","2017/12/11 13:39:43","新北市蘆洲區中正路520巷30-20號","121.471473333333","25.097995","6501400","蘆洲區"
"253003","6232-TK","2017/12/11 13:39:37","新北市石門區內石門17號","121.57343","25.2746516666667","6502200","石門區"
"253001","6251-TK","2017/12/11 13:39:44","新北市石門區下員坑20-8號","121.51082","25.278585","6502200","石門區"
"253002","637-UY","2017/12/11 13:39:35","新北市石門區九芎林15號","121.565035","25.26082","6502200","石門區"
"253004","8270-PC","2017/12/11 13:35:56","新北市石門區竹子湖11號","121.617705","25.2583866666667","6502200","石門區"
"208004","AAC-292","2017/12/11 13:39:55","新北市金山區重和里茅埔頭22號","121.60107","25.2128333333333","6502700","金山區"
"207002","749-BX","2017/12/11 13:39:49","新北市萬里區崁腳里崁腳路166號","121.644923333333","25.1558733333333","6502800","萬里區"
"252005","073-UM","2017/12/11 13:39:34","新北市三芝區圓山里內柑宅27-2號","121.536558333333","25.221875","6502100","三芝區"
"207001","662-BX","2017/12/11 13:39:38","新北市萬里區磺潭里公館崙28號","121.633153333333","25.212025","6502800","萬里區"
"236064","105-UM","2017/12/11 13:39:44","新北市土城區城林路6巷80號","121.438755","24.9796783333333","6501300","土城區"
"236040","107-UM","2017/12/11 13:39:42","新北市土城區城林路6巷80號","121.438388333333","24.9798433333333","6501300","土城區"
"236074","166-UM","2017/12/10 03:06:14","新北市土城區城林路6巷80號","121.438371666667","24.9797716666667","6501300","土城區"
"236028","253-BX","2017/12/11 13:39:52","新北市土城區城林路6巷80號","121.438445","24.979705","6501300","土城區"
"236012","270-VK","2017/12/11 13:39:40","新北市土城區城林路6巷80號","121.438621666667","24.9795916666667","6501300","土城區"
"236032","271-VK","2017/12/11 13:39:36","新北市土城區城林路6巷80號","121.438523333333","24.9796883333333","6501300","土城區"
"236005","498-BY","2017/12/11 13:39:51","新北市土城區中華路二段90號","121.438343333333","24.9748883333333","6501300","土城區"
"236044","913-UM","2017/12/11 13:39:50","新北市土城區城林路6巷80號","121.438421666667","24.979865","6501300","土城區"
"236060","915-UM","2017/12/11 13:39:44","新北市土城區城林路6巷80號","121.43832","24.97977","6501300","土城區"
"236052","AAC-216","2017/12/11 13:39:42","新北市土城區城林路6巷80號","121.438501666667","24.9797216666667","6501300","土城區"
"221008","489-VK","2017/12/11 13:39:45","新北市汐止區伯爵街57巷1號","121.638776666667","25.0814566666667","6501100","汐止區"
"221032","280-BY","2017/12/11 13:39:53","新北市汐止區水源路一段56號","121.657473333333","25.0656016666667","6501100","汐止區"
"220027","145-BY","2017/12/11 13:39:46","新北市板橋區中正路201號","121.456378333333","25.0173","6500100","板橋區"
"220030","610-BX","2017/12/11 13:39:48","新北市板橋區大觀路三段59巷17弄6-1號","121.436821666667","24.9954366666667","6500100","板橋區"
"220004","276-BY","2017/12/11 13:39:46","新北市板橋區四川路二段253號","121.45031","24.993315","6500100","板橋區"
"220020","277-BY","2017/12/11 13:39:41","新北市板橋區大觀路三段59巷17弄6-1號","121.436586666667","24.99542","6500100","板橋區"
"220019","283-VK","2017/12/11 13:39:41","新北市板橋區四川路二段橋頭6號","121.448286666667","24.9940466666667","6500100","板橋區"
"220001","285-VK","2017/12/11 13:39:46","新北市板橋區民生路二段120號","121.470488333333","25.0200416666667","6500100","板橋區"
"220031","286-VK","2017/12/11 13:39:43","新北市板橋區大觀路二段153巷46弄7號","121.449118333333","24.9985033333333","6500100","板橋區"
"220029","287-VK","2017/12/11 13:39:47","新北市板橋區大觀路二段266號","121.448463333333","24.9970016666667","6500100","板橋區"
"220009","293-UM","2017/12/11 13:39:53","新北市板橋區民生路二段120號","121.470428333333","25.0198083333333","6500100","板橋區"
"220032","296-UM","2017/12/11 13:39:41","新北市板橋區大觀路二段11-12號","121.447991666667","24.9964783333333","6500100","板橋區"
"220010","305-R5","2017/12/11 13:39:34","新北市板橋區民生路二段120號","121.470405","25.0197916666667","6500100","板橋區"
"220047","317-R6","2017/12/11 13:39:35","新北市板橋區民生路二段120號","121.470376666667","25.0196266666667","6500100","板橋區"
"220028","461-BY","2017/12/11 13:39:44","新北市板橋區大觀路二段431-1號","121.44128","24.99505","6500100","板橋區"
"220012","486-VK","2017/12/11 13:39:44","新北市板橋區縣民大道二段82號","121.465261666667","25.01421","6500100","板橋區"
"220104","560-BX","2017/12/11 13:39:48","新北市板橋區林園街7-1號","121.454126666667","25.0091766666667","6500100","板橋區"
"220052","561-BX","2017/12/11 13:39:53","新北市板橋區民生路二段120號","121.470425","25.0198016666667","6500100","板橋區"
"220023","568-UM","2017/12/11 13:39:48","新北市板橋區南雅南路二段120-2號","121.452391666667","25.000025","6500100","板橋區"
"220011","609-BX","2017/12/11 00:25:40","新北市板橋區民生路二段161巷1號","121.470005","25.0199033333333","6500100","板橋區"
"220005","686-BX","2017/12/11 13:39:48","新北市板橋區華東街1-9號","121.448185","24.9950033333333","6500100","板橋區"
"220025","687-BX","2017/12/11 13:39:44","新北市板橋區大觀路三段180巷30號","121.42984","24.99356","6500100","板橋區"
"220002","741-BX","2017/12/11 13:39:44","新北市板橋區華東街1-9號","121.448106666667","24.99493","6500100","板橋區"
"220014","829-TW","2017/12/11 13:39:50","新北市板橋區民生路二段120號","121.470648333333","25.0196816666667","6500100","板橋區"
"220022","895-R6","2017/12/11 13:39:47","新北市板橋區南雅南路一段103號","121.455435","25.0051166666667","6500100","板橋區"
"220018","AAC-253","2017/12/11 13:39:38","新北市板橋區華東街1-9號","121.448253333333","24.9948716666667","6500100","板橋區"
