"lineid","car","time","location","longitude","latitude","cityid","cityname"
"234044","148-BY","2017/12/11 14:09:40","新北市永和區得和路326號","121.523201666667","24.9996","6500400","永和區"
"234012","149-BY","2017/12/11 14:09:44","新北市永和區永貞路387號","121.508075","25.008655","6500400","永和區"
"234005","207-UY","2017/12/11 14:09:47","新北市中和區保平路300號","121.507711666667","25.0044166666667","6500400","永和區"
"234078","298-R6","2017/12/11 14:09:35","新北市永和區永亨路83號","121.52195","25.0056533333333","6500400","永和區"
"234036","336-UY","2017/12/11 14:09:41","新北市永和區成功路一段60號","121.526815","25.0038833333333","6500400","永和區"
"234062","337-UY","2017/12/11 14:09:31","新北市永和區永元路118號","121.52269","25.0025533333333","6500400","永和區"
"234084","338-UY","2017/12/11 14:09:42","新北市永和區福和路289號","121.51724","25.0072466666667","6500400","永和區"
"234068","552-UM","2017/12/11 14:09:46","新北市永和區永貞路10巷5號","121.520271666667","25.0072083333333","6500400","永和區"
"234052","553-UM","2017/12/11 14:09:48","新北市永和區博愛街47巷1號","121.519333333333","25.0159","6500400","永和區"
"234015","745-BX","2017/12/11 14:09:40","新北市永和區仁愛路54-1號","121.513636666667","25.0133833333333","6500400","永和區"
"234028","746-BX","2017/12/11 14:09:52","新北市永和區民權路49巷8號","121.52062","24.9969666666667","6500400","永和區"
"234060","AAD-866","2017/12/11 14:09:51","新北市中和區安平路222號","121.514045","25.0003016666667","6500400","永和區"
"234040","862-TW","2017/12/11 14:09:45","新北市永和區雙和街50號","121.508903333333","25.003045","6500400","永和區"
"234048","863-TW","2017/12/11 14:09:34","新北市永和區環河西路二段37號","121.507401666667","25.01563","6500400","永和區"
"234025","9371-KE","2017/12/11 14:09:39","新北市永和區安樂路272巷11號","121.51498","25.00446","6500400","永和區"
"234010","9373-KE","2017/12/11 14:09:54","新北市永和區仁愛路352巷122弄7號","121.500518333333","25.0088516666667","6500400","永和區"
"248015","026-BX","2017/12/11 14:09:41","新北市五股區成泰路三段553號","121.451903333333","25.101755","6501500","五股區"
"248007","095-VK","2017/12/11 14:09:50","新北市五股區中興路一段118巷17號","121.46595","25.0743566666667","6501500","五股區"
"248019","225-UY","2017/12/11 14:03:40","新北市五股區凌雲路三段57號","121.425298333333","25.125025","6501500","五股區"
"248011","247-BX","2017/12/11 14:09:52","新北市五股區工商路18巷1號","121.439858333333","25.0835216666667","6501500","五股區"
"248009","272-BY","2017/12/11 14:09:39","新北市五股區水碓二路1號","121.430463333333","25.0712683333333","6501500","五股區"
"248001","655-BX","2017/12/11 14:09:54","新北市五股區成泰路三段577巷77號","121.449758333333","25.1037333333333","6501500","五股區"
"248003","677-BX","2017/12/11 14:09:36","新北市五股區六合街3號","121.431851666667","25.0884733333333","6501500","五股區"
"234022","9380-KE","2017/12/11 14:09:48","新北市永和區永和路二段276巷2弄3號","121.516505","25.0152466666667","6500400","永和區"
"234076","969-R7","2017/12/11 14:09:43","新北市永和區民族街67巷16號","121.51938","24.99707","6500400","永和區"
"234072","AAC-211","2017/12/11 14:09:35","新北市永和區竹林路201巷31號","121.522041666667","25.0095466666667","6500400","永和區"
"234066","AAC-212","2017/12/11 14:09:39","新北市永和區保平路236巷12弄7號","121.508668333333","25.0066016666667","6500400","永和區"
"234001","AAC-295","2017/12/11 14:09:42","新北市永和區中正路708號","121.516083333333","25.0099116666667","6500400","永和區"
"244018","403-UM","2017/12/11 10:54:21","新北市林口區粉寮69號","121.405081666667","25.0907866666667","6501700","林口區"
"244001","657-BX","2017/12/11 14:09:47","新北市林口區瑞平里48號","121.335918333333","25.1236633333333","6501700","林口區"
"244025","837-TS","2017/12/11 09:30:04","新北市林口區粉寮路二段160巷28號","121.405215","25.0907016666667","6501700","林口區"
"243004","AAD-798","2017/12/11 14:09:40","新北市泰山區辭修路36巷8弄5號","121.427883333333","25.0586683333333","6501600","泰山區"
"243003","297-R6","2017/12/11 14:09:47","新北市泰山區明志路二段346號","121.425896666667","25.0452133333333","6501600","泰山區"
"243007","380-SR","2017/12/11 13:41:35","新北市泰山區犁頭窠12鄰3號","121.422735","25.0599133333333","6501600","泰山區"
"243006","421-VK","2017/12/11 14:09:46","新北市泰山區泰林路二段480號","121.425125","25.0640533333333","6501600","泰山區"
"243002","KEA-2215","2017/12/11 14:09:38","新北市泰山區明志路一段483巷1弄2號","121.431205","25.0553716666667","6501600","泰山區"
"243001","KEA-2216","2017/12/11 14:09:35","新北市泰山區明志路一段95號","121.433503333333","25.0640033333333","6501600","泰山區"
"243005","646-TV","2017/12/11 14:09:36","新北市泰山區明志路三段203號","121.424191666667","25.0385066666667","6501600","泰山區"
"243008","680-BX","2017/12/11 14:09:42","新北市泰山區明志路三段1號","121.424863333333","25.0434783333333","6501600","泰山區"
"231025","0293-UT","2017/12/11 14:09:41","新北市新店區中正路302巷5弄2號","121.53823","24.975495","6500600","新店區"
"231028","046-UY","2017/12/11 14:09:47","新北市新店區安業街15號","121.516315","24.9782866666667","6500600","新店區"
"231030","047-UY","2017/12/11 14:09:32","新北市新店區安民街115巷28號","121.515135","24.967625","6500600","新店區"
"231029","106-UY","2017/12/11 14:09:35","新北市新店區安康路二段174號","121.511795","24.9604466666667","6500600","新店區"
"231018","107-UY","2017/12/11 14:09:49","新北市新店區中央五街21號","121.529421666667","24.97455","6500600","新店區"
"231011","108-UY","2017/12/11 14:09:50","新北市新店區五峰路63巷8弄42號","121.547891666667","24.9686616666667","6500600","新店區"
"231019","187-VK","2017/12/11 14:09:35","新北市新店區屈尺路83-2號","121.544575","24.9220933333333","6500600","新店區"
"231014","KEA-2219","2017/12/11 14:09:53","新北市新店區郵政路4巷4號","121.557001666667","24.9516166666667","6500600","新店區"
"231034","268-BY","2017/12/11 14:09:44","新北市新店區黎明路3號","121.503521666667","24.95245","6500600","新店區"
"231023","AAD-862","2017/12/11 14:09:48","新北市新店區北宜路一段41號","121.538265","24.9573516666667","6500600","新店區"
"231002","355-BY","2017/12/11 14:09:55","新北市新店區中正路542-10號","121.533563333333","24.9849766666667","6500600","新店區"
"231027","3712-VJ","2017/12/11 14:09:42","新北市新店區光明街168巷16號","121.540305","24.9616833333333","6500600","新店區"
"231024","4716-K9","2017/12/11 14:09:45","新北市新店區中央路151號","121.529415","24.9718966666667","6500600","新店區"
"231038","4715-K9","2017/12/11 14:09:42","新北市新店區溪洲路121號","121.53131","24.9626816666667","6500600","新店區"
"231036","512-UM","2017/12/11 14:09:37","新北市新店區安祥路109巷1弄35號","121.476793333333","24.960265","6500600","新店區"
"231035","515-UM","2017/12/11 14:09:36","新北市新店區安和路二段115號","121.518573333333","24.970185","6500600","新店區"
"231003","616-UM","2017/12/11 14:09:40","新北市新店區中興路一段144號","121.542341666667","24.9637966666667","6500600","新店區"
"231001","619-UM","2017/12/11 14:09:39","新北市新店區中華路18號","121.54041","24.967615","6500600","新店區"
"231013","719-UM","2017/12/11 14:09:45","新北市新店區北新路三段65巷34弄21號","121.539985","24.9815916666667","6500600","新店區"
"231031","720-UM","2017/12/11 14:09:47","新北市新店區碧潭路3號","121.534865","24.9563216666667","6500600","新店區"
"231005","897-TW","2017/12/11 14:09:46","新北市新店區中興路三段313號","121.541918333333","24.9860683333333","6500600","新店區"
"231006","898-TW","2017/12/11 14:09:42","新北市新店區北宜路二段317號","121.556866666667","24.9540616666667","6500600","新店區"
"231004","899-TW","2017/12/11 14:09:36","新北市新店區北新路二段156-1號","121.54306","24.975545","6500600","新店區"
"231037","AKT-0513","2017/12/11 14:09:55","新北市新店區安康路三段73號","121.492233333333","24.9520833333333","6500600","新店區"
"235030","003-UY","2017/12/11 14:09:43","新北市中和區水源路102號","121.506173333333","25.003355","6500300","中和區"
"235028","005-UY","2017/12/11 14:09:50","新北市中和區連城路47巷5號","121.498416666667","25.00167","6500300","中和區"
"235027","006-UY","2017/12/11 14:09:48","新北市中和區連城路249巷37號","121.494355","24.9956733333333","6500300","中和區"
"235010","031-BX","2017/12/11 14:09:32","新北市中和區忠孝街1巷18號","121.508621666667","24.98388","6500300","中和區"
"235020","096-UM","2017/12/11 14:09:50","新北市中和區中正路1191號","121.480655","25.0099333333333","6500300","中和區"
"235003","097-UM","2017/12/11 14:09:40","新北市中和區秀峰街58號","121.520838333333","24.9904016666667","6500300","中和區"
"235004","150-BY","2017/12/11 14:09:38","新北市中和區保健路44巷11號","121.509003333333","24.996685","6500300","中和區"
"235022","151-BY","2017/12/11 14:09:46","新北市中和區員山路147號","121.481085","24.9962516666667","6500300","中和區"
"235019","183-VK","2017/12/11 14:09:54","新北市中和區德光路89號","121.469045","25.00354","6500300","中和區"
"235002","185-VK","2017/12/11 14:09:41","新北市中和區大仁街10巷9弄29號","121.519308333333","24.9930266666667","6500300","中和區"
"235013","186-VK","2017/12/11 14:09:31","新北市中和區明仁街6巷2號","121.505856666667","24.9953383333333","6500300","中和區"
"235031","255-BX","2017/12/11 14:09:40","新北市中和區新生街176巷17號","121.48271","24.999905","6500300","中和區"
"235008","293-VK","2017/12/11 14:09:40","新北市中和區中興街222-6號","121.500675","24.9897116666667","6500300","中和區"
"235036","301-VK","2017/12/11 14:09:37","新北市中和區中山路二段257號","121.497353333333","25.00232","6500300","中和區"
"235007","352-BY","2017/12/11 14:09:51","新北市中和區景平路16號","121.52379","24.9906366666667","6500300","中和區"
"235032","377-QA","2017/12/11 14:09:52","新北市中和區圓通路158巷1弄9號","121.497268333333","24.9960416666667","6500300","中和區"
"235025","378-QA","2017/12/11 14:09:45","新北市中和區中山路三段63巷9號","121.47715","25.0043233333333","6500300","中和區"
"235035","269-TV","2017/12/11 14:09:32","新北市中和區立德街98巷83號","121.48837","25.0086366666667","6500300","中和區"
"235014","4979-A6","2017/12/11 14:09:46","新北市中和區復興路265號","121.502803333333","24.99023","6500300","中和區"
"235033","4980-A6","2017/12/11 14:09:37","新北市中和區福祥路46號","121.499365","25.00393","6500300","中和區"
"235006","551-UM","2017/12/11 14:09:34","新北市中和區立人街69巷15弄1號","121.520838333333","24.993545","6500300","中和區"
"235034","558-UM","2017/12/11 14:09:46","新北市中和區中和路212號","121.505966666667","24.99955","6500300","中和區"
"235009","565-BX","2017/12/11 14:09:45","新北市中和區景新街467巷38弄2號","121.514578333333","24.98853","6500300","中和區"
"235018","640-BX","2017/12/11 14:09:47","新北市中和區國光街107巷4弄24號","121.469961666667","24.9990316666667","6500300","中和區"
"235024","647-TV","2017/12/11 14:09:48","新北市中和區民享街86巷1號","121.4745","25.0009283333333","6500300","中和區"
"235011","732-UM","2017/12/11 14:09:48","新北市中和區興南路二段32巷5號","121.507215","24.9854566666667","6500300","中和區"
"235026","800-TS","2017/12/11 14:09:37","新北市中和區中山路二段366巷13-1號","121.491723333333","25.00455","6500300","中和區"
"235021","801-TS","2017/12/11 14:09:42","新北市中和區民利街68巷6號","121.478323333333","24.9989233333333","6500300","中和區"
"235005","802-TS","2017/12/11 14:09:46","新北市中和區中安街132號","121.5109","25.000415","6500300","中和區"
"235016","805-TS","2017/12/11 14:09:31","新北市中和區興南路二段114巷12號","121.503886666667","24.9844583333333","6500300","中和區"
"235012","896-TW","2017/12/11 14:09:46","新北市中和區華新街143巷71弄13號","121.508355","24.9787966666667","6500300","中和區"
"235017","900-TW","2017/12/11 14:09:47","新北市中和區華福街57巷2號","121.466768333333","24.996825","6500300","中和區"
"235024","911-UM","2017/12/11 14:09:36","新北市中和區莊敬路39號","121.500816666667","25.0050666666667","6500300","中和區"
"235015","157-BY","2017/12/11 14:09:41","新北市中和區興南路一段105巷20弄3號","121.509903333333","24.9857533333333","6500300","中和區"
"235001","AAC-213","2017/12/11 14:09:45","新北市中和區秀朗路三段60巷30號","121.525341666667","24.99498","6500300","中和區"
"235023","AAC-215","2017/12/11 14:09:51","新北市中和區圓通路294巷17-5號","121.488616666667","24.9904716666667","6500300","中和區"
"220016","013-TV","2017/12/11 14:09:44","新北市板橋區三民路一段1巷49號","121.4808","25.024795","6500100","板橋區"
"220013","072-UY","2017/12/11 14:09:53","新北市板橋區民族路151巷28號","121.46906","25.0081033333333","6500100","板橋區"
"220034","073-UY","2017/12/11 14:09:44","新北市板橋區中正路236巷53號","121.458085","25.0194783333333","6500100","板橋區"
"220105","075-UY","2017/12/11 14:09:25","新北市板橋區文化路二段263巷20號","121.47125","25.029725","6500100","板橋區"
"220017","AAD-861","2017/12/11 14:09:54","新北市板橋區貴興路7號","121.457733333333","25.0043666666667","6500100","板橋區"
"220051","120-SR","2017/12/11 14:09:53","新北市板橋區萬板路818巷9號","121.482958333333","25.026685","6500100","板橋區"
"247021","893-R6","2017/12/11 14:09:44","新北市蘆洲區三民路165號","121.471403333333","25.0870733333333","6501400","蘆洲區"
"247019","500-BY","2017/12/11 14:09:37","新北市蘆洲區仁愛街62巷22號","121.472336666667","25.0941883333333","6501400","蘆洲區"
"247001","402-BY","2017/12/11 14:09:45","新北市蘆洲區民族路5號","121.475711666667","25.0840433333333","6501400","蘆洲區"
"247007","341-TH","2017/12/11 14:09:43","新北市蘆洲區中山一路293-1號","121.471656666667","25.0790666666667","6501400","蘆洲區"
"247009","339-TH","2017/12/11 14:09:43","新北市蘆洲區信義路178號","121.479301666667","25.0840716666667","6501400","蘆洲區"
"247001","337-TH","2017/12/11 14:09:52","新北市蘆洲區永平街62號","121.457366666667","25.0917783333333","6501400","蘆洲區"
"247003","336-TH","2017/12/11 14:09:36","新北市蘆洲區長安街122號","121.46054","25.0817483333333","6501400","蘆洲區"
"247015","057-VK","2017/12/11 14:09:46","新北市蘆洲區中正路185巷19號","121.467458333333","25.0848916666667","6501400","蘆洲區"
"247005","056-VK","2017/12/11 14:09:36","新北市蘆洲區和平路97巷13號","121.46765","25.0785933333333","6501400","蘆洲區"
"247013","007-UY","2017/12/11 14:09:33","新北市蘆洲區保和街50-8號","121.469948333333","25.08634","6501400","蘆洲區"
"247023","002-UY","2017/12/11 14:09:52","新北市蘆洲區光榮路112號","121.464435","25.089325","6501400","蘆洲區"
"247017","001-UY","2017/12/11 14:09:43","新北市蘆洲區復興路111-6號","121.476583333333","25.0882733333333","6501400","蘆洲區"
"253003","6232-TK","2017/12/11 14:09:44","新北市石門區尖子鹿54號","121.582726666667","25.2734616666667","6502200","石門區"
"253001","6251-TK","2017/12/11 14:09:42","新北市石門區下員坑53號","121.521388333333","25.2706483333333","6502200","石門區"
"253002","637-UY","2017/12/11 14:08:35","新北市石門區七股60號","121.553826666667","25.252265","6502200","石門區"
"253004","8270-PC","2017/12/11 14:09:50","新北市石門區草埔尾20-4號","121.603","25.2628133333333","6502200","石門區"
"208004","AAC-292","2017/12/11 14:09:35","新北市金山區山城路10巷34弄22號","121.594761666667","25.1989866666667","6502700","金山區"
"207002","749-BX","2017/12/11 14:09:49","新北市萬里區溪底里瑞泉路13-1號","121.60486","25.1450666666667","6502800","萬里區"
"252005","073-UM","2017/12/11 14:09:34","新北市三芝區橫山里大坑85-1號","121.5289","25.2582933333333","6502100","三芝區"
"207001","662-BX","2017/12/11 14:09:38","新北市萬里區磺潭里清水15號","121.638046666667","25.1982316666667","6502800","萬里區"
"236064","105-UM","2017/12/11 14:09:44","新北市土城區清水路1號","121.452803333333","24.9797833333333","6501300","土城區"
"236040","107-UM","2017/12/11 14:09:42","新北市土城區城林路6巷80號","121.438496666667","24.9800133333333","6501300","土城區"
"236074","166-UM","2017/12/11 13:59:40","新北市土城區永寧路32巷9號","121.428928333333","24.960545","6501300","土城區"
"236028","253-BX","2017/12/11 14:09:52","新北市土城區中央路二段263號","121.439823333333","24.9707816666667","6501300","土城區"
"236024","269-VK","2017/12/11 14:09:49","新北市土城區承天路67號","121.439488333333","24.96364","6501300","土城區"
"236012","270-VK","2017/12/11 14:09:40","新北市土城區學成路2號","121.45372","24.9863233333333","6501300","土城區"
"236032","271-VK","2017/12/11 14:09:36","新北市土城區明德路一段375-3號","121.454105","24.9785633333333","6501300","土城區"
"236016","401-BY","2017/12/11 14:09:36","新北市土城區員福街34號","121.44115","24.9787883333333","6501300","土城區"
"236005","498-BY","2017/12/11 14:09:51","新北市土城區中央路一段22號","121.448315","24.9910466666667","6501300","土城區"
"236056","912-UM","2017/12/11 14:09:46","新北市土城區中央路四段72號","121.419176666667","24.9596916666667","6501300","土城區"
"236044","913-UM","2017/12/11 14:09:50","新北市土城區明德路一段365-1號","121.453595","24.9789766666667","6501300","土城區"
"236060","915-UM","2017/12/11 14:09:44","新北市土城區金城路二段204號","121.455078333333","24.9819516666667","6501300","土城區"
"236047","970-R7","2017/12/11 14:09:41","新北市土城區裕民路155號","121.452323333333","24.9860033333333","6501300","土城區"
"236052","AAC-216","2017/12/11 14:09:41","新北市土城區中華路二段102號","121.438093333333","24.9743433333333","6501300","土城區"
"221008","489-VK","2017/12/11 14:09:45","台北市文山區老泉街13-1號","121.558276666667","24.9763966666667","6501100","汐止區"
"220027","145-BY","2017/12/11 14:09:46","新北市板橋區公館街23號","121.460795","25.0148433333333","6500100","板橋區"
"220030","610-BX","2017/12/11 14:09:48","新北市板橋區溪崑二街41號","121.428393333333","24.9910366666667","6500100","板橋區"
"220050","245-BX","2017/12/11 14:09:39","新北市板橋區民生路二段181號","121.469615","25.02044","6500100","板橋區"
"220004","276-BY","2017/12/11 14:09:50","新北市板橋區信義路110巷3號","121.458203333333","24.99205","6500100","板橋區"
"220020","277-BY","2017/12/11 14:09:41","新北市板橋區金門街369巷81號","121.428488333333","24.982615","6500100","板橋區"
"220019","283-VK","2017/12/11 14:09:41","新北市板橋區重慶路353巷7號","121.464853333333","24.9981433333333","6500100","板橋區"
"220043","285-UM","2017/12/11 14:09:43","新北市板橋區光武街108-5號","121.465765","25.0291283333333","6500100","板橋區"
"220001","285-VK","2017/12/11 14:09:47","新北市板橋區懷仁街34巷16號","121.475956666667","25.0191766666667","6500100","板橋區"
"220031","286-VK","2017/12/11 14:09:43","新北市板橋區大觀路二段174巷173弄3號","121.441648333333","25.00373","6500100","板橋區"
"220029","287-VK","2017/12/11 14:09:47","新北市板橋區南雅西路二段110巷13號","121.452375","25.0126766666667","6500100","板橋區"
"220039","288-VK","2017/12/11 14:09:40","新北市板橋區四維路291巷3號","121.46164","25.0283083333333","6500100","板橋區"
"220009","293-UM","2017/12/11 14:09:33","新北市板橋區三民路二段21巷6號","121.479771666667","25.0180783333333","6500100","板橋區"
"220032","296-UM","2017/12/11 14:09:41","新北市板橋區篤行路一段8號","121.431765","24.9953716666667","6500100","板橋區"
"220041","299-UM","2017/12/11 14:09:32","新北市板橋區文化路二段225巷58號","121.469348333333","25.0284116666667","6500100","板橋區"
"220010","305-R5","2017/12/11 14:09:34","新北市板橋區三民路二段居仁巷1-2號","121.479365","25.0132683333333","6500100","板橋區"
"220047","317-R6","2017/12/11 14:09:35","新北市板橋區自由路51巷12號","121.46487","25.0235733333333","6500100","板橋區"
"220028","461-BY","2017/12/11 14:09:44","新北市板橋區大觀路二段7巷69-3號","121.449231666667","25.0032133333333","6500100","板橋區"
"220012","486-VK","2017/12/11 14:09:44","新北市板橋區民生路一段35號","121.475601666667","25.0125216666667","6500100","板橋區"
"220038","487-VK","2017/12/11 14:09:43","新北市板橋區文化路二段453號","121.47551","25.0336716666667","6500100","板橋區"
"220037","491-VK","2017/12/11 14:09:49","新北市板橋區莊敬路56號","121.472851666667","25.026885","6500100","板橋區"
"220104","560-BX","2017/12/11 14:09:48","新北市板橋區中正路381號","121.454125","25.0216033333333","6500100","板橋區"
"220052","561-BX","2017/12/11 14:09:32","新北市板橋區文化路一段188巷9弄21號","121.468498333333","25.0194966666667","6500100","板橋區"
"220023","568-UM","2017/12/11 14:09:48","新北市板橋區光華街1號","121.454185","25.0112","6500100","板橋區"
"220011","609-BX","2017/12/11 14:09:33","新北市板橋區三民路二段140號","121.47906","25.01589","6500100","板橋區"
"220040","637-BX","2017/12/11 14:09:41","新北市板橋區萬板路478號","121.479845","25.026135","6500100","板橋區"
"220005","686-BX","2017/12/11 14:09:48","新北市板橋區重慶路37號","121.46176","25.0075883333333","6500100","板橋區"
"220025","687-BX","2017/12/11 14:09:44","新北市板橋區大觀路一段38巷156弄4號","121.442616666667","25.00449","6500100","板橋區"
"220042","689-BX","2017/12/11 14:09:48","新北市板橋區民生路三段229號","121.464891666667","25.0285683333333","6500100","板橋區"
"220002","741-BX","2017/12/11 14:09:44","新北市板橋區重慶路93巷22號","121.462956666667","25.005725","6500100","板橋區"
"220003","827-TW","2017/12/11 14:09:41","新北市板橋區新民街7巷25號","121.46352","25.010485","6500100","板橋區"
"220014","829-TW","2017/12/11 14:09:50","新北市板橋區中山路二段90巷43弄1號","121.476465","25.0149683333333","6500100","板橋區"
"220045","831-TW","2017/12/11 14:09:44","新北市板橋區雙十路二段47巷38號","121.47529","25.025655","6500100","板橋區"
"220022","895-R6","2017/12/11 14:09:47","新北市板橋區西門街59號","121.454418333333","25.0091966666667","6500100","板橋區"
"220021","985-R7","2017/12/11 14:09:43","新北市板橋區中正路98號","121.456565","25.01514","6500100","板橋區"
"220046","AAC-210","2017/12/11 14:09:51","新北市板橋區新海路135巷33號","121.460003333333","25.0228416666667","6500100","板橋區"
"220018","AAC-253","2017/12/11 14:09:51","新北市板橋區忠孝路23號","121.460515","25.001985","6500100","板橋區"
