"lineid","car","time","location","longitude","latitude","cityid","cityname"
"234005","207-UY","2017/12/11 14:39:46","新北市永和區安樂路218號","121.515055","25.0021116666667","6500400","永和區"
"234052","553-UM","2017/12/11 14:39:46","新北市永和區環河東路一段82號","121.519653333333","25.0164983333333","6500400","永和區"
"234025","9371-KE","2017/12/11 14:39:39","新北市永和區雙和街7巷7-1號","121.509493333333","25.00144","6500400","永和區"
"248013","025-BX","2017/12/11 14:39:50","新北市五股區五福路32巷23號","121.43489","25.09001","6501500","五股區"
"248015","026-BX","2017/12/11 14:39:41","新北市五股區成泰路三段601巷17-1號","121.451745","25.10333","6501500","五股區"
"248007","095-VK","2017/12/11 14:39:50","新北市五股區四維路120號","121.468148333333","25.0745983333333","6501500","五股區"
"248019","225-UY","2017/12/11 14:39:38","新北市五股區凌雲路三段35-1號","121.43052","25.11657","6501500","五股區"
"248011","247-BX","2017/12/11 14:39:52","新北市五股區成泰路一段235-3號","121.436358333333","25.0796666666667","6501500","五股區"
"248009","272-BY","2017/12/11 14:39:40","新北市五股區登林路貿商巷1弄9號","121.42964","25.0696733333333","6501500","五股區"
"248001","655-BX","2017/12/11 14:39:34","新北市五股區成泰路三段277號","121.44709","25.0941466666667","6501500","五股區"
"248003","677-BX","2017/12/11 14:39:36","新北市五股區成泰路一段235-4號","121.436396666667","25.0797983333333","6501500","五股區"
"234072","AAC-211","2017/12/11 14:39:35","新北市永和區竹林路75巷4弄34號","121.521593333333","25.0142583333333","6500400","永和區"
"234001","AAC-295","2017/12/11 14:39:42","新北市永和區中正路620號","121.51703","25.007815","6500400","永和區"
"244018","403-UM","2017/12/11 10:54:21","新北市林口區粉寮69號","121.405081666667","25.0907866666667","6501700","林口區"
"244001","657-BX","2017/12/11 14:24:41","新北市林口區林口路76號","121.389693333333","25.08067","6501700","林口區"
"244025","837-TS","2017/12/11 09:30:04","新北市林口區粉寮路二段160巷28號","121.405215","25.0907016666667","6501700","林口區"
"243004","AAD-798","2017/12/11 14:39:40","新北市泰山區全興路105號","121.433663333333","25.056855","6501600","泰山區"
"243003","297-R6","2017/12/11 14:39:47","新北市泰山區明志路三段204巷10弄16號","121.423038333333","25.0387116666667","6501600","泰山區"
"243007","380-SR","2017/12/11 13:41:35","新北市泰山區犁頭窠12鄰3號","121.422735","25.0599133333333","6501600","泰山區"
"243006","421-VK","2017/12/11 14:39:46","新北市泰山區仁愛路36-1號","121.431456666667","25.05417","6501600","泰山區"
"243002","KEA-2215","2017/12/11 14:39:38","新北市泰山區明志路二段136巷48號","121.426211666667","25.05206","6501600","泰山區"
"243001","KEA-2216","2017/12/11 14:39:42","新北市泰山區泰林路二段164巷25號","121.43442","25.061085","6501600","泰山區"
"243005","646-TV","2017/12/11 14:38:45","新北市泰山區應化街13號","121.423865","25.0436933333333","6501600","泰山區"
"243008","680-BX","2017/12/11 14:39:42","新北市泰山區新北大道六段365號","121.422686666667","25.0328683333333","6501600","泰山區"
"231025","0293-UT","2017/12/11 14:39:41","新北市新店區民族路161號","121.537658333333","24.97675","6500600","新店區"
"231028","046-UY","2017/12/11 14:39:47","新北市新店區安德街62號","121.51067","24.9620433333333","6500600","新店區"
"231030","047-UY","2017/12/11 14:39:32","新北市新店區安民街176號","121.516885","24.9708783333333","6500600","新店區"
"231029","106-UY","2017/12/11 14:39:35","新北市新店區安康路三段263號","121.486565","24.95195","6500600","新店區"
"231018","107-UY","2017/12/11 14:39:49","新北市新店區中央一街37號","121.52749","24.9736416666667","6500600","新店區"
"231011","108-UY","2017/12/11 14:39:47","新北市新店區寶宏路6-3號","121.549148333333","24.97659","6500600","新店區"
"231019","187-VK","2017/12/11 14:39:35","新北市新店區永興路102-4號","121.54606","24.9302233333333","6500600","新店區"
"231014","KEA-2219","2017/12/11 14:39:33","新北市新店區北宜路三段262號","121.599923333333","24.953835","6500600","新店區"
"231034","268-BY","2017/12/11 14:39:44","新北市新店區黎明路11號","121.502006666667","24.9497366666667","6500600","新店區"
"231023","AAD-862","2017/12/11 14:39:48","新北市新店區檳榔路27號","121.541743333333","24.9636566666667","6500600","新店區"
"231002","355-BY","2017/12/11 14:39:45","新北市新店區中正路468號","121.53402","24.979485","6500600","新店區"
"231027","3712-VJ","2017/12/11 14:39:36","新北市新店區中正路328巷1號","121.536893333333","24.9753116666667","6500600","新店區"
"231038","4715-K9","2017/12/11 14:39:42","新北市新店區安康路一段76號","121.528256666667","24.9619516666667","6500600","新店區"
"231036","512-UM","2017/12/11 14:39:37","新北市新店區安祥路106巷327號","121.47245","24.9587416666667","6500600","新店區"
"231035","515-UM","2017/12/11 14:39:36","新北市新店區安康路二段118-8號","121.512785","24.96351","6500600","新店區"
"231003","616-UM","2017/12/11 14:39:40","新北市新店區中興路一段292號","121.545881666667","24.9691633333333","6500600","新店區"
"231001","619-UM","2017/12/11 14:39:39","新北市新店區中正路30號","121.545171666667","24.9696966666667","6500600","新店區"
"231039","718-UY","2017/12/11 14:39:37","新北市新店區寶橋路97號","121.546775","24.976535","6500600","新店區"
"231013","719-UM","2017/12/11 14:39:45","新北市新店區明德路27號","121.541931666667","24.9771616666667","6500600","新店區"
"231005","897-TW","2017/12/11 14:39:35","新北市新店區順安街55號","121.540803333333","24.98626","6500600","新店區"
"231006","898-TW","2017/12/11 14:39:42","新北市新店區北宜路二段131號","121.551078333333","24.9530516666667","6500600","新店區"
"231004","899-TW","2017/12/11 14:39:37","新北市新店區中正路265號","121.538051666667","24.9739583333333","6500600","新店區"
"231037","AKT-0513","2017/12/11 14:39:34","新北市新店區安德街60巷17號","121.51021","24.96307","6500600","新店區"
"235030","003-UY","2017/12/11 14:39:43","新北市中和區南華路89號","121.505523333333","24.997575","6500300","中和區"
"235028","005-UY","2017/12/11 14:39:44","新北市中和區南山路60-2號","121.502015","24.996955","6500300","中和區"
"235027","006-UY","2017/12/11 14:39:48","新北市中和區連城路174巷40號","121.494366666667","25.0004783333333","6500300","中和區"
"235010","031-BX","2017/12/11 14:39:32","新北市中和區忠孝街69號","121.512045","24.9849683333333","6500300","中和區"
"235020","096-UM","2017/12/11 14:39:48","新北市中和區民富街94號","121.476836666667","25.0086133333333","6500300","中和區"
"235003","097-UM","2017/12/11 14:39:40","新北市中和區宜安路57號","121.511635","24.9968916666667","6500300","中和區"
"235004","150-BY","2017/12/11 14:39:38","新北市中和區宜安路11巷44號","121.512396666667","24.994745","6500300","中和區"
"235022","151-BY","2017/12/11 14:39:46","新北市中和區員山路124巷25號","121.482428333333","24.9961316666667","6500300","中和區"
"235019","183-VK","2017/12/11 14:39:34","新北市中和區民生街10巷2號","121.471035","25.0057783333333","6500300","中和區"
"235002","185-VK","2017/12/11 14:39:34","新北市中和區自立路141巷3號","121.522445","24.9935433333333","6500300","中和區"
"235013","186-VK","2017/12/11 14:39:51","新北市中和區安平路17號","121.509181666667","24.99416","6500300","中和區"
"235031","255-BX","2017/12/11 14:39:40","新北市中和區新生街186巷8號","121.483258333333","24.9997166666667","6500300","中和區"
"235008","293-VK","2017/12/11 14:39:40","新北市中和區興南路一段152號","121.508358333333","24.98697","6500300","中和區"
"235036","301-VK","2017/12/11 14:39:37","新北市中和區板南路403號","121.493068333333","24.9994483333333","6500300","中和區"
"235007","352-BY","2017/12/11 14:39:43","新北市中和區南華路39號","121.503358333333","24.9963133333333","6500300","中和區"
"235032","377-QA","2017/12/11 14:39:32","新北市中和區永和路1號","121.499901666667","25.0028883333333","6500300","中和區"
"235025","378-QA","2017/12/11 14:39:47","新北市中和區民安街9號","121.480743333333","25.0008216666667","6500300","中和區"
"235035","269-TV","2017/12/11 14:39:32","新北市中和區連城路469巷2號","121.48354","24.9956733333333","6500300","中和區"
"235014","4979-A6","2017/12/11 14:39:46","新北市中和區中正路252號","121.495616666667","24.9939183333333","6500300","中和區"
"235033","4980-A6","2017/12/11 14:39:37","新北市中和區錦和路216號","121.490283333333","24.9941116666667","6500300","中和區"
"235006","551-UM","2017/12/11 14:39:34","新北市中和區保健路2巷2號","121.507728333333","24.99836","6500300","中和區"
"235034","558-UM","2017/12/11 14:39:46","新北市中和區南山路6號","121.502001666667","24.9986783333333","6500300","中和區"
"235009","565-BX","2017/12/11 14:39:45","新北市中和區安樂路15號","121.511625","24.9921516666667","6500300","中和區"
"235018","640-BX","2017/12/11 14:39:43","新北市中和區國光街102巷11弄5號","121.470638333333","25.0008766666667","6500300","中和區"
"235024","647-TV","2017/12/11 14:39:48","新北市中和區新生街112-3號","121.483398333333","25.0025666666667","6500300","中和區"
"235011","732-UM","2017/12/11 14:39:47","新北市中和區景平路259巷18號","121.507805","24.9926866666667","6500300","中和區"
"235026","800-TS","2017/12/11 14:39:37","新北市中和區中山路二段411號","121.486085","25.0043133333333","6500300","中和區"
"235021","801-TS","2017/12/11 14:39:40","新北市中和區民樂路1號","121.481396666667","25.0011616666667","6500300","中和區"
"235005","802-TS","2017/12/11 14:39:46","新北市中和區中和路252巷1號","121.507656666667","24.9992933333333","6500300","中和區"
"235016","805-TS","2017/12/11 14:39:51","新北市中和區華新街206巷21弄2號","121.50597","24.982795","6500300","中和區"
"235012","896-TW","2017/12/11 14:39:46","新北市中和區景新街499號","121.514028333333","24.9870166666667","6500300","中和區"
"235017","900-TW","2017/12/11 14:39:41","新北市中和區國光街140巷4號","121.46859","25.0014233333333","6500300","中和區"
"235024","911-UM","2017/12/11 14:39:35","新北市中和區中山路二段178巷1號","121.50059","25.00282","6500300","中和區"
"235015","157-BY","2017/12/11 14:39:48","新北市中和區興南路一段86號","121.509881666667","24.9893633333333","6500300","中和區"
"235001","AAC-213","2017/12/11 14:39:45","新北市中和區秀朗路三段10巷21弄6號","121.52525","24.9961966666667","6500300","中和區"
"235023","AAC-215","2017/12/11 14:39:51","新北市中和區圓通路256號","121.493388333333","24.99094","6500300","中和區"
"220016","013-TV","2017/12/11 14:39:44","新北市板橋區中山路二段416巷36-1號","121.48315","25.0198066666667","6500100","板橋區"
"220034","015-TV","2017/12/11 14:39:53","新北市板橋區國光路189-3號","121.461185","25.0185733333333","6500100","板橋區"
"220013","072-UY","2017/12/11 14:39:38","新北市板橋區國泰街111巷17號","121.466155","25.0059566666667","6500100","板橋區"
"220034","073-UY","2017/12/11 14:39:44","新北市板橋區國光路171號","121.460471666667","25.018335","6500100","板橋區"
"220105","075-UY","2017/12/11 14:39:45","新北市板橋區雙十路三段27-1號","121.47061","25.03123","6500100","板橋區"
"220017","AAD-861","2017/12/11 14:39:34","新北市板橋區縣民大道一段64巷7號","121.455556666667","25.0036816666667","6500100","板橋區"
"220051","120-SR","2017/12/11 14:39:33","新北市板橋區雙十路二段130巷2弄76號","121.4757","25.0292066666667","6500100","板橋區"
"247021","893-R6","2017/12/11 14:39:44","新北市蘆洲區三民路222號","121.468833333333","25.089335","6501400","蘆洲區"
"247011","546-UM","2017/12/11 14:39:35","新北市蘆洲區集賢路224巷64弄1號","121.480916666667","25.088255","6501400","蘆洲區"
"247019","500-BY","2017/12/11 14:39:37","新北市蘆洲區民權路125號","121.472141666667","25.09001","6501400","蘆洲區"
"247001","402-BY","2017/12/11 14:39:45","新北市蘆洲區集賢路378號","121.48052","25.0827766666667","6501400","蘆洲區"
"247007","341-TH","2017/12/11 14:39:43","新北市蘆洲區中山一路263號","121.472821666667","25.0799416666667","6501400","蘆洲區"
"247009","339-TH","2017/12/11 14:39:43","新北市蘆洲區信義路222巷57號","121.481018333333","25.0855166666667","6501400","蘆洲區"
"247001","337-TH","2017/12/11 14:39:33","新北市蘆洲區環堤大道198號","121.456935","25.09087","6501400","蘆洲區"
"247003","336-TH","2017/12/11 14:39:36","新北市蘆洲區永安南路二段328巷2號","121.457038333333","25.0830733333333","6501400","蘆洲區"
"247015","057-VK","2017/12/11 14:24:05","新北市蘆洲區光華路46巷46號","121.467638333333","25.0846033333333","6501400","蘆洲區"
"247005","056-VK","2017/12/11 14:39:36","新北市蘆洲區長安街68巷9號","121.463025","25.0804633333333","6501400","蘆洲區"
"247013","007-UY","2017/12/11 14:39:33","新北市蘆洲區中正路83號","121.470128333333","25.0836066666667","6501400","蘆洲區"
"247023","002-UY","2017/12/11 14:39:52","新北市蘆洲區正和街63巷7號","121.469168333333","25.0807466666667","6501400","蘆洲區"
"247017","001-UY","2017/12/11 14:39:43","新北市蘆洲區民族路309號","121.474718333333","25.09128","6501400","蘆洲區"
"253003","6232-TK","2017/12/11 14:39:37","新北市石門區尖子鹿88號","121.579161666667","25.2906483333333","6502200","石門區"
"253001","6251-TK","2017/12/11 14:39:42","新北市石門區八甲1號","121.521571666667","25.2843266666667","6502200","石門區"
"253002","637-UY","2017/12/11 14:39:35","新北市石門區大溪墘8-1號","121.550996666667","25.276785","6502200","石門區"
"253004","8270-PC","2017/12/11 14:39:53","新北市石門區內阿里磅14號","121.593095","25.24954","6502200","石門區"
"208004","AAC-292","2017/12/11 14:39:35","新北市金山區重和里磺溪頭81號","121.597066666667","25.21678","6502700","金山區"
"207002","749-BX","2017/12/11 14:38:29","新北市萬里區溪底里香員林路17-1號","121.635473333333","25.1598983333333","6502800","萬里區"
"207001","662-BX","2017/12/11 14:39:38","新北市萬里區磺潭里員潭路54號","121.643405","25.1905683333333","6502800","萬里區"
"236064","105-UM","2017/12/11 14:39:44","新北市土城區永豐路330號","121.472995","24.9775483333333","6501300","土城區"
"236040","107-UM","2017/12/11 14:39:42","新北市土城區學成路108巷8-2號","121.450185","24.989625","6501300","土城區"
"236074","166-UM","2017/12/11 13:59:40","新北市土城區永寧路32巷9號","121.428928333333","24.960545","6501300","土城區"
"236028","253-BX","2017/12/11 14:39:32","新北市土城區中華路二段90號","121.438395","24.97494","6501300","土城區"
"236024","269-VK","2017/12/11 14:39:49","新北市土城區千歲路13號","121.44091","24.9695633333333","6501300","土城區"
"236012","270-VK","2017/12/11 14:39:40","新北市土城區清水路223號","121.460856666667","24.9825416666667","6501300","土城區"
"236032","271-VK","2017/12/11 14:39:37","新北市土城區明德路一段313巷22號","121.459603333333","24.9763233333333","6501300","土城區"
"236016","401-BY","2017/12/11 14:39:36","新北市土城區延吉街327-1號","121.465595","24.984205","6501300","土城區"
"236056","912-UM","2017/12/11 14:39:46","新北市土城區中央路四段35號","121.423256666667","24.962115","6501300","土城區"
"236044","913-UM","2017/12/11 14:39:50","新北市土城區明德路一段6號","121.464831666667","24.9856616666667","6501300","土城區"
"236060","915-UM","2017/12/11 14:39:44","新北市土城區延壽路13巷17號","121.469986666667","24.9913416666667","6501300","土城區"
"236047","970-R7","2017/12/11 14:39:41","新北市土城區裕民路157號","121.452263333333","24.9858283333333","6501300","土城區"
"236052","AAC-216","2017/12/11 14:39:41","新北市土城區中華路一段47號","121.445716666667","24.98835","6501300","土城區"
"221008","489-VK","2017/12/11 14:39:25","新北市新店區安豐路22巷18-1號","121.501986666667","24.9542283333333","6501100","汐止區"
"220027","145-BY","2017/12/11 14:39:46","新北市板橋區復興街111號","121.460221666667","25.0179316666667","6500100","板橋區"
"220030","610-BX","2017/12/11 14:39:48","新北市板橋區大觀路三段261號","121.429285","24.9921633333333","6500100","板橋區"
"220050","245-BX","2017/12/11 14:39:39","新北市板橋區莊敬路232號","121.473176666667","25.0213816666667","6500100","板橋區"
"220004","276-BY","2017/12/11 14:39:46","新北市板橋區四川路二段47巷1弄2號","121.45415","24.9949416666667","6500100","板橋區"
"220020","277-BY","2017/12/11 14:39:41","新北市板橋區金門街253巷12號","121.432938333333","24.9883133333333","6500100","板橋區"
"220019","283-VK","2017/12/11 14:39:41","新北市板橋區信義路279巷11號","121.462226666667","24.989585","6500100","板橋區"
"220043","285-UM","2017/12/11 14:39:45","新北市板橋區宏國路94號","121.469951666667","25.0319816666667","6500100","板橋區"
"220001","285-VK","2017/12/11 14:39:46","新北市板橋區中山路二段148巷6號","121.476811666667","25.0167583333333","6500100","板橋區"
"220031","286-VK","2017/12/11 14:39:45","新北市板橋區龍興街65巷18號","121.443196666667","25.001565","6500100","板橋區"
"220029","287-VK","2017/12/11 14:39:47","新北市板橋區大觀路一段29巷131弄4號","121.450585","25.0052983333333","6500100","板橋區"
"220039","288-VK","2017/12/11 14:39:36","新北市板橋區新海路431巷3號","121.457883333333","25.0272916666667","6500100","板橋區"
"220009","293-UM","2017/12/11 14:39:33","新北市板橋區中山路一段265巷16號","121.468673333333","25.0146866666667","6500100","板橋區"
"220032","296-UM","2017/12/11 14:39:41","新北市板橋區板林路168號","121.424735","24.9879","6500100","板橋區"
"220041","299-UM","2017/12/11 14:39:32","新北市板橋區陽明街46-3號","121.465586666667","25.021985","6500100","板橋區"
"220010","305-R5","2017/12/11 14:39:34","新北市板橋區三民路二段81巷29號","121.480535","25.0167466666667","6500100","板橋區"
"220047","317-R6","2017/12/11 14:39:35","新北市板橋區四維路279巷64號","121.46056","25.0275166666667","6500100","板橋區"
"220028","461-BY","2017/12/11 14:39:44","新北市板橋區大觀路二段153巷46弄10號","121.448955","24.999525","6500100","板橋區"
"220012","486-VK","2017/12/11 14:39:44","新北市板橋區中山路一段139-1號","121.462811666667","25.0108866666667","6500100","板橋區"
"220038","487-VK","2017/12/11 14:39:43","新北市板橋區金華街10巷135號","121.460073333333","25.02072","6500100","板橋區"
"220037","491-VK","2017/12/11 14:39:49","新北市板橋區雙十路二段85號","121.475763333333","25.0274333333333","6500100","板橋區"
"220104","560-BX","2017/12/11 14:39:48","新北市板橋區新生街96號","121.458351666667","25.0220483333333","6500100","板橋區"
"220052","561-BX","2017/12/11 14:39:52","新北市板橋區文化路一段286巷2弄2號","121.468488333333","25.0211816666667","6500100","板橋區"
"220023","568-UM","2017/12/11 14:39:48","新北市板橋區中正路253巷58號","121.45352","25.01753","6500100","板橋區"
"220011","609-BX","2017/12/11 14:39:36","新北市板橋區三民路二段201號","121.479123333333","25.0138","6500100","板橋區"
"220040","637-BX","2017/12/11 14:39:41","新北市板橋區懷德街201巷1號","121.480736666667","25.0293783333333","6500100","板橋區"
"220005","686-BX","2017/12/11 14:39:48","新北市板橋區和平路174巷51號","121.465866666667","24.99352","6500100","板橋區"
"220025","687-BX","2017/12/11 14:39:47","新北市板橋區僑中二街52號","121.446668333333","25.0102233333333","6500100","板橋區"
"220042","689-BX","2017/12/11 14:39:46","新北市板橋區新海路366號","121.459536666667","25.0253","6500100","板橋區"
"220002","741-BX","2017/12/11 14:39:44","新北市板橋區忠孝路239巷29號","121.466906666667","25.0034883333333","6500100","板橋區"
"220003","827-TW","2017/12/11 14:39:40","新北市板橋區國慶路149巷21弄8號","121.460573333333","24.9973866666667","6500100","板橋區"
"220014","829-TW","2017/12/11 14:39:50","新北市板橋區長安街255巷42弄5號","121.472701666667","25.011395","6500100","板橋區"
"220045","831-TW","2017/12/11 14:39:44","新北市板橋區民生路二段226巷6弄2號","121.4696","25.021675","6500100","板橋區"
"220022","895-R6","2017/12/11 14:39:47","新北市板橋區府中路29-2號","121.45849","25.0080483333333","6500100","板橋區"
"220021","985-R7","2017/12/11 14:39:44","新北市板橋區瑞安街59號","121.45548","25.0219233333333","6500100","板橋區"
"220046","AAC-210","2017/12/11 14:39:31","新北市板橋區幸福路36號","121.461586666667","25.0202783333333","6500100","板橋區"
"220018","AAC-253","2017/12/11 14:39:48","新北市板橋區民族路113號","121.466923333333","25.00806","6500100","板橋區"
