"lineid","car","time","location","longitude","latitude","cityid","cityname"
"244018","403-UM","2017/12/11 10:54:21","新北市林口區粉寮69號","121.405081666667","25.0907866666667","6501700","林口區"
"244025","837-TS","2017/12/11 09:30:04","新北市林口區粉寮路二段160巷28號","121.405215","25.0907016666667","6501700","林口區"
"231025","0293-UT","2017/12/11 15:29:41","新北市新店區環河路105-12號","121.531893333333","24.970005","6500600","新店區"
"231028","046-UY","2017/12/11 15:29:47","新北市新店區僑信路25號","121.499426666667","24.9511183333333","6500600","新店區"
"231030","047-UY","2017/12/11 15:29:52","新北市新店區新和街54號","121.519741666667","24.9852833333333","6500600","新店區"
"231029","106-UY","2017/12/11 15:29:47","新北市新店區安康路三段525巷43號","121.48164","24.9447583333333","6500600","新店區"
"231018","107-UY","2017/12/11 15:29:49","新北市新店區中央八街110號","121.526046666667","24.977985","6500600","新店區"
"231011","108-UY","2017/12/11 15:29:47","新北市新店區中興路三段228巷28號","121.544828333333","24.983405","6500600","新店區"
"231019","187-VK","2017/12/11 15:29:54","新北市新店區新烏路一段87巷69號","121.545996666667","24.9414333333333","6500600","新店區"
"231014","KEA-2219","2017/12/11 15:29:53","新北市新店區明山路45號","121.563876666667","24.95599","6500600","新店區"
"231026","256-BX","2017/12/11 15:29:47","新北市新店區三民路117巷6弄1號","121.534116666667","24.9711966666667","6500600","新店區"
"231034","268-BY","2017/12/11 15:29:43","新北市新店區富貴街11巷2號","121.494113333333","24.94876","6500600","新店區"
"231023","AAD-862","2017/12/11 15:29:48","新北市新店區北新路一段96巷23號","121.542766666667","24.968745","6500600","新店區"
"231002","355-BY","2017/12/11 15:29:55","新北市新店區環河路114巷2號","121.536133333333","24.964505","6500600","新店區"
"231024","4716-K9","2017/12/11 15:29:45","新北市新店區安康路一段3-1號","121.534691666667","24.9609033333333","6500600","新店區"
"231038","4715-K9","2017/12/11 15:29:42","新北市新店區安康路一段258-1號","121.520536666667","24.964345","6500600","新店區"
"231036","512-UM","2017/12/11 15:29:37","新北市新店區安祥路69巷52弄1號","121.4819","24.9597933333333","6500600","新店區"
"231035","515-UM","2017/12/11 15:29:36","新北市新店區安興路69-1號","121.515763333333","24.9749966666667","6500600","新店區"
"231003","616-UM","2017/12/11 15:29:40","新北市新店區寶高路120巷1號","121.554585","24.975985","6500600","新店區"
"231039","718-UY","2017/12/11 15:29:39","新北市新店區寶元路一段89號","121.543233333333","24.9852233333333","6500600","新店區"
"231031","720-UM","2017/12/11 15:29:47","新北市新店區雙城路36號","121.492005","24.9501766666667","6500600","新店區"
"231005","897-TW","2017/12/11 15:29:54","新北市新店區建國路293巷2號","121.536986666667","24.9857583333333","6500600","新店區"
"231004","899-TW","2017/12/11 15:29:57","新北市新店區民族路105號","121.538401666667","24.9774666666667","6500600","新店區"
"231037","AKT-0513","2017/12/11 15:29:34","新北市新店區安興路112號","121.514658333333","24.9776683333333","6500600","新店區"
"241017","063-VK","2017/12/11 15:29:47","新北市三重區重新路四段121號","121.484798333333","25.051965","6500200","三重區"
"241013","270-UM","2017/12/11 15:29:37","新北市三重區重新路四段121號","121.48482","25.05257","6500200","三重區"
"241031","KEA-2210","2017/12/11 15:29:48","新北市三重區重陽路一段43巷31號","121.487966666667","25.0581366666667","6500200","三重區"
"241033","AAC-255","2017/12/11 15:29:47","新北市三重區重新路五段416號","121.475468333333","25.04757","6500200","三重區"
"235030","003-UY","2017/12/11 15:29:43","新北市中和區保平路362巷13號","121.50574","25.00395","6500300","中和區"
"235035","269-TV","2017/12/11 15:29:52","新北市中和區立德街26巷18弄15號","121.490313333333","25.0082183333333","6500300","中和區"
"235033","4980-A6","2017/12/11 15:29:37","新北市中和區員山路359巷3號","121.48098","25.0019766666667","6500300","中和區"
"235034","558-UM","2017/12/11 15:29:46","新北市中和區中正路424號","121.491645","24.99431","6500300","中和區"
"235001","AAC-213","2017/12/11 15:29:45","新北市五股區成泰路三段358號","121.45103","25.09791","6500300","中和區"
"235023","AAC-215","2017/12/11 15:29:51","新北市中和區員山路36號","121.48288","24.9879466666667","6500300","中和區"
"220051","120-SR","2017/12/11 15:29:57","新北市板橋區民生路二段215號","121.469093333333","25.020915","6500100","板橋區"
"247001","402-BY","2017/12/11 15:29:45","新北市三重區三和路四段390巷61號","121.479256666667","25.0787483333333","6501400","蘆洲區"
"253003","6232-TK","2017/12/11 15:29:37","新北市石門區小坑9號","121.593986666667","25.288685","6502200","石門區"
"253001","6251-TK","2017/12/11 15:29:42","新北市石門區尖子鹿76號","121.571955","25.2968733333333","6502200","石門區"
"253002","637-UY","2017/12/11 15:29:55","新北市石門區海園路37號","121.558201666667","25.2911483333333","6502200","石門區"
"253004","8270-PC","2017/12/11 15:29:53","新北市石門區小坑28-2號","121.59569","25.27862","6502200","石門區"
"208004","AAC-292","2017/12/11 15:29:55","新北市金山區六股里下六股9號","121.626188333333","25.2239766666667","6502700","金山區"
"207001","662-BX","2017/12/11 15:29:38","新北市萬里區龜吼里玉田路4-2號","121.680545","25.1842383333333","6502800","萬里區"
"236064","105-UM","2017/12/11 15:29:44","新北市土城區學士路130號","121.448043333333","24.9779733333333","6501300","土城區"
"236040","107-UM","2017/12/11 15:29:42","新北市土城區學府路一段124-4號","121.455273333333","24.98747","6501300","土城區"
"236074","166-UM","2017/12/11 15:29:20","新北市土城區福安街71-1號","121.4172","24.963855","6501300","土城區"
"236028","253-BX","2017/12/11 15:29:52","新北市土城區中央路一段258號","121.444245","24.98428","6501300","土城區"
"236024","269-VK","2017/12/11 15:29:49","新北市土城區裕生路102巷18號","121.44644","24.98483","6501300","土城區"
"236012","270-VK","2017/12/11 15:29:40","新北市土城區廣興街15號","121.456043333333","24.9916833333333","6501300","土城區"
"236032","271-VK","2017/12/11 15:29:57","新北市土城區明德路一段151號","121.465255","24.9799266666667","6501300","土城區"
"236016","401-BY","2017/12/11 15:29:36","新北市土城區峰廷街3號","121.469203333333","24.9874116666667","6501300","土城區"
"236056","912-UM","2017/12/11 15:29:46","新北市土城區中央路二段162號","121.441926666667","24.9765283333333","6501300","土城區"
"236044","913-UM","2017/12/11 15:29:50","新北市土城區青雲路190號","121.45913","24.9821633333333","6501300","土城區"
"236060","915-UM","2017/12/11 15:29:44","新北市土城區延和路215號","121.469905","24.989865","6501300","土城區"
"236052","AAC-216","2017/12/11 15:29:52","新北市土城區延和路53號","121.466468333333","24.98965","6501300","土城區"
"238002","755-BX","2017/12/11 15:29:43","新北市樹林區復興路196號","121.420043333333","24.99104","6500700","樹林區"
"238010","601-UM","2017/12/11 15:29:53","新北市樹林區中正路442-1號","121.413345","25.0118116666667","6500700","樹林區"
"238006","599-UM","2017/12/11 15:29:56","新北市樹林區太平路123號","121.41927","24.9806416666667","6500700","樹林區"
"238005","571-TV","2017/12/11 15:29:56","新北市樹林區保安街一段20巷15號","121.427728333333","24.9940433333333","6500700","樹林區"
"238011","5061-A6","2017/12/11 15:29:46","新北市樹林區八德街212巷20號","121.415405","24.9733333333333","6500700","樹林區"
"238008","KEA-2217","2017/12/11 15:29:52","新北市樹林區西圳街一段165巷1號","121.395253333333","24.9624116666667","6500700","樹林區"
"238009","KEA-2213","2017/12/11 15:29:58","新北市樹林區信義街9號","121.422478333333","24.98185","6500700","樹林區"
"238004","283-BY","2017/12/11 15:29:46","新北市樹林區保安街二段333巷2號","121.412275","25.0076216666667","6500700","樹林區"
"238001","282-BY","2017/12/11 15:29:43","新北市樹林區大安路11號","121.425031666667","25.0005016666667","6500700","樹林區"
"238007","268-VK","2017/12/11 15:29:50","新北市樹林區俊英街116巷31號","121.428348333333","25.006265","6500700","樹林區"
"238013","172-UY","2017/12/11 15:29:52","新北市樹林區新興街19巷34弄7號","121.40226","24.9732133333333","6500700","樹林區"
"238003","169-UY","2017/12/11 15:29:41","新北市樹林區長壽街6號","121.423818333333","24.9934616666667","6500700","樹林區"
"220050","245-BX","2017/12/11 15:29:39","新北市板橋區漢生東路83巷1號","121.466481666667","25.0160016666667","6500100","板橋區"
"220031","286-VK","2017/12/11 15:29:44","新北市板橋區僑中二街108巷10號","121.445385","25.007375","6500100","板橋區"
"220010","305-R5","2017/12/11 15:29:54","新北市八里區中山路三段409號","121.368508333333","25.1352633333333","6500100","板橋區"
"220038","487-VK","2017/12/11 15:29:57","新北市板橋區四維路137巷1弄1號","121.464895","25.02509","6500100","板橋區"
"220037","491-VK","2017/12/11 15:29:49","新北市五股區中興路三段1-7號","121.452006666667","25.0756683333333","6500100","板橋區"
"220052","561-BX","2017/12/11 15:29:52","新北市板橋區漢生東路23巷56弄12號","121.466403333333","25.018115","6500100","板橋區"
"220011","609-BX","2017/12/11 15:29:53","新北市板橋區中山路二段91號","121.474193333333","25.01593","6500100","板橋區"
"220042","689-BX","2017/12/11 15:29:46","新北市板橋區長江路一段104號","121.459608333333","25.0296283333333","6500100","板橋區"
"220003","827-TW","2017/12/11 15:28:20","新北市五股區中直路21號","121.421033333333","25.11211","6500100","板橋區"
