"lineid","car","time","location","longitude","latitude","cityid","cityname"
"244018","403-UM","2017/12/11 10:54:21","新北市林口區粉寮69號","121.405081666667","25.0907866666667","6501700","林口區"
"244025","837-TS","2017/12/11 09:30:04","新北市林口區粉寮路二段160巷28號","121.405215","25.0907016666667","6501700","林口區"
"243009","KEA-2216","2017/12/11 15:41:35","新北市泰山區黎明路25號","121.421955","25.0608133333333","6501600","泰山區"
"231030","047-UY","2017/12/11 15:59:32","新北市新店區永平街14號","121.516948333333","24.9835283333333","6500600","新店區"
"231018","107-UY","2017/12/11 15:59:29","新北市新店區中正路663巷7弄15號","121.532951666667","24.9901033333333","6500600","新店區"
"231011","108-UY","2017/12/11 15:59:47","新北市新店區中央路129號","121.530573333333","24.9740916666667","6500600","新店區"
"231019","187-VK","2017/12/11 15:59:35","新北市新店區安和路一段1號","121.516818333333","24.9638933333333","6500600","新店區"
"231014","KEA-2219","2017/12/11 15:59:33","新北市新店區中華路74號","121.538576666667","24.970755","6500600","新店區"
"231034","268-BY","2017/12/11 15:59:43","新北市新店區吉祥街5巷1號","121.497273333333","24.9478816666667","6500600","新店區"
"231046","278-BY","2017/12/11 15:59:47","新北市新店區安華路28-1號","121.519576666667","24.9611316666667","6500600","新店區"
"231038","4715-K9","2017/12/11 15:59:42","新北市新店區安康路二段205巷3號","121.50926","24.9586183333333","6500600","新店區"
"231035","515-UM","2017/12/11 15:59:36","新北市新店區安民街231號","121.51669","24.9725183333333","6500600","新店區"
"231013","719-UM","2017/12/11 15:59:43","新北市新店區安康路一段61號","121.530605","24.9608116666667","6500600","新店區"
"231037","AKT-0513","2017/12/11 15:59:34","新北市新店區安民街72號","121.516595","24.9665833333333","6500600","新店區"
"241011","013-R5","2017/12/11 15:59:36","新北市三重區雙園街11號","121.496695","25.0680033333333","6500200","三重區"
"241008","059-VK","2017/12/11 15:59:41","新北市三重區重新路四段121號","121.484866666667","25.0511633333333","6500200","三重區"
"241015","062-VK","2017/12/11 15:59:45","新北市三重區重新路四段121號","121.485061666667","25.0520416666667","6500200","三重區"
"241017","063-VK","2017/12/11 15:59:47","新北市三重區大仁街48巷15號","121.491358333333","25.0645816666667","6500200","三重區"
"241026","066-VK","2017/12/11 15:59:44","新北市三重區光興街107號","121.497023333333","25.0599083333333","6500200","三重區"
"241003","091-VK","2017/12/11 15:59:34","新北市三重區自強路五段100號","121.49678","25.0836566666667","6500200","三重區"
"241019","156-TC","2017/12/11 15:59:38","新北市三重區重陽路三段188號","121.49018","25.06828","6500200","三重區"
"241005","262-UM","2017/12/11 15:59:35","新北市三重區五華街170號","121.489076666667","25.086165","6500200","三重區"
"241024","265-UM","2017/12/11 15:59:43","新北市三重區中正北路210號","121.482501666667","25.0674283333333","6500200","三重區"
"241016","266-UM","2017/12/11 15:59:49","新北市三重區重新路四段121號","121.484923333333","25.0520166666667","6500200","三重區"
"241022","267-UM","2017/12/11 15:59:43","新北市三重區忠孝路三段40巷40號","121.482781666667","25.0658266666667","6500200","三重區"
"241018","268-UM","2017/12/11 15:59:38","新北市三重區中正北路27號","121.492051666667","25.0623116666667","6500200","三重區"
"241013","270-UM","2017/12/11 15:59:37","新北市三重區三和路三段18號","121.496805","25.07023","6500200","三重區"
"241025","271-UM","2017/12/11 15:59:43","新北市三重區三民街197號","121.482011666667","25.0657966666667","6500200","三重區"
"241007","398-BY","2017/12/11 15:59:40","新北市三重區力行路二段7號","121.48198","25.072135","6500200","三重區"
"241031","KEA-2210","2017/12/11 15:59:48","新北市三重區重新路四段121號","121.48471","25.05224","6500200","三重區"
"241020","413-TH","2017/12/11 15:59:41","新北市三重區忠孝路二段85號","121.484501666667","25.0701766666667","6500200","三重區"
"241004","475-VK","2017/12/11 15:59:46","新北市三重區環河南路35號","121.503108333333","25.0610533333333","6500200","三重區"
"241030","480-VK","2017/12/11 15:59:36","新北市三重區重新路四段121號","121.484678333333","25.0525483333333","6500200","三重區"
"241014","543-UM","2017/12/11 15:59:34","新北市三重區重新路四段121號","121.485025","25.0521483333333","6500200","三重區"
"241023","545-UM","2017/12/11 15:59:47","新北市三重區中正北路119號","121.483346666667","25.0669616666667","6500200","三重區"
"241001","547-UM","2017/12/11 15:59:33","新北市三重區忠孝路三段54號","121.480626666667","25.0655583333333","6500200","三重區"
"241006","AAD-863","2017/12/11 15:59:50","新北市三重區新北大道一段250號","121.479871666667","25.0613966666667","6500200","三重區"
"241028","887-TS","2017/12/11 15:59:45","新北市三重區大同南路117巷3-1號","121.4957","25.0583366666667","6500200","三重區"
"241012","941-UM","2017/12/11 15:59:30","新北市三重區文化北路118巷53號","121.497438333333","25.066325","6500200","三重區"
"241029","942-UM","2017/12/11 15:59:49","新北市三重區大同南路212巷2號","121.49702","25.056555","6500200","三重區"
"241033","AAC-255","2017/12/11 15:59:47","新北市三重區重新路五段440號","121.474801666667","25.04735","6500200","三重區"
"235026","800-TS","2017/12/11 15:59:37","新北市中和區永和路191巷5號","121.491488333333","25.0069966666667","6500300","中和區"
"235001","AAC-213","2017/12/11 15:59:45","新北市八里區中山路三段409號","121.36876","25.1342133333333","6500300","中和區"
"247001","402-BY","2017/12/11 15:59:45","新北市八里區荖阡坑路41-3號","121.399821666667","25.1326283333333","6501400","蘆洲區"
"224007","273-VK","2017/12/11 15:59:31","新北市瑞芳區粗坑口路1巷1-1號","121.761986666667","25.0970966666667","6501200","瑞芳區"
"224005","271-BY","2017/12/11 15:59:18","新北市瑞芳區中山路198號","121.801243333333","25.1067716666667","6501200","瑞芳區"
"227001","642-TC","2017/12/11 15:59:37","新北市雙溪區平林里外平林71號","121.842011666667","25.0348766666667","6502500","雙溪區"
"227008","400-TW","2017/12/11 15:59:47","新北市雙溪區三港里雙澳路26號","121.869565","25.04833","6502500","雙溪區"
"251008","181-VK","2017/12/11 15:59:38","新北市淡水區中正路二段31號","121.419321666667","25.1817683333333","6501000","淡水區"
"236074","166-UM","2017/12/11 15:49:00","新北市土城區民權街17號","121.415056666667","24.96383","6501300","土城區"
"236016","401-BY","2017/12/11 15:59:36","新北市土城區金城路三段221號","121.470813333333","24.9894666666667","6501300","土城區"
"236056","912-UM","2017/12/11 15:59:46","新北市土城區中央路二段257號","121.439968333333","24.9713766666667","6501300","土城區"
"236047","970-R7","2017/12/11 15:59:41","新北市土城區和平路24號","121.443146666667","24.973125","6501300","土城區"
"238002","755-BX","2017/12/11 15:59:43","新北市樹林區啟智街80巷24號","121.418571666667","24.9925566666667","6500700","樹林區"
"238010","601-UM","2017/12/11 15:59:34","新北市樹林區龍興街59巷6號","121.403663333333","25.0152783333333","6500700","樹林區"
"238006","599-UM","2017/12/11 15:59:33","新北市樹林區水源街32巷72號","121.425013333333","24.9802","6500700","樹林區"
"238005","571-TV","2017/12/11 15:59:46","新北市樹林區鎮前街58號","121.425865","24.992645","6500700","樹林區"
"238011","5061-A6","2017/12/11 15:59:51","新北市樹林區山佳街39號","121.39333","24.9727083333333","6500700","樹林區"
"238008","KEA-2217","2017/12/11 15:59:47","新北市樹林區柑園街二段149巷27號","121.382936666667","24.9531516666667","6500700","樹林區"
"238009","KEA-2213","2017/12/11 15:59:38","新北市樹林區太平路96號","121.418568333333","24.9794","6500700","樹林區"
"238004","283-BY","2017/12/11 15:59:46","新北市樹林區保安街二段167巷8號","121.414683333333","25.0029016666667","6500700","樹林區"
"238001","282-BY","2017/12/11 15:59:43","新北市樹林區保安二街64巷1弄2號","121.424221666667","24.99554","6500700","樹林區"
"238007","268-VK","2017/12/11 15:59:50","新北市樹林區三俊街145號","121.418523333333","25.0155933333333","6500700","樹林區"
"238013","172-UY","2017/12/11 15:59:33","新北市樹林區佳園路一段88號","121.39345","24.9694616666667","6500700","樹林區"
"238003","169-UY","2017/12/11 15:59:41","新北市樹林區復興路295巷20弄7號","121.419148333333","24.9884083333333","6500700","樹林區"
"220010","305-R5","2017/12/11 15:59:34","新北市五股區新五路二段372巷20號","121.447721666667","25.0862533333333","6500100","板橋區"
"220037","491-VK","2017/12/11 15:59:49","新北市八里區中山路三段409號","121.368728333333","25.134365","6500100","板橋區"
