"lineid","car","time","location","longitude","latitude","cityid","cityname"
"244018","403-UM","2017/12/11 10:54:21","新北市林口區粉寮69號","121.405081666667","25.0907866666667","6501700","林口區"
"244025","837-TS","2017/12/11 09:30:04","新北市林口區粉寮路二段160巷28號","121.405215","25.0907016666667","6501700","林口區"
"243009","KEA-2216","2017/12/11 15:41:35","新北市泰山區黎明路25號","121.421955","25.0608133333333","6501600","泰山區"
"231030","047-UY","2017/12/11 16:09:32","新北市新店區柴埕路47號","121.514201666667","24.9652366666667","6500600","新店區"
"231018","107-UY","2017/12/11 16:09:29","新北市新店區中正路700巷26號","121.535395","24.990955","6500600","新店區"
"231034","268-BY","2017/12/11 16:09:43","新北市新店區富貴街18巷16號","121.493306666667","24.9481233333333","6500600","新店區"
"231046","278-BY","2017/12/11 16:09:48","新北市新店區永業路69號","121.530953333333","24.9514483333333","6500600","新店區"
"241011","013-R5","2017/12/11 16:09:36","新北市三重區正義北路374號","121.493473333333","25.0715016666667","6500200","三重區"
"241008","059-VK","2017/12/11 16:09:41","新北市三重區力行路二段122-1號","121.482236666667","25.0752716666667","6500200","三重區"
"241015","062-VK","2017/12/11 16:09:45","新北市三重區正義南路183號","121.499186666667","25.0565366666667","6500200","三重區"
"241017","063-VK","2017/12/11 16:09:34","新北市三重區民生街80號","121.490513333333","25.0646083333333","6500200","三重區"
"241026","066-VK","2017/12/11 16:09:44","新北市三重區重新路二段79號","121.497403333333","25.0614783333333","6500200","三重區"
"241002","090-VK","2017/12/11 16:09:31","新北市三重區仁義街91號","121.499708333333","25.07974","6500200","三重區"
"241003","091-VK","2017/12/11 16:09:34","新北市三重區自強路五段102號","121.496765","25.0835966666667","6500200","三重區"
"241019","156-TC","2017/12/11 16:09:38","新北市三重區重陽路三段184號","121.490141666667","25.0682066666667","6500200","三重區"
"241005","262-UM","2017/12/11 16:09:35","新北市三重區溪尾街300-2號","121.487485","25.083735","6500200","三重區"
"241024","265-UM","2017/12/11 16:09:43","新北市三重區中正北路145巷9弄18號","121.485703333333","25.0676183333333","6500200","三重區"
"241016","266-UM","2017/12/11 16:09:29","新北市三重區新北大道一段8號","121.488618333333","25.0614116666667","6500200","三重區"
"241022","267-UM","2017/12/11 16:09:42","新北市三重區重陽路二段72號","121.487395","25.0641016666667","6500200","三重區"
"241018","268-UM","2017/12/11 16:09:44","新北市三重區明志街55號","121.49139","25.0639616666667","6500200","三重區"
"241013","270-UM","2017/12/11 16:09:37","新北市三重區三和路三段8號","121.497343333333","25.0702416666667","6500200","三重區"
"241025","271-UM","2017/12/11 16:09:43","新北市三重區中正北路206號","121.482435","25.067235","6500200","三重區"
"241007","398-BY","2017/12/11 16:09:40","新北市三重區慈愛街10號","121.484523333333","25.0784233333333","6500200","三重區"
"241031","KEA-2210","2017/12/11 16:09:28","新北市三重區重新路四段121號","121.484598333333","25.0522583333333","6500200","三重區"
"241020","413-TH","2017/12/11 16:09:41","新北市三重區三張街272號","121.483828333333","25.071265","6500200","三重區"
"241004","475-VK","2017/12/11 16:09:26","新北市三重區仁愛街377巷134號","121.493691666667","25.08178","6500200","三重區"
"241030","480-VK","2017/12/11 16:09:36","新北市三重區重新路四段121號","121.484708333333","25.05251","6500200","三重區"
"241014","543-UM","2017/12/11 16:09:34","新北市三重區環河南路100號","121.500146666667","25.0572866666667","6500200","三重區"
"241023","545-UM","2017/12/11 16:09:27","新北市三重區力行路一段62號","121.484416666667","25.0693066666667","6500200","三重區"
"241001","547-UM","2017/12/11 16:09:33","新北市三重區三和路四段156號","121.488188333333","25.07579","6500200","三重區"
"241006","AAD-863","2017/12/11 16:09:30","新北市三重區力行路二段182-3號","121.483441666667","25.0774266666667","6500200","三重區"
"241028","887-TS","2017/12/11 16:09:26","新北市三重區正義南路107號","121.498288333333","25.0585983333333","6500200","三重區"
"241012","941-UM","2017/12/11 16:09:30","新北市三重區自強路一段68號","121.497053333333","25.0664683333333","6500200","三重區"
"241029","942-UM","2017/12/11 16:09:29","新北市三重區同安街36號","121.496026666667","25.05673","6500200","三重區"
"241033","AAC-255","2017/12/11 16:09:47","新北市三重區五谷王南街46巷25號","121.47525","25.0451516666667","6500200","三重區"
"235026","800-TS","2017/12/11 16:09:37","新北市中和區中山路二段332巷9號","121.494283333333","25.0026766666667","6500300","中和區"
"235001","AAC-213","2017/12/11 16:09:45","新北市八里區中山路三段409號","121.368561666667","25.134815","6500300","中和區"
"247001","402-BY","2017/12/11 16:09:45","新北市林口區汕頭32號","121.366303333333","25.134805","6501400","蘆洲區"
"224007","273-VK","2017/12/11 16:09:31","新北市瑞芳區粗坑口路50-1號","121.762138333333","25.0990983333333","6501200","瑞芳區"
"224005","271-BY","2017/12/11 16:09:44","新北市瑞芳區明燈路二段66號","121.80932","25.1076283333333","6501200","瑞芳區"
"227001","642-TC","2017/12/11 16:09:35","新北市雙溪區上林里內平林47號","121.833316666667","25.030425","6502500","雙溪區"
"227008","400-TW","2017/12/11 16:09:27","新北市雙溪區三港里雙澳路70-1號","121.88145","25.0543883333333","6502500","雙溪區"
"251008","181-VK","2017/12/11 16:09:38","新北市淡水區文化路1號","121.440295","25.1722833333333","6501000","淡水區"
"236056","912-UM","2017/12/11 16:09:46","新北市土城區大安路101-5號","121.43344","24.9684333333333","6501300","土城區"
"236047","970-R7","2017/12/11 16:09:41","新北市土城區和平路28號","121.44311","24.972445","6501300","土城區"
"238002","755-BX","2017/12/11 16:09:43","新北市樹林區啟智街82巷5號","121.41869","24.9910383333333","6500700","樹林區"
"238010","601-UM","2017/12/11 16:09:45","新北市樹林區福興街25號","121.404433333333","25.0160433333333","6500700","樹林區"
"238006","599-UM","2017/12/11 16:09:33","新北市樹林區八德街86號","121.419915","24.981285","6500700","樹林區"
"238005","571-TV","2017/12/11 16:09:42","新北市樹林區博愛街107號","121.426413333333","24.991155","6500700","樹林區"
"238011","5061-A6","2017/12/11 16:09:26","新北市樹林區育德街76巷2號","121.389085","24.968615","6500700","樹林區"
"238009","KEA-2213","2017/12/11 16:09:38","新北市樹林區八德街263-1號","121.419266666667","24.9738233333333","6500700","樹林區"
"238004","283-BY","2017/12/11 16:09:26","新北市樹林區中正路433-1號","121.414871666667","25.0081516666667","6500700","樹林區"
"238001","282-BY","2017/12/11 16:09:43","新北市樹林區千歲街63-8號","121.426738333333","24.998255","6500700","樹林區"
"238007","268-VK","2017/12/11 16:09:30","新北市樹林區三龍街124號","121.415901666667","25.0184816666667","6500700","樹林區"
"238013","172-UY","2017/12/11 16:09:40","新北市樹林區八德街610號","121.39726","24.97006","6500700","樹林區"
"238003","169-UY","2017/12/11 16:09:41","新北市樹林區復興路335巷10號","121.418465","24.9874516666667","6500700","樹林區"
"220010","305-R5","2017/12/11 16:09:34","新北市板橋區民生路二段56-6號","121.471005","25.0189266666667","6500100","板橋區"
"220037","491-VK","2017/12/11 16:09:09","新北市林口區太平里180號","121.368026666667","25.134905","6500100","板橋區"
