"lineid","car","time","location","longitude","latitude","cityid","cityname"
"249005","172-UM","2017/12/11 16:59:43","新北市八里區渡船頭1-1號","121.434193333333","25.1522233333333","6502300","八里區"
"249001","173-UM","2017/12/11 16:59:32","新北市八里區下罟子1-11號","121.389903333333","25.1421066666667","6502300","八里區"
"249004","303-UY","2017/12/11 16:59:37","新北市八里區挖子尾街40號","121.415665","25.165955","6502300","八里區"
"249002","305-UY","2017/12/11 16:59:46","新北市八里區牛寮埔10號","121.433113333333","25.142415","6502300","八里區"
"249003","759-BX","2017/12/11 16:59:47","新北市八里區中山路二段303巷2號","121.400928333333","25.1479366666667","6502300","八里區"
"244007","080-UY","2017/12/11 16:59:44","新北市林口區中湖43-5號","121.38176","25.0923666666667","6501700","林口區"
"244019","403-UM","2017/12/11 16:59:35","新北市林口區粉寮路一段105號","121.39799","25.0803516666667","6501700","林口區"
"244023","483-VK","2017/12/11 16:59:46","新北市林口區粉寮路二段160巷28號","121.405136666667","25.0907783333333","6501700","林口區"
"244025","837-TS","2017/12/11 16:59:35","新北市林口區粉寮路二段160巷28號","121.40519","25.090775","6501700","林口區"
"244021","838-TS","2017/12/11 16:59:37","新北市林口區粉寮69號","121.404851666667","25.09081","6501700","林口區"
"243009","KEA-2216","2017/12/11 15:41:35","新北市泰山區黎明路25號","121.421955","25.0608133333333","6501600","泰山區"
"231046","278-BY","2017/12/11 16:59:47","新北市新店區灣潭路48-5號","121.541936666667","24.9444466666667","6500600","新店區"
"241011","013-R5","2017/12/11 16:59:36","新北市三重區龍門路211號","121.50018","25.073205","6500200","三重區"
"241008","059-VK","2017/12/11 16:59:41","新北市三重區永福街179巷3號","121.478653333333","25.0750066666667","6500200","三重區"
"241009","060-VK","2017/12/11 16:59:44","新北市三重區溪尾街218巷56號","121.48596","25.08082","6500200","三重區"
"241015","062-VK","2017/12/11 16:59:45","新北市三重區三和路二段1-4號","121.501563333333","25.066585","6500200","三重區"
"241017","063-VK","2017/12/11 16:59:47","新北市三重區國隆路10號","121.493201666667","25.0638033333333","6500200","三重區"
"241026","066-VK","2017/12/11 16:59:43","新北市三重區中央南路95巷25-3號","121.500403333333","25.0607183333333","6500200","三重區"
"241002","090-VK","2017/12/11 16:59:31","新北市三重區仁義街101巷6號","121.49825","25.079975","6500200","三重區"
"241003","091-VK","2017/12/11 16:59:34","新北市三重區五華街141巷57號","121.493531666667","25.0864583333333","6500200","三重區"
"241019","156-TC","2017/12/11 16:59:38","新北市三重區自強路二段74巷19號","121.48804","25.06993","6500200","三重區"
"241005","262-UM","2017/12/11 16:59:35","新北市三重區碧華街112巷20號","121.484223333333","25.08242","6500200","三重區"
"241024","265-UM","2017/12/11 16:59:43","新北市三重區力行路二段30巷46弄2號","121.479696666667","25.0729316666667","6500200","三重區"
"241016","266-UM","2017/12/11 16:59:49","新北市三重區大智街12號","121.49531","25.06461","6500200","三重區"
"241022","267-UM","2017/12/11 16:59:42","新北市三重區中華路77號","121.48385","25.0626233333333","6500200","三重區"
"241018","268-UM","2017/12/11 16:59:38","新北市三重區六張街126巷6號","121.492291666667","25.068995","6500200","三重區"
"241032","269-UM","2017/12/11 16:59:42","新北市三重區三民街7號","121.485705","25.0606566666667","6500200","三重區"
"241013","270-UM","2017/12/11 16:59:37","新北市三重區仁昌街63號","121.498613333333","25.0746216666667","6500200","三重區"
"241025","271-UM","2017/12/11 16:59:43","新北市三重區中正北路508巷5號","121.472576666667","25.0713283333333","6500200","三重區"
"241007","398-BY","2017/12/11 16:59:40","新北市三重區溪尾街136號","121.489238333333","25.0795516666667","6500200","三重區"
"241031","KEA-2210","2017/12/11 16:59:48","新北市三重區三寧街25號","121.4898","25.0599766666667","6500200","三重區"
"241020","413-TH","2017/12/11 16:59:41","新北市三重區後竹圍街175巷20號","121.485605","25.072665","6500200","三重區"
"241004","475-VK","2017/12/11 16:59:45","新北市三重區仁愛街397巷116號","121.492988333333","25.0823366666667","6500200","三重區"
"241030","480-VK","2017/12/11 16:59:36","新北市三重區昌隆街60號","121.49119","25.051145","6500200","三重區"
"241014","543-UM","2017/12/11 16:59:34","新北市三重區介壽路189號","121.50143","25.0708333333333","6500200","三重區"
"241023","545-UM","2017/12/11 16:59:47","新北市三重區忠孝路三段84巷1號","121.48023","25.0644983333333","6500200","三重區"
"241001","547-UM","2017/12/11 16:59:33","新北市三重區仁政街9號","121.493376666667","25.0763533333333","6500200","三重區"
"241006","AAD-863","2017/12/11 16:59:30","新北市三重區車路頭街117巷50號","121.485408333333","25.0756766666667","6500200","三重區"
"241028","887-TS","2017/12/11 16:59:45","新北市三重區中正南路48號","121.493896666667","25.059925","6500200","三重區"
"241012","941-UM","2017/12/11 16:59:50","新北市三重區仁和街78號","121.499106666667","25.07451","6500200","三重區"
"241029","942-UM","2017/12/11 16:59:29","新北市三重區重安街83號","121.492585","25.0557783333333","6500200","三重區"
"241033","AAC-255","2017/12/11 16:59:47","新北市三重區中興北街214號","121.469026666667","25.0594133333333","6500200","三重區"
"247022","893-R6","2017/12/11 16:59:40","新北市蘆洲區三民路128巷166-1號","121.468378333333","25.0925233333333","6501400","蘆洲區"
"247020","500-BY","2017/12/11 16:59:48","新北市蘆洲區民族路426巷40弄11號","121.47355","25.0932383333333","6501400","蘆洲區"
"247001","402-BY","2017/12/11 16:59:45","新北市五股區新五路二段258號","121.441008333333","25.08176","6501400","蘆洲區"
"247008","341-TH","2017/12/11 16:59:34","新北市蘆洲區信義路59巷2號","121.475468333333","25.0799583333333","6501400","蘆洲區"
"247010","339-TH","2017/12/11 16:59:34","新北市蘆洲區信義路170號","121.479321666667","25.0838633333333","6501400","蘆洲區"
"247002","337-TH","2017/12/11 16:59:32","新北市蘆洲區永平街20號","121.459121666667","25.0906483333333","6501400","蘆洲區"
"247004","336-TH","2017/12/11 16:59:44","新北市蘆洲區長安街193巷27號","121.459635","25.0813833333333","6501400","蘆洲區"
"247016","057-VK","2017/12/11 16:59:35","新北市蘆洲區正和街7號","121.470371666667","25.082665","6501400","蘆洲區"
"247006","056-VK","2017/12/11 16:59:47","新北市蘆洲區長安街111巷29號","121.460603333333","25.0801166666667","6501400","蘆洲區"
"247014","007-UY","2017/12/11 16:59:31","新北市蘆洲區中央路20巷14號","121.47411","25.0828116666667","6501400","蘆洲區"
"247024","002-UY","2017/12/11 16:59:49","新北市蘆洲區長興路245號","121.460528333333","25.0874016666667","6501400","蘆洲區"
"247018","001-UY","2017/12/11 16:59:41","新北市蘆洲區民族路304號","121.477625","25.0900066666667","6501400","蘆洲區"
"228003","097-TW","2017/12/11 16:59:38","新北市貢寮區福隆里興隆街21-2號","121.933413333333","25.018855","6502600","貢寮區"
"228002","585-TW","2017/12/11 16:59:38","新北市貢寮區貢寮里朝陽街142號","121.906631666667","25.022775","6502600","貢寮區"
"224010","AGQ-8101","2017/12/11 11:12:23","新北市瑞芳區逢甲路17號","121.809465","25.1083133333333","6501200","瑞芳區"
"224006","676-BX","2017/12/11 16:59:46","新北市瑞芳區大寮路356-1號","121.784965","25.10329","6501200","瑞芳區"
"224009","285-BY","2017/12/11 16:59:46","新北市瑞芳區濱二路21號","121.83719","25.1136616666667","6501200","瑞芳區"
"224008","275-VK","2017/12/11 16:59:44","新北市瑞芳區明燈路一段183號","121.819053333333","25.10775","6501200","瑞芳區"
"224007","273-VK","2017/12/11 16:59:51","新北市瑞芳區瑞竹路40號","121.76399","25.1033783333333","6501200","瑞芳區"
"224005","271-BY","2017/12/11 16:59:44","新北市瑞芳區明里路3-1號","121.868748333333","25.1207783333333","6501200","瑞芳區"
"227001","642-TC","2017/12/11 16:59:35","新北市雙溪區長源里柑腳41-2號","121.801818333333","25.0127033333333","6502500","雙溪區"
"227008","400-TW","2017/12/11 16:59:47","新北市雙溪區牡丹里聖南14號","121.858428333333","25.0527516666667","6502500","雙溪區"
"251009","008-UM","2017/12/11 16:59:32","新北市淡水區中正路二段22巷3號","121.419866666667","25.1815283333333","6501000","淡水區"
"251004","009-UM","2017/12/11 16:59:36","新北市淡水區中正路二段31號","121.419343333333","25.1817816666667","6501000","淡水區"
"251005","010-UM","2017/12/11 16:59:28","新北市淡水區文化路61號","121.43834","25.1728416666667","6501000","淡水區"
"251007","179-VK","2017/12/11 16:59:29","新北市淡水區中山路21號","121.444135","25.1699633333333","6501000","淡水區"
"251008","181-VK","2017/12/11 16:59:38","新北市淡水區樹梅坑9號","121.472725","25.1426766666667","6501000","淡水區"
"251013","182-VK","2017/12/11 16:59:50","新北市淡水區泉洲厝32號","121.489365","25.1926266666667","6501000","淡水區"
"251010","413-VK","2017/12/11 16:59:38","新北市淡水區沙崙路337號","121.427796666667","25.1877766666667","6501000","淡水區"
"251012","441-VK","2017/12/11 16:59:48","新北市淡水區沙崙路1號","121.42038","25.1808","6501000","淡水區"
"251015","442-VK","2017/12/11 16:59:50","新北市淡水區忠愛街16號","121.458191666667","25.17468","6501000","淡水區"
"251011","650-BX","2017/12/11 16:59:38","新北市淡水區中山路13號","121.444193333333","25.1698566666667","6501000","淡水區"
"252002","178-VK","2017/12/11 16:59:47","新北市三芝區忠孝街171號","121.505446666667","25.2613733333333","6502100","三芝區"
"252001","292-VK","2017/12/11 16:59:43","新北市三芝區淡金路二段47-2號","121.503693333333","25.26063","6502100","三芝區"
"242050","751-BX","2017/12/11 16:59:34","新北市新莊區新泰路357巷3弄57號","121.442013333333","25.0392216666667","6500500","新莊區"
"242023","613-BX","2017/12/11 16:59:36","新北市新莊區新泰路255巷83號","121.442056666667","25.039005","6500500","新莊區"
"242027","612-BX","2017/12/11 16:59:39","新北市新莊區新泰路357巷3弄57號","121.442108333333","25.0391683333333","6500500","新莊區"
"242039","566-BX","2017/12/11 10:57:14","新北市新莊區三和路12-21號","121.441796666667","25.0388116666667","6500500","新莊區"
"242044","497-BY","2017/12/11 16:59:44","新北市新莊區新泰路357巷3弄57號","121.442161666667","25.03934","6500500","新莊區"
"242013","442-UM","2017/12/11 10:18:34","新北市新莊區三和路12-21號","121.441888333333","25.0388883333333","6500500","新莊區"
"242048","441-UM","2017/12/11 16:59:44","新北市新莊區三和路12-21號","121.442108333333","25.038225","6500500","新莊區"
"242053","440-UM","2017/12/11 10:24:42","新北市新莊區新泰路357巷3弄57號","121.442166666667","25.0393916666667","6500500","新莊區"
"242034","415-TV","2017/12/11 10:57:47","新北市新莊區三和路18-25號","121.441553333333","25.039125","6500500","新莊區"
"242004","413-TV","2017/12/11 16:59:48","新北市新莊區新泰路357巷3弄57號","121.441795","25.0394416666667","6500500","新莊區"
"242042","400-BY","2017/12/11 16:59:33","新北市新莊區新泰路357巷3弄57號","121.44217","25.0395666666667","6500500","新莊區"
"242060","362-BY","2017/12/11 16:59:31","新北市新莊區三和路12-21號","121.442166666667","25.0386433333333","6500500","新莊區"
"242036","133-UY","2017/12/11 16:59:35","新北市新莊區三和路12-21號","121.441875","25.0388516666667","6500500","新莊區"
"242021","135-UY","2017/12/11 10:55:46","新北市新莊區三和路12-21號","121.44199","25.0385466666667","6500500","新莊區"
"242046","172-VK","2017/12/11 10:33:35","新北市新莊區三和路12-21號","121.442083333333","25.0388","6500500","新莊區"
"242009","173-VK","2017/12/11 10:58:45","新北市新莊區三和路12-21號","121.44208","25.0385716666667","6500500","新莊區"
"242015","175-VK","2017/12/11 16:59:45","新北市新莊區三和路12-21號","121.44188","25.0387383333333","6500500","新莊區"
"242019","348-TH","2017/12/11 16:59:34","新北市新莊區新泰路357巷3弄57號","121.442051666667","25.0393883333333","6500500","新莊區"
"242017","350-TH","2017/12/11 16:59:47","新北市新莊區新泰路255巷83號","121.44207","25.0389716666667","6500500","新莊區"
"242011","351-TH","2017/12/11 16:59:43","新北市新莊區新泰路357巷3弄57號","121.442083333333","25.039655","6500500","新莊區"
"238025","303-VK","2017/12/11 16:59:44","新北市樹林區中正路22-1號","121.42784","24.9992966666667","6500700","樹林區"
"238004","283-BY","2017/12/11 16:59:46","新北市樹林區中正路433-1號","121.414786666667","25.0081416666667","6500700","樹林區"
"238001","282-BY","2017/12/11 16:59:43","新北市樹林區中正路22-1號","121.427818333333","24.999685","6500700","樹林區"
"238020","268-VK","2017/12/11 16:59:50","新北市樹林區大安路325號","121.417285","24.9916133333333","6500700","樹林區"
"239007","AAC-297","2017/12/11 16:59:13","新北市鶯歌區二甲路13-16號","121.344948333333","24.93501","6500800","鶯歌區"
"239006","891-R6","2017/12/11 10:44:15","新北市鶯歌區二甲路13號","121.34433","24.935235","6500800","鶯歌區"
"239008","527-UM","2017/12/11 16:59:36","新北市鶯歌區二甲路13-16號","121.345258333333","24.934975","6500800","鶯歌區"
"239005","526-UM","2017/12/11 16:52:42","新北市鶯歌區二甲路171-1號","121.344211666667","24.9358883333333","6500800","鶯歌區"
"239001","417-VK","2017/12/11 10:48:54","新北市鶯歌區二甲路171-1號","121.344661666667","24.9357583333333","6500800","鶯歌區"
"239003","360-BY","2017/12/11 16:59:40","新北市鶯歌區二甲路12-2號","121.345516666667","24.935065","6500800","鶯歌區"
"239002","359-BY","2017/12/11 11:19:37","新北市鶯歌區二甲路171-1號","121.343611666667","24.9356766666667","6500800","鶯歌區"
"239006","292-BY","2017/12/11 10:40:01","新北市鶯歌區二甲路171-1號","121.344013333333","24.935545","6500800","鶯歌區"
"239004","193-VK","2017/12/11 11:06:57","新北市鶯歌區二甲路13號","121.343991666667","24.9354933333333","6500800","鶯歌區"
"242002","280-VK","2017/12/11 16:59:49","新北市新莊區三和路12-21號","121.441973333333","25.038295","6500500","新莊區"
