"lineid","car","time","location","longitude","latitude","cityid","cityname"
"249005","172-UM","2017/12/11 17:29:43","新北市八里區荖阡里40號","121.409581666667","25.124875","6502300","八里區"
"249001","173-UM","2017/12/11 17:29:52","新北市八里區中華路一段1號","121.423316666667","25.1586266666667","6502300","八里區"
"249004","303-UY","2017/12/11 17:29:37","新北市八里區民治街173號","121.413445","25.1565666666667","6502300","八里區"
"249002","305-UY","2017/12/11 17:29:46","新北市八里區龍米路二段56號","121.448076666667","25.14071","6502300","八里區"
"249003","759-BX","2017/12/11 17:29:35","新北市八里區中山路二段315號","121.40063","25.1477933333333","6502300","八里區"
"244013","069-UM","2017/12/11 17:29:43","新北市林口區粉寮路60-16號","121.404278333333","25.09005","6501700","林口區"
"244007","080-UY","2017/12/11 17:29:44","新北市林口區湖北里7號","121.38914","25.0923783333333","6501700","林口區"
"244019","403-UM","2017/12/11 17:29:55","新北市林口區文化二路一段539號","121.37408","25.0765533333333","6501700","林口區"
"244009","410-SL","2017/12/11 17:29:52","新北市林口區中北一街46號","121.385963333333","25.0877833333333","6501700","林口區"
"244023","483-VK","2017/12/11 17:29:46","新北市林口區東湖路2號","121.389366666667","25.0741166666667","6501700","林口區"
"244017","485-VK","2017/12/11 17:29:51","新北市林口區粉寮路一段149-5號","121.399515","25.0816166666667","6501700","林口區"
"244011","701-TV","2017/12/11 17:29:48","新北市林口區仁愛路一段384號","121.387676666667","25.0768783333333","6501700","林口區"
"244025","837-TS","2017/12/11 17:29:35","新北市林口區民族路67-1號","121.365491666667","25.0751233333333","6501700","林口區"
"244021","838-TS","2017/12/11 17:29:37","新北市林口區粉寮路67-3號","121.40344","25.0908733333333","6501700","林口區"
"243009","KEA-2216","2017/12/11 15:41:35","新北市泰山區黎明路25號","121.421955","25.0608133333333","6501600","泰山區"
"231046","278-BY","2017/12/11 17:29:47","新北市新店區直潭路92號","121.530915","24.93763","6500600","新店區"
"241011","013-R5","2017/12/11 17:29:36","新北市三重區河邊北街110巷51號","121.502788333333","25.0706366666667","6500200","三重區"
"241015","062-VK","2017/12/11 17:29:45","新北市三重區長元街65巷16弄15號","121.503566666667","25.06616","6500200","三重區"
"241017","063-VK","2017/12/11 17:29:47","新北市三重區中正北路21號","121.492773333333","25.0618883333333","6500200","三重區"
"241003","091-VK","2017/12/11 17:29:54","新北市三重區碧華街388號","121.49147","25.0846433333333","6500200","三重區"
"241019","156-TC","2017/12/11 17:29:38","新北市三重區自強路二段50巷19-1號","121.488296666667","25.0694316666667","6500200","三重區"
"241005","262-UM","2017/12/11 17:29:35","新北市三重區永安北路二段5巷2號","121.481831666667","25.0810366666667","6500200","三重區"
"241024","265-UM","2017/12/11 17:29:47","新北市三重區大勇街82巷9號","121.479441666667","25.0716216666667","6500200","三重區"
"241016","266-UM","2017/12/11 17:29:49","新北市三重區信義西街148號","121.495391666667","25.06396","6500200","三重區"
"241022","267-UM","2017/12/11 17:29:42","新北市三重區新北大道一段7號","121.489643333333","25.061305","6500200","三重區"
"241018","268-UM","2017/12/11 17:29:38","新北市三重區自強路一段232號","121.493245","25.0667966666667","6500200","三重區"
"241032","269-UM","2017/12/11 17:29:42","新北市三重區名源街59號","121.482165","25.0592583333333","6500200","三重區"
"241013","270-UM","2017/12/11 17:29:37","新北市三重區仁愛街141巷25號","121.497146666667","25.075955","6500200","三重區"
"241025","271-UM","2017/12/11 17:29:43","新北市三重區三民街300巷5弄4-1號","121.4773","25.0689166666667","6500200","三重區"
"241007","398-BY","2017/12/11 17:29:40","新北市三重區三和路四段145巷160號","121.488245","25.0794333333333","6500200","三重區"
"241020","413-TH","2017/12/11 17:29:41","新北市三重區忠孝路一段129號","121.488655","25.0720366666667","6500200","三重區"
"241030","480-VK","2017/12/11 17:29:36","新北市三重區新興路46號","121.491408333333","25.0536783333333","6500200","三重區"
"241014","543-UM","2017/12/11 17:29:34","新北市三重區安和路17號","121.501355","25.06842","6500200","三重區"
"241023","545-UM","2017/12/11 17:29:47","新北市三重區忠孝路三段84巷32號","121.481561666667","25.064145","6500200","三重區"
"241012","941-UM","2017/12/11 17:29:50","新北市三重區仁興街41號","121.499118333333","25.0758016666667","6500200","三重區"
"241033","AAC-255","2017/12/11 17:29:47","新北市三重區興德路145-2號","121.469105","25.0528233333333","6500200","三重區"
"247022","893-R6","2017/12/11 17:29:40","新北市蘆洲區三民路285號","121.467448333333","25.0901383333333","6501400","蘆洲區"
"247012","546-UM","2017/12/11 17:29:32","新北市蘆洲區民族路31-1號","121.477605","25.084955","6501400","蘆洲區"
"247020","500-BY","2017/12/11 17:29:48","新北市蘆洲區仁愛街35巷14弄1號","121.471393333333","25.0926883333333","6501400","蘆洲區"
"247008","341-TH","2017/12/11 17:29:54","新北市蘆洲區民生街87號","121.473783333333","25.0780066666667","6501400","蘆洲區"
"247010","339-TH","2017/12/11 17:29:54","新北市蘆洲區中山一路120巷34號","121.478201666667","25.0820433333333","6501400","蘆洲區"
"247002","337-TH","2017/12/11 17:29:52","新北市蘆洲區永樂街38巷57弄1號","121.458366666667","25.0901266666667","6501400","蘆洲區"
"247004","336-TH","2017/12/11 17:29:44","新北市蘆洲區永安南路二段306號","121.457303333333","25.08238","6501400","蘆洲區"
"247016","057-VK","2017/12/11 17:29:54","新北市蘆洲區光華路22巷36號","121.468391666667","25.08466","6501400","蘆洲區"
"247006","056-VK","2017/12/11 17:29:47","新北市蘆洲區長安街68巷33號","121.464003333333","25.0810433333333","6501400","蘆洲區"
"247014","007-UY","2017/12/11 17:29:51","新北市蘆洲區三民路33號","121.475471666667","25.08295","6501400","蘆洲區"
"247024","002-UY","2017/12/11 17:29:49","新北市蘆洲區長興路389號","121.4611","25.0917533333333","6501400","蘆洲區"
"247018","001-UY","2017/12/11 17:29:41","新北市蘆洲區民權路75號","121.473388333333","25.0884983333333","6501400","蘆洲區"
"228003","097-TW","2017/12/11 17:29:38","新北市貢寮區仁理村研海街42號","121.925876666667","25.0424016666667","6502600","貢寮區"
"228002","585-TW","2017/12/11 17:29:38","新北市貢寮區福隆里興隆街22號","121.944743333333","25.0166416666667","6502600","貢寮區"
"228001","670-TC","2017/12/11 17:29:55","新北市貢寮區仁理村仁愛路62巷1號","121.925776666667","25.0534333333333","6502600","貢寮區"
"224010","AGQ-8101","2017/12/11 17:29:41","新北市瑞芳區逢甲路39號","121.80867","25.1089516666667","6501200","瑞芳區"
"224006","676-BX","2017/12/11 17:29:46","新北市瑞芳區傑魚坑路165號","121.789825","25.10942","6501200","瑞芳區"
"224009","285-BY","2017/12/11 17:29:51","新北市瑞芳區汽車路34號","121.845916666667","25.11036","6501200","瑞芳區"
"224008","275-VK","2017/12/11 17:29:52","新北市瑞芳區九芎橋路13號","121.832695","25.0924833333333","6501200","瑞芳區"
"224005","271-BY","2017/12/11 17:29:44","新北市瑞芳區明里路122號","121.864051666667","25.122465","6501200","瑞芳區"
"227001","642-TC","2017/12/11 17:29:35","新北市雙溪區平林里外平林43-2號","121.852515","25.0360083333333","6502500","雙溪區"
"251009","008-UM","2017/12/11 17:29:52","新北市淡水區重建街1巷7號","121.439753333333","25.17367","6501000","淡水區"
"251004","009-UM","2017/12/11 17:29:36","新北市淡水區中正東路二段88巷15號","121.459185","25.1503866666667","6501000","淡水區"
"251005","010-UM","2017/12/11 17:29:48","新北市淡水區鄧公路31巷13號","121.451798333333","25.1706916666667","6501000","淡水區"
"251007","179-VK","2017/12/11 17:29:49","新北市淡水區民生路56號","121.462061666667","25.1378966666667","6501000","淡水區"
"251008","181-VK","2017/12/11 17:29:38","新北市淡水區大同路100巷2號","121.462351666667","25.1396083333333","6501000","淡水區"
"251013","182-VK","2017/12/11 17:29:50","新北市淡水區大竹圍5號","121.466591666667","25.1952283333333","6501000","淡水區"
"251010","413-VK","2017/12/11 17:29:38","新北市淡水區中正路二段206號","121.426245","25.1890966666667","6501000","淡水區"
"251012","441-VK","2017/12/11 17:29:48","新北市淡水區北新路111號","121.448113333333","25.1783833333333","6501000","淡水區"
"251015","442-VK","2017/12/11 17:29:50","新北市淡水區三空泉15號","121.472728333333","25.1633266666667","6501000","淡水區"
"251001","559-UM","2017/12/11 17:29:37","新北市淡水區民權路92巷35-1號","121.462158333333","25.12666","6501000","淡水區"
"251006","561-UM","2017/12/11 17:29:49","新北市淡水區大仁街50號","121.442705","25.175755","6501000","淡水區"
"251011","650-BX","2017/12/11 17:29:37","新北市淡水區坪頂路712號","121.482526666667","25.158525","6501000","淡水區"
"251002","672-BX","2017/12/11 17:29:48","新北市淡水區中正路32巷2號","121.430746666667","25.1752016666667","6501000","淡水區"
"251003","766-UM","2017/12/11 17:29:48","新北市淡水區中山路158號","121.440766666667","25.1728733333333","6501000","淡水區"
"207003","550-UM","2017/12/11 17:29:37","新北市萬里區龜吼里翡翠路17號","121.683375","25.1872433333333","6502800","萬里區"
"207004","225-TW","2017/12/11 17:29:57","新北市萬里區萬里里景美路18號","121.686195","25.1730916666667","6502800","萬里區"
"252002","178-VK","2017/12/11 17:29:47","新北市三芝區忠孝街1-14號","121.505458333333","25.2539383333333","6502100","三芝區"
"252001","292-VK","2017/12/11 17:29:43","新北市三芝區長安街119號","121.498058333333","25.2596433333333","6502100","三芝區"
"237004","078-UY","2017/12/11 17:29:42","新北市三峽區中山路459巷163-3號","121.348878333333","24.933195","6500900","三峽區"
"237011","572-TV","2017/12/11 13:13:58","新北市三峽區中山路459巷163-3號","121.349265","24.9329283333333","6500900","三峽區"
"237015","649-BX","2017/12/11 17:29:41","新北市三峽區中山路459巷131號","121.350671666667","24.93435","6500900","三峽區"
"242031","AAC-296","2017/12/11 17:29:42","新北市新莊區新泰路381巷41號","121.442396666667","25.0435216666667","6500500","新莊區"
"242029","986-R7","2017/12/11 17:29:40","新北市新莊區復興路二段192號","121.459228333333","25.0442933333333","6500500","新莊區"
"242050","751-BX","2017/12/11 17:29:54","新北市新莊區新樹路449巷18-1號","121.433743333333","25.0140416666667","6500500","新莊區"
"242025","615-BX","2017/12/11 17:29:37","新北市新莊區中港路266號","121.453286666667","25.0439083333333","6500500","新莊區"
"242023","613-BX","2017/12/11 17:29:36","新北市新莊區公園路150號","121.453136666667","25.04009","6500500","新莊區"
"242027","612-BX","2017/12/11 17:29:39","新北市新莊區思源路32號","121.460208333333","25.04117","6500500","新莊區"
"242039","566-BX","2017/12/11 17:29:42","新北市新莊區民安西路42號","121.427521666667","25.0209466666667","6500500","新莊區"
"242044","497-BY","2017/12/11 17:29:48","新北市新莊區裕民街1號","121.4195","25.0260833333333","6500500","新莊區"
"242013","442-UM","2017/12/11 17:29:39","新北市新莊區中誠街18號","121.451938333333","25.0482616666667","6500500","新莊區"
"242048","441-UM","2017/12/11 17:29:44","新北市新莊區四維路210號","121.421273333333","25.0201233333333","6500500","新莊區"
"242053","440-UM","2017/12/11 17:29:40","新北市新莊區新樹路336號","121.432935","25.0037316666667","6500500","新莊區"
"242034","415-TV","2017/12/11 17:29:54","新北市新莊區新莊路465號","121.449331666667","25.033425","6500500","新莊區"
"242004","413-TV","2017/12/11 17:29:48","新北市新莊區中港路288巷22號","121.453698333333","25.0446183333333","6500500","新莊區"
"242042","400-BY","2017/12/11 17:29:53","新北市新莊區建國一路26號","121.433801666667","25.0316183333333","6500500","新莊區"
"242060","362-BY","2017/12/11 17:27:11","新北市新莊區瓊林路182-1號","121.440233333333","25.021915","6500500","新莊區"
"242058","353-BY","2017/12/11 17:29:39","新北市新莊區中正路516-42號","121.432345","25.0320283333333","6500500","新莊區"
"242036","133-UY","2017/12/11 17:29:55","新北市新莊區新樹路110巷2號","121.434981666667","25.0258483333333","6500500","新莊區"
"242021","135-UY","2017/12/11 17:29:35","新北市新莊區中正路136號","121.452505","25.0362033333333","6500500","新莊區"
"242046","172-VK","2017/12/11 17:29:40","新北市新莊區新樹路65-5號","121.439426666667","25.0308083333333","6500500","新莊區"
"242009","173-VK","2017/12/11 10:58:45","新北市新莊區三和路12-21號","121.44208","25.0385716666667","6500500","新莊區"
"242015","175-VK","2017/12/11 17:29:47","新北市新莊區新泰路203號","121.44709","25.0381866666667","6500500","新莊區"
"242007","347-TH","2017/12/11 17:29:47","新北市新莊區自強街17號","121.454741666667","25.0460683333333","6500500","新莊區"
"242019","348-TH","2017/12/11 17:29:55","新北市新莊區中港路70號","121.45549","25.038865","6500500","新莊區"
"242056","349-TH","2017/12/11 17:29:43","新北市新莊區新泰路14號","121.449676666667","25.0330133333333","6500500","新莊區"
"242017","350-TH","2017/12/11 17:29:47","新北市新莊區德豐街2號","121.451643333333","25.0439083333333","6500500","新莊區"
"242011","351-TH","2017/12/11 17:29:43","新北市新莊區中港路491號","121.452138333333","25.0501566666667","6500500","新莊區"
"238015","755-BX","2017/12/11 17:29:43","新北市樹林區大安路265號","121.419105","24.9937566666667","6500700","樹林區"
"238019","599-UM","2017/12/11 17:29:44","新北市樹林區太平路83號","121.419048333333","24.9814933333333","6500700","樹林區"
"238018","571-TV","2017/12/11 17:29:55","新北市樹林區鎮前街281-4號","121.418305","24.985005","6500700","樹林區"
"238024","5061-A6","2017/12/11 17:29:46","新北市樹林區鎮前街156號","121.42448","24.99023","6500700","樹林區"
"238021","KEA-2217","2017/12/11 17:29:52","新北市樹林區民權街48號","121.399016666667","24.9595766666667","6500700","樹林區"
"238022","KEA-2213","2017/12/11 17:29:38","新北市樹林區信義街22號","121.42302","24.9820533333333","6500700","樹林區"
"238025","303-VK","2017/12/11 17:29:48","新北市樹林區保安街一段339號","121.417338333333","24.9986966666667","6500700","樹林區"
"238017","283-BY","2017/12/11 17:29:46","新北市樹林區中正路248巷28弄2號","121.418383333333","25.008045","6500700","樹林區"
"238014","282-BY","2017/12/11 17:29:43","新北市樹林區長壽街80號","121.420591666667","24.994965","6500700","樹林區"
"238020","268-VK","2017/12/11 17:29:53","新北市樹林區千歲街103號","121.428653333333","25.0009766666667","6500700","樹林區"
"238026","172-UY","2017/12/11 17:29:40","新北市樹林區中山路三段41巷20號","121.401616666667","24.974665","6500700","樹林區"
"238016","169-UY","2017/12/11 17:29:41","新北市樹林區日新街6號","121.423615","24.99333","6500700","樹林區"
"239007","AAC-297","2017/12/11 17:29:53","新北市鶯歌區仁愛路17號","121.353905","24.956115","6500800","鶯歌區"
"239006","891-R6","2017/12/11 17:29:51","新北市鶯歌區福安街7巷24弄52號","121.334763333333","24.966005","6500800","鶯歌區"
"239008","527-UM","2017/12/11 17:29:56","新北市鶯歌區大湖路590巷9號","121.33604","24.9742333333333","6500800","鶯歌區"
"239005","526-UM","2017/12/11 17:29:43","新北市鶯歌區鶯桃路二段11號","121.325833333333","24.971925","6500800","鶯歌區"
"239001","417-VK","2017/12/11 17:29:36","新北市鶯歌區中正三路72號","121.338591666667","24.9411933333333","6500800","鶯歌區"
"239003","360-BY","2017/12/11 17:29:40","新北市鶯歌區德昌街76號","121.332815","24.9599733333333","6500800","鶯歌區"
"239002","359-BY","2017/12/11 17:29:39","新北市鶯歌區國慶街60號","121.349841666667","24.9550733333333","6500800","鶯歌區"
"239004","193-VK","2017/12/11 17:29:45","新北市鶯歌區三鶯路20號","121.356333333333","24.9413916666667","6500800","鶯歌區"
"221008","489-VK","2017/12/11 17:29:39","新北市汐止區康寧街901號","121.651395","25.0750466666667","6501100","汐止區"
"221033","647-BX","2017/12/11 17:29:38","新北市汐止區大同路二段273號","121.652246666667","25.06719","6501100","汐止區"
"242002","280-VK","2017/12/11 17:29:49","新北市新莊區碧江街27-7號","121.45269","25.03333","6500500","新莊區"
