"lineid","car","time","location","longitude","latitude","cityid","cityname"
"234026","9371-KE","2017/12/11 17:49:39","新北市永和區中山路一段101號","121.511191666667","25.0104016666667","6500400","永和區"
"249005","172-UM","2017/12/11 17:49:43","新北市八里區荖阡坑路41-10號","121.402408333333","25.1333783333333","6502300","八里區"
"249001","173-UM","2017/12/11 17:49:52","新北市八里區龍米路二段125巷25號","121.446011666667","25.1464133333333","6502300","八里區"
"249004","303-UY","2017/12/11 17:49:43","新北市八里區中華路一段309巷19-11號","121.41713","25.1533883333333","6502300","八里區"
"249002","305-UY","2017/12/11 17:49:46","新北市八里區龍形二街8號","121.450566666667","25.13243","6502300","八里區"
"249003","759-BX","2017/12/11 17:49:35","新北市八里區中山路二段212號","121.405373333333","25.1519016666667","6502300","八里區"
"248016","026-BX","2017/12/11 17:49:51","新北市五股區中興路二段83巷26-6號","121.459981666667","25.0752966666667","6501500","五股區"
"248006","077-UY","2017/12/11 17:49:42","新北市五股區中興路二段37巷28號","121.460216666667","25.0749866666667","6501500","五股區"
"248018","225-UY","2017/12/11 17:49:37","新北市五股區中興路二段83巷26-3號","121.460093333333","25.0753133333333","6501500","五股區"
"248010","272-BY","2017/12/11 17:49:37","新北市五股區中興路二段83巷26-6號","121.460033333333","25.0750233333333","6501500","五股區"
"248002","678-BX","2017/12/11 17:49:37","新北市五股區中興路二段37巷28號","121.460193333333","25.0749566666667","6501500","五股區"
"232011","375-UM","2017/12/11 17:49:54","新北市坪林區北宜路八段101號","121.706091666667","24.9348766666667","6502000","坪林區"
"244013","069-UM","2017/12/11 17:49:43","新北市林口區中正路525巷9號","121.383035","25.07673","6501700","林口區"
"244007","080-UY","2017/12/11 17:49:44","新北市林口區林口路112號","121.388658333333","25.0813333333333","6501700","林口區"
"244019","403-UM","2017/12/11 17:49:55","新北市林口區公園路176號","121.372915","25.0723816666667","6501700","林口區"
"244009","410-SL","2017/12/11 17:49:52","新北市林口區文化一路二段217-2號","121.384425","25.083515","6501700","林口區"
"244023","483-VK","2017/12/11 17:49:49","新北市林口區東湖路2號","121.389261666667","25.0737833333333","6501700","林口區"
"244017","485-VK","2017/12/11 17:49:51","新北市林口區文化二路一段260巷9-2號","121.371175","25.07266","6501700","林口區"
"244011","701-TV","2017/12/11 17:49:48","新北市林口區佳林路253號","121.38291","25.07612","6501700","林口區"
"244025","837-TS","2017/12/11 17:49:35","新北市林口區文化三路一段181號","121.362213333333","25.06987","6501700","林口區"
"244021","838-TS","2017/12/11 17:49:37","新北市林口區仁愛路一段139巷9號","121.398203333333","25.0716866666667","6501700","林口區"
"243009","KEA-2216","2017/12/11 15:41:35","新北市泰山區黎明路25號","121.421955","25.0608133333333","6501600","泰山區"
"222003","436-BY","2017/12/11 17:49:47","新北市深坑區阿柔洋60-1號","121.60858","24.9985066666667","6501800","深坑區"
"222002","659-BX","2017/12/11 17:49:57","新北市深坑區平埔街22巷17弄1號","121.614878333333","25.0008983333333","6501800","深坑區"
"231046","278-BY","2017/12/11 17:49:52","新北市新店區下石厝路2號","121.531853333333","24.9276733333333","6500600","新店區"
"241019","156-TC","2017/12/11 17:49:38","新北市三重區力行路一段38巷2號","121.48535","25.0667983333333","6500200","三重區"
"241005","262-UM","2017/12/11 17:49:55","新北市三重區集賢路87-1號","121.493695","25.0868366666667","6500200","三重區"
"241024","265-UM","2017/12/11 17:49:43","新北市三重區力行路二段9巷6號","121.482621666667","25.072305","6500200","三重區"
"241016","266-UM","2017/12/11 17:49:49","新北市三重區新北大道一段3-1號","121.49007","25.06135","6500200","三重區"
"241033","AAC-255","2017/12/11 17:49:47","新北市三重區重新路五段509-5號","121.472023333333","25.04685","6500200","三重區"
"235064","005-UY","2017/12/11 17:49:38","新北市中和區員山路36巷16-3號","121.485168333333","24.9912916666667","6500300","中和區"
"235038","185-VK","2017/12/11 17:49:48","新北市中和區員山路36巷16-3號","121.485041666667","24.9915266666667","6500300","中和區"
"235067","255-BX","2017/12/11 17:49:48","新北市中和區和城路一段271巷1號","121.485576666667","24.99197","6500300","中和區"
"235061","378-QA","2017/12/11 17:49:50","新北市中和區員山路36巷16-2號","121.485173333333","24.9916283333333","6500300","中和區"
"235062","800-TS","2017/12/11 17:49:45","新北市中和區員山路36巷16-3號","121.484703333333","24.9915433333333","6500300","中和區"
"247022","893-R6","2017/12/11 17:49:40","新北市蘆洲區中正路298號","121.464873333333","25.0904566666667","6501400","蘆洲區"
"247012","546-UM","2017/12/11 17:49:52","新北市蘆洲區復興路81號","121.476316666667","25.0873683333333","6501400","蘆洲區"
"247020","500-BY","2017/12/11 17:49:48","新北市蘆洲區民義街101巷11號","121.473206666667","25.0910733333333","6501400","蘆洲區"
"247008","341-TH","2017/12/11 17:49:54","新北市蘆洲區中山一路197巷6弄22號","121.474121666667","25.0803283333333","6501400","蘆洲區"
"247010","339-TH","2017/12/11 17:49:54","新北市蘆洲區民族路31號","121.477378333333","25.0848716666667","6501400","蘆洲區"
"247002","337-TH","2017/12/11 17:49:52","新北市蘆洲區環堤大道224號","121.458235","25.0926483333333","6501400","蘆洲區"
"247004","336-TH","2017/12/11 17:49:43","新北市蘆洲區永康街77號","121.455778333333","25.085225","6501400","蘆洲區"
"247016","057-VK","2017/12/11 17:49:35","新北市蘆洲區中正路185巷25弄23號","121.467246666667","25.083895","6501400","蘆洲區"
"247006","056-VK","2017/12/11 17:49:47","新北市蘆洲區長安街22巷38號","121.465098333333","25.0801333333333","6501400","蘆洲區"
"247014","007-UY","2017/12/11 17:49:51","新北市蘆洲區保和街69巷18號","121.469585","25.085355","6501400","蘆洲區"
"247024","002-UY","2017/12/11 17:49:49","新北市蘆洲區長樂路120巷18號","121.462746666667","25.0895133333333","6501400","蘆洲區"
"247018","001-UY","2017/12/11 17:49:41","新北市蘆洲區復興路227巷2弄2號","121.479966666667","25.0900016666667","6501400","蘆洲區"
"228003","097-TW","2017/12/11 17:49:38","新北市貢寮區真理里美艷山街3-1號","121.926043333333","25.059535","6502600","貢寮區"
"228002","585-TW","2017/12/11 17:49:38","新北市貢寮區福隆里外隆林街16-4號","121.95779","25.00524","6502600","貢寮區"
"228001","670-TC","2017/12/11 17:49:55","新北市貢寮區真理里新港街26巷28-6號","121.927731666667","25.05542","6502600","貢寮區"
"224010","AGQ-8101","2017/12/11 17:48:18","新北市瑞芳區中山路180巷5弄19號","121.801138333333","25.1069866666667","6501200","瑞芳區"
"224006","676-BX","2017/12/11 17:49:46","新北市瑞芳區傑魚坑路266-1號","121.788591666667","25.1085266666667","6501200","瑞芳區"
"224002","639-TC","2017/12/11 17:49:49","新北市瑞芳區民權街3-1號","121.80936","25.1081283333333","6501200","瑞芳區"
"224009","285-BY","2017/12/11 17:49:52","新北市瑞芳區金光路372號","121.849741666667","25.1105133333333","6501200","瑞芳區"
"224008","275-VK","2017/12/11 17:49:50","新北市瑞芳區明燈路一段192號","121.818535","25.1080733333333","6501200","瑞芳區"
"224007","273-VK","2017/12/11 17:49:51","新北市瑞芳區八分寮路6號","121.796448333333","25.0926966666667","6501200","瑞芳區"
"224005","271-BY","2017/12/11 17:49:44","新北市瑞芳區海濱路29-9號","121.830791666667","25.1243783333333","6501200","瑞芳區"
"253006","741-TV","2017/12/11 17:49:43","新北市石門區中央路5號","121.566288333333","25.29155","6502200","石門區"
"222001","KEA-2212","2017/12/11 17:49:41","新北市深坑區文山路三段110號","121.608645","24.999425","6501800","深坑區"
"208002","742-BX","2017/12/11 17:49:36","新北市金山區磺清路135號","121.639316666667","25.2275966666667","6502700","金山區"
"208003","665-BX","2017/12/11 17:49:43","新北市金山區磺清路135號","121.639353333333","25.22773","6502700","金山區"
"251009","008-UM","2017/12/11 17:49:52","新北市淡水區長興街36-1號","121.44415","25.17133","6501000","淡水區"
"251004","009-UM","2017/12/11 17:49:36","新北市淡水區民權一街33-3號","121.459373333333","25.136335","6501000","淡水區"
"251005","010-UM","2017/12/11 17:49:48","新北市淡水區學府路96號","121.44925","25.17111","6501000","淡水區"
"251007","179-VK","2017/12/11 17:49:49","新北市淡水區民生路14號","121.460925","25.1376566666667","6501000","淡水區"
"251008","181-VK","2017/12/11 17:49:38","新北市淡水區八勢路一段125-1號","121.46724","25.1568116666667","6501000","淡水區"
"251013","182-VK","2017/12/11 17:49:50","新北市淡水區泉洲厝31號","121.4796","25.1910533333333","6501000","淡水區"
"251010","413-VK","2017/12/11 17:49:38","新北市淡水區中正路二段53號","121.418333333333","25.184675","6501000","淡水區"
"251012","441-VK","2017/12/11 17:49:48","新北市淡水區北新路二段19號","121.478093333333","25.1856433333333","6501000","淡水區"
"251015","442-VK","2017/12/11 17:49:50","新北市淡水區興福寮23號","121.49352","25.1642716666667","6501000","淡水區"
"251001","559-UM","2017/12/11 17:49:37","新北市淡水區民權路92巷35-1號","121.462166666667","25.126595","6501000","淡水區"
"251006","561-UM","2017/12/11 17:49:49","新北市淡水區新生街51巷32號","121.440925","25.1758733333333","6501000","淡水區"
"251011","650-BX","2017/12/11 17:47:17","新北市淡水區吳(仔)厝7-1號","121.48059","25.1473916666667","6501000","淡水區"
"251002","672-BX","2017/12/11 17:49:48","新北市淡水區中山路46號","121.44418","25.1700916666667","6501000","淡水區"
"251003","766-UM","2017/12/11 17:49:48","新北市淡水區大忠街33號","121.444168333333","25.17617","6501000","淡水區"
"207003","550-UM","2017/12/11 17:49:37","新北市萬里區野柳里東澳路66號","121.692756666667","25.2009383333333","6502800","萬里區"
"207004","225-TW","2017/12/11 17:49:38","新北市萬里區萬里里瑪鋉頂街61號","121.688363333333","25.1804583333333","6502800","萬里區"
"252002","178-VK","2017/12/11 17:49:47","新北市三芝區智成街35號","121.503995","25.2564166666667","6502100","三芝區"
"252001","292-VK","2017/12/11 17:49:43","新北市三芝區淡金路一段3號","121.498508333333","25.259675","6502100","三芝區"
"237004","078-UY","2017/12/11 17:49:41","新北市三峽區中山路120號","121.365668333333","24.9358816666667","6500900","三峽區"
"237009","210-TH","2017/12/11 17:49:37","新北市三峽區大勇路62號","121.367118333333","24.93659","6500900","三峽區"
"237013","252-BX","2017/12/11 17:49:46","新北市三峽區愛國路16巷2號","121.37404","24.93353","6500900","三峽區"
"237012","275-BY","2017/12/11 17:49:44","新北市三峽區中山路124號","121.365513333333","24.9359866666667","6500900","三峽區"
"237008","302-VK","2017/12/11 17:49:44","新北市三峽區中園街237-1號","121.3668","24.9193766666667","6500900","三峽區"
"237014","433-BY","2017/12/11 17:49:34","新北市三峽區和平街36巷19號","121.371273333333","24.9369783333333","6500900","三峽區"
"237006","5529-G3","2017/12/11 17:49:47","新北市三峽區介壽路二段38巷22號","121.391841666667","24.9349066666667","6500900","三峽區"
"237011","572-TV","2017/12/11 17:49:30","新北市三峽區中正路一段67號","121.375235","24.9302066666667","6500900","三峽區"
"237015","649-BX","2017/12/11 17:49:41","新北市三峽區白雞120號","121.398956666667","24.9053283333333","6500900","三峽區"
"237010","706-TV","2017/12/11 17:49:06","新北市三峽區和平街24-1號","121.37024","24.9363","6500900","三峽區"
"237005","AKY-6261","2017/12/11 17:49:44","新北市三峽區中山路459巷90-1號","121.355056666667","24.9362016666667","6500900","三峽區"
"236069","105-UM","2017/12/11 17:49:49","新北市土城區城林路6巷80號","121.438496666667","24.9796066666667","6501300","土城區"
"236042","107-UM","2017/12/11 17:49:43","新北市土城區城林路6巷80號","121.438541666667","24.9796666666667","6501300","土城區"
"236078","166-UM","2017/12/11 17:48:17","新北市土城區永寧路95號","121.429553333333","24.9557083333333","6501300","土城區"
"236030","253-BX","2017/12/11 17:49:39","新北市土城區城林路6巷80號","121.43851","24.9797633333333","6501300","土城區"
"236026","269-VK","2017/12/11 17:49:38","新北市土城區中華路二段257號","121.437476666667","24.9711933333333","6501300","土城區"
"236014","270-VK","2017/12/11 17:49:42","新北市土城區城林路6巷80號","121.438548333333","24.979585","6501300","土城區"
"236036","271-VK","2017/12/11 17:49:42","新北市土城區城林路6巷80號","121.438476666667","24.9797516666667","6501300","土城區"
"236020","401-BY","2017/12/11 17:49:39","新北市土城區城林路6巷80號","121.438733333333","24.9796816666667","6501300","土城區"
"236058","912-UM","2017/12/11 17:49:40","新北市土城區城林路6巷80號","121.438495","24.9795933333333","6501300","土城區"
"236053","AAC-216","2017/12/11 17:49:41","新北市土城區城林路6巷80號","121.438518333333","24.9795983333333","6501300","土城區"
"242031","AAC-296","2017/12/11 17:49:42","新北市新莊區新泰路321巷21號","121.443686666667","25.0411666666667","6500500","新莊區"
"242029","986-R7","2017/12/11 17:49:40","新北市新莊區復興路一段43號","121.446913333333","25.0420983333333","6500500","新莊區"
"242050","751-BX","2017/12/11 17:49:54","新北市新莊區西盛街313號","121.428083333333","25.0152166666667","6500500","新莊區"
"242025","615-BX","2017/12/11 17:49:36","新北市三重區新北大道二段25號","121.471318333333","25.061275","6500500","新莊區"
"242023","613-BX","2017/12/11 17:49:36","新北市新莊區福樂街58號","121.457835","25.0460816666667","6500500","新莊區"
"242027","612-BX","2017/12/11 17:49:39","新北市新莊區福壽街171號","121.458031666667","25.05381","6500500","新莊區"
"242039","566-BX","2017/12/11 17:49:42","新北市新莊區富國路204號","121.424848333333","25.02416","6500500","新莊區"
"242044","497-BY","2017/12/11 17:49:44","新北市新莊區雙鳳路13號","121.41701","25.0268433333333","6500500","新莊區"
"242013","442-UM","2017/12/11 17:49:39","新北市新莊區中和街82巷9號","121.448185","25.04667","6500500","新莊區"
"242048","441-UM","2017/12/11 17:49:44","新北市新莊區萬安街146巷24號","121.420028333333","25.0220666666667","6500500","新莊區"
"242053","440-UM","2017/12/11 17:49:47","新北市新莊區民安西路411號","121.430665","25.0088983333333","6500500","新莊區"
"242034","415-TV","2017/12/11 17:49:45","新北市新莊區景德路642號","121.441126666667","25.0328683333333","6500500","新莊區"
"242004","413-TV","2017/12/11 17:49:48","新北市新莊區自立街245號","121.45857","25.045525","6500500","新莊區"
"242042","400-BY","2017/12/11 17:49:33","新北市泰山區明志路三段529號","121.420543333333","25.0300116666667","6500500","新莊區"
"242060","362-BY","2017/12/11 17:49:51","新北市新莊區新樹路300-2號","121.432895","25.006435","6500500","新莊區"
"242058","353-BY","2017/12/11 17:49:39","新北市新莊區中正路730-6號","121.414745","25.0236","6500500","新莊區"
"242036","133-UY","2017/12/11 17:49:55","新北市新莊區建福路57號","121.426821666667","25.02732","6500500","新莊區"
"242021","135-UY","2017/12/11 17:49:56","新北市新莊區永寧街35巷1號","121.452855","25.03922","6500500","新莊區"
"242046","172-VK","2017/12/11 17:49:40","新北市新莊區建國一路31巷3號","121.434416666667","25.0315566666667","6500500","新莊區"
"242009","173-VK","2017/12/11 17:49:51","新北市新莊區昌明街58號","121.455721666667","25.052285","6500500","新莊區"
"242015","175-VK","2017/12/11 17:49:45","新北市新莊區新泰路462號","121.443315","25.0447716666667","6500500","新莊區"
"242007","347-TH","2017/12/11 17:49:47","新北市新莊區福樂街108巷34號","121.457888333333","25.04863","6500500","新莊區"
"242019","348-TH","2017/12/11 17:49:34","新北市新莊區復興路二段23號","121.453835","25.0439566666667","6500500","新莊區"
"242056","349-TH","2017/12/11 17:49:43","新北市新莊區瓊林路40巷29號","121.446575","25.0301483333333","6500500","新莊區"
"242017","350-TH","2017/12/11 17:49:47","新北市新莊區永安街5號","121.452286666667","25.044785","6500500","新莊區"
"242011","351-TH","2017/12/11 17:49:53","新北市新莊區中港路668號","121.450806666667","25.0563433333333","6500500","新莊區"
"238015","755-BX","2017/12/11 17:49:42","新北市樹林區長壽街19巷2號","121.421835","24.9941383333333","6500700","樹林區"
"238019","599-UM","2017/12/11 17:49:44","新北市樹林區八德街321-1號","121.419611666667","24.9744016666667","6500700","樹林區"
"238018","571-TV","2017/12/11 17:49:42","新北市樹林區保安街一段18-1號","121.427666666667","24.99322","6500700","樹林區"
"238024","5061-A6","2017/12/11 17:49:26","新北市樹林區中山路三段214號","121.38021","24.96796","6500700","樹林區"
"238021","KEA-2217","2017/12/11 17:49:52","新北市樹林區柑園街一段253巷19號","121.396395","24.9545816666667","6500700","樹林區"
"238022","KEA-2213","2017/12/11 17:49:38","新北市樹林區太順街62巷3弄35號","121.416381666667","24.97906","6500700","樹林區"
"238025","303-VK","2017/12/11 17:49:44","新北市樹林區三俊街56號","121.412808333333","25.015625","6500700","樹林區"
"238017","283-BY","2017/12/11 17:49:46","新北市樹林區三德街30巷23號","121.414685","25.01246","6500700","樹林區"
"238014","282-BY","2017/12/11 17:49:43","新北市樹林區保安街一段289巷3號","121.416655","24.9961283333333","6500700","樹林區"
"238020","268-VK","2017/12/11 17:49:50","新北市樹林區俊英街135巷73弄8號","121.424441666667","25.011275","6500700","樹林區"
"238026","172-UY","2017/12/11 17:49:40","新北市樹林區中洲街51巷6號","121.396658333333","24.9710166666667","6500700","樹林區"
"238016","169-UY","2017/12/11 17:49:41","新北市樹林區育英街165巷2號","121.418358333333","24.9894916666667","6500700","樹林區"
"239007","AAC-297","2017/12/11 17:49:53","新北市鶯歌區永明街20號","121.338611666667","24.9552516666667","6500800","鶯歌區"
"239006","891-R6","2017/12/11 17:49:50","新北市鶯歌區鳳鳴路103號","121.33433","24.9662266666667","6500800","鶯歌區"
"239008","527-UM","2017/12/11 17:49:36","新北市鶯歌區國際一路11號","121.334606666667","24.9760533333333","6500800","鶯歌區"
"239005","526-UM","2017/12/11 17:49:42","新北市鶯歌區鳳吉五街9號","121.326655","24.97232","6500800","鶯歌區"
"239001","417-VK","2017/12/11 17:49:36","新北市鶯歌區中正三路408號","121.325263333333","24.9346516666667","6500800","鶯歌區"
"239003","360-BY","2017/12/11 17:49:40","新北市鶯歌區鶯桃路289-1號","121.33498","24.9602033333333","6500800","鶯歌區"
"239002","359-BY","2017/12/11 17:49:39","新北市鶯歌區育智路22號","121.345028333333","24.955295","6500800","鶯歌區"
"239004","193-VK","2017/12/11 17:49:45","新北市鶯歌區尖山路40號","121.350853333333","24.9503883333333","6500800","鶯歌區"
"221008","489-VK","2017/12/11 17:49:39","新北市汐止區康寧街901號","121.651368333333","25.07507","6501100","汐止區"
"221036","130-UY","2017/12/11 17:49:52","新北市汐止區長江街57巷1號","121.656256666667","25.0714966666667","6501100","汐止區"
"221010","269-BY","2017/12/11 17:47:12","新北市汐止區汐萬路一段418巷6弄10號","121.650306666667","25.0779866666667","6501100","汐止區"
"221012","278-VK","2017/12/11 17:49:45","新北市汐止區長江街25號","121.655295","25.0711733333333","6501100","汐止區"
"221023","279-VK","2017/12/11 17:49:51","新北市汐止區民族二街17號","121.634705","25.0703983333333","6501100","汐止區"
"221032","280-BY","2017/12/11 17:49:52","新北市汐止區大同路一段89-3號","121.624668333333","25.0549516666667","6501100","汐止區"
"221027","281-BY","2017/12/11 17:49:51","新北市汐止區汐萬路一段273號","121.650498333333","25.0745283333333","6501100","汐止區"
"221029","298-VK","2017/12/11 17:49:39","新北市汐止區康寧街901號","121.651401666667","25.0749466666667","6501100","汐止區"
"221021","299-VK","2017/12/11 17:49:38","新北市汐止區水源路一段31號","121.657185","25.0664466666667","6501100","汐止區"
"221031","353-TW","2017/12/11 17:49:43","新北市汐止區樟樹二路262號","121.64082","25.0680833333333","6501100","汐止區"
"221015","567-BX","2017/12/11 17:49:56","新北市汐止區長江街250號","121.663055","25.0792866666667","6501100","汐止區"
"221035","622-UM","2017/12/11 17:49:51","新北市汐止區汐萬路一段211巷13號","121.651573333333","25.0718983333333","6501100","汐止區"
"221038","646-BX","2017/12/11 17:49:45","新北市汐止區汐萬路一段261號","121.650785","25.074105","6501100","汐止區"
"221033","647-BX","2017/12/11 17:49:38","新北市汐止區林森街132巷6弄6號","121.624358333333","25.0406933333333","6501100","汐止區"
"221002","707-TV","2017/12/11 17:49:32","新北市汐止區康寧街901號","121.651486666667","25.075005","6501100","汐止區"
"221012","753-BX","2017/12/11 17:49:46","新北市汐止區忠孝東路363號","121.665636666667","25.0708383333333","6501100","汐止區"
"242002","280-VK","2017/12/11 17:49:49","新北市新莊區景德路160號","121.450668333333","25.0341416666667","6500500","新莊區"
