"lineid","car","time","location","longitude","latitude","cityid","cityname"
"234046","148-BY","2017/12/11 18:59:49","新北市永和區得和路373巷16弄9號","121.525528333333","25.0000583333333","6500400","永和區"
"234013","149-BY","2017/12/11 18:59:39","新北市永和區中山路一段70號","121.512475","25.0107233333333","6500400","永和區"
"234007","207-UY","2017/12/11 18:59:35","新北市永和區中山路一段51號","121.51298","25.0105033333333","6500400","永和區"
"234081","298-R6","2017/12/11 18:59:54","新北市永和區永亨路61號","121.521056666667","25.006085","6500400","永和區"
"234038","336-UY","2017/12/11 18:59:50","新北市永和區成功路二段207號","121.52655","24.9959283333333","6500400","永和區"
"234064","337-UY","2017/12/11 18:59:40","新北市永和區秀朗路一段146號","121.51817","25.0033233333333","6500400","永和區"
"234086","338-UY","2017/12/11 18:59:39","新北市永和區中正路393號","121.517258333333","25.0040133333333","6500400","永和區"
"234070","552-UM","2017/12/11 18:59:48","新北市永和區中興街68巷5弄1號","121.517695","25.0114733333333","6500400","永和區"
"234054","553-UM","2017/12/11 18:59:54","新北市永和區竹林路66巷4號","121.518171666667","25.013385","6500400","永和區"
"234017","745-BX","2017/12/11 18:59:37","新北市永和區永和路二段298號","121.516183333333","25.0158716666667","6500400","永和區"
"234030","746-BX","2017/12/11 18:59:44","新北市永和區四維街75號","121.525215","24.9980583333333","6500400","永和區"
"234061","AAD-866","2017/12/11 18:59:32","新北市永和區福和路307號","121.516253333333","25.007115","6500400","永和區"
"234042","862-TW","2017/12/11 18:59:53","新北市永和區永貞路304號","121.512013333333","25.00479","6500400","永和區"
"234050","863-TW","2017/12/11 18:59:38","新北市永和區文化路196號","121.510875","25.0163933333333","6500400","永和區"
"234026","9371-KE","2017/12/11 18:59:39","新北市永和區安樂路451號","121.514295","25.004935","6500400","永和區"
"234011","9373-KE","2017/12/11 18:59:54","新北市永和區仁愛路141巷3弄6號","121.512006666667","25.0124283333333","6500400","永和區"
"249005","172-UM","2017/12/11 18:59:43","新北市八里區長道坑11號","121.395956666667","25.1230466666667","6502300","八里區"
"249001","173-UM","2017/12/11 18:59:52","新北市八里區龍米路二段228-1號","121.432748333333","25.15846","6502300","八里區"
"248016","026-BX","2017/12/11 18:59:51","新北市五股區成泰路三段543巷12弄11號","121.451308333333","25.1024116666667","6501500","五股區"
"248006","077-UY","2017/12/11 18:59:36","新北市五股區中興路一段56號","121.467875","25.072685","6501500","五股區"
"248008","095-VK","2017/12/11 18:59:52","新北市五股區中興路一段128巷38號","121.46574","25.0753683333333","6501500","五股區"
"248018","225-UY","2017/12/11 18:59:37","新北市五股區民義路二段22巷21號","121.421328333333","25.09781","6501500","五股區"
"248012","247-BX","2017/12/11 18:59:42","新北市五股區工商路38號","121.439378333333","25.0837316666667","6501500","五股區"
"248010","272-BY","2017/12/11 18:59:37","新北市五股區水碓九路75號","121.430231666667","25.0733783333333","6501500","五股區"
"248004","677-BX","2017/12/11 18:59:42","新北市五股區民義路二段28-1號","121.419086666667","25.0975083333333","6501500","五股區"
"248002","678-BX","2017/12/11 18:59:38","新北市五股區天乙路3-1號","121.448225","25.1028516666667","6501500","五股區"
"234023","9380-KE","2017/12/11 18:59:41","新北市永和區竹林路75巷47號","121.520891666667","25.0143966666667","6500400","永和區"
"234077","969-R7","2017/12/11 18:59:47","新北市永和區智光街24號","121.517978333333","24.99912","6500400","永和區"
"234074","AAC-211","2017/12/11 18:59:35","新北市永和區環河東路二段100號","121.524113333333","25.010325","6500400","永和區"
"234067","AAC-212","2017/12/11 18:59:49","新北市永和區永和路一段22號","121.513081666667","25.0047966666667","6500400","永和區"
"234003","AAC-295","2017/12/11 18:59:54","新北市永和區保福路一段68-1號","121.51273","25.0099216666667","6500400","永和區"
"232011","375-UM","2017/12/11 18:59:54","新北市坪林區坪林街25號","121.711908333333","24.936635","6502000","坪林區"
"244013","069-UM","2017/12/11 18:59:43","新北市林口區麗園一街6巷2-3號","121.376456666667","25.0698083333333","6501700","林口區"
"244019","403-UM","2017/12/11 18:59:35","新北市林口區忠孝路622巷3弄1號","121.377901666667","25.0675833333333","6501700","林口區"
"244009","410-SL","2017/12/11 18:59:52","新北市林口區竹林路446巷2弄2號","121.387801666667","25.0854466666667","6501700","林口區"
"244023","483-VK","2017/12/11 18:59:45","新北市林口區民權路77號","121.371926666667","25.0808783333333","6501700","林口區"
"244017","485-VK","2017/12/11 18:59:31","新北市林口區頂福里6鄰32號","121.362191666667","25.09633","6501700","林口區"
"244011","701-TV","2017/12/11 18:59:48","新北市林口區仁愛路一段258號","121.394223333333","25.0759633333333","6501700","林口區"
"244025","837-TS","2017/12/11 18:59:35","新北市林口區民族路82巷20號","121.366496666667","25.0750183333333","6501700","林口區"
"243012","AAD-798","2017/12/11 18:59:36","新北市泰山區福興三街170號","121.432423333333","25.0569766666667","6501600","泰山區"
"243011","297-R6","2017/12/11 18:59:37","新北市泰山區明志路二段246號","121.427036666667","25.0479616666667","6501600","泰山區"
"243015","380-SR","2017/12/11 18:59:50","新北市泰山區明志路一段220號","121.432625","25.0614133333333","6501600","泰山區"
"243014","421-VK","2017/12/11 18:59:50","新北市泰山區泰林路二段595號","121.421668333333","25.06349","6501600","泰山區"
"243010","KEA-2215","2017/12/11 18:59:34","新北市泰山區辭修路24號","121.428978333333","25.058125","6501600","泰山區"
"243009","KEA-2216","2017/12/11 18:59:47","新北市泰山區泰林路二段236號","121.4323","25.06212","6501600","泰山區"
"243013","646-TV","2017/12/11 18:59:41","新北市泰山區明志路三段353號","121.42203","25.0351316666667","6501600","泰山區"
"243016","680-BX","2017/12/11 18:59:39","新北市泰山區明志路二段131號","121.427836666667","25.0508516666667","6501600","泰山區"
"222003","436-BY","2017/12/11 18:59:47","新北市深坑區深南路51-1號","121.621378333333","25.0101583333333","6501800","深坑區"
"222002","659-BX","2017/12/11 18:59:37","新北市深坑區文山路一段33號","121.629823333333","25.0041983333333","6501800","深坑區"
"231041","001-UM","2017/12/11 18:59:35","新北市新店區環河路64號","121.53701","24.9627083333333","6500600","新店區"
"231059","046-UY","2017/12/11 18:59:33","新北市新店區安康路一段266巷4號","121.519786666667","24.96409","6500600","新店區"
"231061","047-UY","2017/12/11 18:59:52","新北市新店區安康路一段355-4號","121.517361666667","24.9639","6500600","新店區"
"231060","106-UY","2017/12/11 18:59:47","新北市新店區安豐路49號","121.500116666667","24.95409","6500600","新店區"
"231051","107-UY","2017/12/11 18:59:36","新北市新店區三民路189號","121.535276666667","24.97552","6500600","新店區"
"231047","108-UY","2017/12/11 18:59:44","新北市新店區德正街27巷29弄28號","121.545768333333","24.9722916666667","6500600","新店區"
"231052","187-VK","2017/12/11 18:59:41","新北市新店區新烏路二段50巷1號","121.547235","24.9283966666667","6500600","新店區"
"231050","KEA-2219","2017/12/11 18:59:49","新北市新店區北宜路二段30巷5弄8號","121.548216666667","24.950765","6500600","新店區"
"231063","268-BY","2017/12/11 18:59:39","新北市新店區車子路110號","121.505235","24.95208","6500600","新店區"
"231046","278-BY","2017/12/11 18:59:47","新北市新店區直潭五街28號","121.534113333333","24.9415866666667","6500600","新店區"
"231054","AAD-862","2017/12/11 18:59:48","新北市新店區新店路13號","121.540343333333","24.9528916666667","6500600","新店區"
"231058","3712-VJ","2017/12/11 18:59:38","新北市新店區中興路一段121號","121.541596666667","24.963045","6500600","新店區"
"231056","3713-VJ","2017/12/11 18:59:34","新北市新店區大同街2號","121.539771666667","24.9800716666667","6500600","新店區"
"231055","4716-K9","2017/12/11 18:59:44","新北市新店區新生街10巷11號","121.540586666667","24.9664816666667","6500600","新店區"
"231067","4772-VM","2017/12/11 18:59:47","新北市新店區安康路一段247巷4弄4號","121.52419","24.9626216666667","6500600","新店區"
"231065","512-UM","2017/12/11 18:59:39","新北市新店區安祥路147巷84號","121.475603333333","24.9554366666667","6500600","新店區"
"231064","515-UM","2017/12/11 18:59:38","新北市新店區安忠路8號","121.514765","24.9631816666667","6500600","新店區"
"231042","616-UM","2017/12/11 18:59:37","新北市新店區中興路一段280號","121.545616666667","24.968515","6500600","新店區"
"231040","619-UM","2017/12/11 18:59:40","新北市新店區中正路366號","121.53523","24.9761883333333","6500600","新店區"
"231049","719-UM","2017/12/11 18:59:46","新北市新店區中正路454-5號","121.534541666667","24.979065","6500600","新店區"
"231062","720-UM","2017/12/11 18:59:37","新北市新店區吉安街41號","121.51542","24.9660716666667","6500600","新店區"
"231044","897-TW","2017/12/11 18:59:34","新北市新店區寶中路72號","121.54789","24.9805633333333","6500600","新店區"
"231045","898-TW","2017/12/11 18:59:42","新北市新店區光明街41號","121.538498333333","24.95985","6500600","新店區"
"231043","899-TW","2017/12/11 18:59:47","新北市新店區北新路二段18號","121.54277","24.9712883333333","6500600","新店區"
"231066","AKT-0513","2017/12/11 18:59:50","新北市新店區安祥路35-1號","121.49175","24.9558683333333","6500600","新店區"
"241029","942-UM","2017/12/11 18:59:50","新北市三重區重安街13巷4號","121.49049","25.0572266666667","6500200","三重區"
"235066","003-UY","2017/12/11 18:59:43","新北市中和區中山路二段131巷11號","121.502798333333","25.00242","6500300","中和區"
"235064","005-UY","2017/12/11 18:59:38","新北市中和區中和路49號","121.50018","25.0013816666667","6500300","中和區"
"235063","006-UY","2017/12/11 18:59:48","新北市中和區連城路319巷3弄10號","121.489638333333","24.9956916666667","6500300","中和區"
"235046","031-BX","2017/12/11 18:59:41","新北市中和區興南路一段135巷22弄12號","121.509095","24.9868033333333","6500300","中和區"
"235056","096-UM","2017/12/11 18:59:56","新北市中和區新民街96號","121.481235","25.0084716666667","6500300","中和區"
"235039","097-UM","2017/12/11 18:59:44","新北市中和區安樂路217巷40弄2號","121.513501666667","24.998135","6500300","中和區"
"235040","150-BY","2017/12/11 18:59:33","新北市中和區宜安路3號","121.513273333333","24.9952566666667","6500300","中和區"
"235058","151-BY","2017/12/11 18:59:45","新北市中和區連城路571號","121.4792","24.9945033333333","6500300","中和區"
"235055","183-VK","2017/12/11 18:59:48","新北市中和區民德路25巷4號","121.469126666667","25.0027083333333","6500300","中和區"
"235038","185-VK","2017/12/11 18:59:49","新北市中和區大仁街20巷1號","121.517761666667","24.993335","6500300","中和區"
"235049","186-VK","2017/12/11 18:59:37","新北市中和區景安路167巷19號","121.506281666667","24.9949266666667","6500300","中和區"
"235067","255-BX","2017/12/11 18:59:52","新北市中和區民樂路78號","121.484405","25.001115","6500300","中和區"
"235044","293-VK","2017/12/11 18:59:48","新北市中和區中興街161巷8弄5號","121.501031666667","24.99082","6500300","中和區"
"235072","301-VK","2017/12/11 18:59:40","新北市中和區中山路二段255號","121.497505","25.0023933333333","6500300","中和區"
"235043","352-BY","2017/12/11 18:59:53","新北市中和區成功路139號","121.525843333333","24.990585","6500300","中和區"
"235068","377-QA","2017/12/11 18:59:34","新北市中和區圓通路265巷60號","121.496268333333","24.9924883333333","6500300","中和區"
"235061","378-QA","2017/12/11 18:59:50","新北市中和區民享街79巷6號","121.474626666667","25.0019616666667","6500300","中和區"
"235050","4979-A6","2017/12/11 18:59:54","新北市中和區華新街50巷7號","121.507621666667","24.9838916666667","6500300","中和區"
"235069","4980-A6","2017/12/11 18:59:54","新北市中和區中和路165巷14號","121.503145","25.00047","6500300","中和區"
"235042","551-UM","2017/12/11 18:59:43","新北市中和區秀朗路三段50巷2弄8號","121.526096666667","24.9959533333333","6500300","中和區"
"235070","558-UM","2017/12/11 18:59:53","新北市中和區安和路216-1號","121.506041666667","24.9990516666667","6500300","中和區"
"235045","565-BX","2017/12/11 18:59:50","新北市中和區景新街467巷6號","121.5137","24.9881566666667","6500300","中和區"
"235054","640-BX","2017/12/11 18:59:51","新北市中和區民享街29巷1-1號","121.474023333333","25.0045","6500300","中和區"
"235060","647-TV","2017/12/11 18:59:39","新北市中和區中山路三段136號","121.473981666667","25.0061816666667","6500300","中和區"
"235047","732-UM","2017/12/11 18:59:45","新北市中和區興南路二段74巷1號","121.50521","24.9850683333333","6500300","中和區"
"235062","800-TS","2017/12/11 18:59:45","新北市中和區中山路二段359巷2號","121.488251666667","25.0044733333333","6500300","中和區"
"235057","801-TS","2017/12/11 18:59:48","新北市中和區民安街63號","121.478781666667","24.9997216666667","6500300","中和區"
"235041","802-TS","2017/12/11 18:59:43","新北市中和區安平路132號","121.512045","24.9978566666667","6500300","中和區"
"235052","805-TS","2017/12/11 18:59:48","新北市中和區興南路二段114巷21弄1號","121.503715","24.9844083333333","6500300","中和區"
"235048","896-TW","2017/12/11 18:59:47","新北市中和區華新街109巷1-3號","121.509061666667","24.9822016666667","6500300","中和區"
"235053","900-TW","2017/12/11 18:59:41","新北市板橋區和平路174巷40弄1號","121.465456666667","24.99377","6500300","中和區"
"235064","911-UM","2017/12/11 18:59:38","新北市中和區中山路二段2巷45弄28號","121.501871666667","25.0067733333333","6500300","中和區"
"235051","157-BY","2017/12/11 18:59:32","新北市中和區忠孝街106巷43號","121.513726666667","24.98432","6500300","中和區"
"235037","AAC-213","2017/12/11 18:59:51","新北市中和區自立路101號","121.522145","24.994805","6500300","中和區"
"235059","AAC-215","2017/12/11 18:59:52","新北市中和區圓通路369巷33弄7號","121.491185","24.98799","6500300","中和區"
"220068","013-TV","2017/12/11 18:59:53","新北市板橋區縣民大道三段270巷6號","121.478148333333","25.0232683333333","6500100","板橋區"
"220065","072-UY","2017/12/11 18:59:53","新北市板橋區民族路285號","121.471218333333","25.0069083333333","6500100","板橋區"
"220086","073-UY","2017/12/11 18:59:44","新北市板橋區中正路80巷5號","121.456985","25.014615","6500100","板橋區"
"220106","075-UY","2017/12/11 18:59:40","新北市板橋區文化路二段124巷24號","121.47115","25.0256583333333","6500100","板橋區"
"220069","AAD-861","2017/12/11 18:59:35","新北市板橋區華興街73-1號","121.457153333333","25.0050266666667","6500100","板橋區"
"220102","120-SR","2017/12/11 18:59:39","新北市板橋區雙十路一段44巷36號","121.477163333333","25.02477","6500100","板橋區"
"226004","312-R5","2017/12/11 18:59:41","新北市平溪區嶺腳里嶺腳寮1號","121.746623333333","25.0290783333333","6502400","平溪區"
"228003","097-TW","2017/12/11 18:59:38","新北市貢寮區和美里龍洞街46號","121.912908333333","25.1118716666667","6502600","貢寮區"
"228002","585-TW","2017/12/11 18:59:38","新北市貢寮區福隆里東興街106巷21弄2號","121.945988333333","25.01772","6502600","貢寮區"
"228001","670-TC","2017/12/11 18:59:34","新北市貢寮區仁理村研海街12-1號","121.923813333333","25.0516583333333","6502600","貢寮區"
"224010","AGQ-8101","2017/12/11 18:59:33","新北市瑞芳區基山街36號","121.844833333333","25.1083866666667","6501200","瑞芳區"
"224006","676-BX","2017/12/11 18:59:46","新北市瑞芳區中正路2號","121.808925","25.1070683333333","6501200","瑞芳區"
"224009","285-BY","2017/12/11 18:59:51","新北市瑞芳區洞頂路148號","121.8597","25.11787","6501200","瑞芳區"
"224008","275-VK","2017/12/11 18:59:50","新北市瑞芳區逢甲路343-13號","121.79921","25.1124033333333","6501200","瑞芳區"
"224007","273-VK","2017/12/11 18:59:50","新北市瑞芳區中央路48巷166號","121.759176666667","25.1032866666667","6501200","瑞芳區"
"224005","271-BY","2017/12/11 18:59:44","新北市瑞芳區濱二路73號","121.828911666667","25.1207883333333","6501200","瑞芳區"
"227001","642-TC","2017/12/11 18:59:51","新北市雙溪區平林里康福家園10號","121.858803333333","25.0373433333333","6502500","雙溪區"
"227008","400-TW","2017/12/11 18:59:47","新北市雙溪區牡丹里中正路58巷23號","121.86645","25.041565","6502500","雙溪區"
"253005","032-BX","2017/12/11 18:59:36","新北市石門區中央路37-5號","121.570251666667","25.2966816666667","6502200","石門區"
"253006","741-TV","2017/12/11 18:59:42","新北市石門區八甲11號","121.521981666667","25.2813866666667","6502200","石門區"
"222001","KEA-2212","2017/12/11 18:59:41","新北市深坑區北深路一段300號","121.624861666667","25.0063216666667","6501800","深坑區"
"208002","742-BX","2017/12/11 18:59:36","新北市金山區仁愛路67巷14號","121.63456","25.22085","6502700","金山區"
"208003","665-BX","2017/12/11 18:59:50","新北市金山區中正路32號","121.635436666667","25.2221766666667","6502700","金山區"
"208001","761-BX","2017/12/11 18:59:45","新北市金山區中山路87號","121.6402","25.2187783333333","6502700","金山區"
"251009","008-UM","2017/12/11 18:59:52","新北市淡水區重建街36號","121.43992","25.171245","6501000","淡水區"
"251005","010-UM","2017/12/11 18:59:48","新北市淡水區新生街20-5號","121.438815","25.174","6501000","淡水區"
"251007","179-VK","2017/12/11 18:59:49","新北市淡水區民生路113巷1弄41號","121.462901666667","25.138595","6501000","淡水區"
"251013","182-VK","2017/12/11 18:59:50","新北市淡水區安子內3號","121.487671666667","25.2155733333333","6501000","淡水區"
"251010","413-VK","2017/12/11 18:59:38","新北市淡水區沙崙路97號","121.422221666667","25.1824416666667","6501000","淡水區"
"251015","442-VK","2017/12/11 18:59:49","新北市淡水區糞箕湖60號","121.485208333333","25.17234","6501000","淡水區"
"251001","559-UM","2017/12/11 18:59:36","新北市淡水區自強路58號","121.463213333333","25.1275833333333","6501000","淡水區"
"251002","672-BX","2017/12/11 18:59:48","新北市淡水區學府路20號","121.447523333333","25.1680866666667","6501000","淡水區"
"251003","766-UM","2017/12/11 18:59:48","新北市淡水區中山北路一段149巷24號","121.442923333333","25.177955","6501000","淡水區"
"207003","550-UM","2017/12/11 18:59:37","新北市萬里區大鵬里頂社28號","121.656815","25.21058","6502800","萬里區"
"207004","225-TW","2017/12/11 18:59:38","新北市萬里區萬里里獅頭路23號","121.693255","25.1782833333333","6502800","萬里區"
"252002","178-VK","2017/12/11 18:59:47","新北市三芝區中正路一段67-1號","121.503991666667","25.2573783333333","6502100","三芝區"
"252003","249-BX","2017/12/11 18:59:42","新北市三芝區後厝里北勢子42-1號","121.471741666667","25.252195","6502100","三芝區"
"252001","292-VK","2017/12/11 18:59:43","新北市三芝區中興街二段260號","121.501713333333","25.253045","6502100","三芝區"
"237004","078-UY","2017/12/11 18:59:41","新北市三峽區有木205號","121.439076666667","24.8518216666667","6500900","三峽區"
"237007","153-BY","2017/12/11 18:59:55","新北市三峽區大埔路87號","121.366471666667","24.9073933333333","6500900","三峽區"
"237009","210-TH","2017/12/11 18:59:37","新北市三峽區文化路145號","121.368608333333","24.9359183333333","6500900","三峽區"
"237013","252-BX","2017/12/11 18:59:46","新北市三峽區光明路69巷25號","121.37656","24.9291316666667","6500900","三峽區"
"237012","275-BY","2017/12/11 18:59:44","新北市三峽區三樹路222巷61號","121.38363","24.94218","6500900","三峽區"
"237008","302-VK","2017/12/11 18:59:44","新北市三峽區正義街9號","121.369986666667","24.9200533333333","6500900","三峽區"
"237014","433-BY","2017/12/11 18:59:54","新北市三峽區隆恩街170號","121.363063333333","24.9428216666667","6500900","三峽區"
"237006","5529-G3","2017/12/11 18:59:47","新北市三峽區溪東路233巷47弄2號","121.410636666667","24.9346166666667","6500900","三峽區"
"237011","572-TV","2017/12/11 18:05:51","新北市三峽區介壽路三段20號","121.395993333333","24.93622","6500900","三峽區"
"237015","649-BX","2017/12/11 18:59:41","新北市三峽區建安167號","121.46654","24.9143","6500900","三峽區"
"237010","706-TV","2017/12/11 18:59:46","新北市三峽區國光街350巷8號","121.37161","24.9399333333333","6500900","三峽區"
"237005","AKY-6261","2017/12/11 18:59:44","新北市三峽區中山路459巷163-3號","121.348698333333","24.9328216666667","6500900","三峽區"
"236069","105-UM","2017/12/11 18:59:49","新北市土城區裕民路285號","121.456158333333","24.9816916666667","6501300","土城區"
"236042","107-UM","2017/12/11 18:59:50","新北市土城區學府路一段229巷9號","121.451666666667","24.9837466666667","6501300","土城區"
"236078","166-UM","2017/12/11 18:56:57","新北市土城區中央路四段464號","121.409911666667","24.9505383333333","6501300","土城區"
"236030","253-BX","2017/12/11 18:59:39","新北市土城區慶利街9號","121.439571666667","24.9736583333333","6501300","土城區"
"236026","269-VK","2017/12/11 18:59:50","新北市土城區中央路二段246號","121.441876666667","24.974835","6501300","土城區"
"236014","270-VK","2017/12/11 18:59:42","新北市土城區立德路36號","121.463428333333","24.9874666666667","6501300","土城區"
"236036","271-VK","2017/12/11 18:59:42","新北市土城區仁愛路34號","121.461421666667","24.9796966666667","6501300","土城區"
"236020","401-BY","2017/12/11 18:59:39","新北市土城區金城路三段54號","121.465888333333","24.9867166666667","6501300","土城區"
"236058","912-UM","2017/12/11 18:59:40","新北市土城區明德路一段385-1號","121.452418333333","24.9797683333333","6501300","土城區"
"236048","913-UM","2017/12/11 18:59:34","新北市土城區明德路一段398-1號","121.453658333333","24.9790733333333","6501300","土城區"
"236062","915-UM","2017/12/11 18:59:44","新北市土城區延和路41巷6弄8號","121.466295","24.9901383333333","6501300","土城區"
"236053","AAC-216","2017/12/11 18:59:41","新北市土城區學成路164號","121.448065","24.9891216666667","6501300","土城區"
"238023","601-UM","2017/12/11 18:59:53","新北市樹林區工興街15號","121.398211666667","25.0137283333333","6500700","樹林區"
"238019","599-UM","2017/12/11 18:59:44","新北市樹林區東榮街91巷2弄10號","121.415683333333","24.98236","6500700","樹林區"
"238018","571-TV","2017/12/11 18:59:42","新北市樹林區中華路118巷8號","121.417781666667","24.9808616666667","6500700","樹林區"
"238021","KEA-2217","2017/12/11 18:59:52","新北市樹林區西圳街二段101號","121.385521666667","24.9583466666667","6500700","樹林區"
"238025","303-VK","2017/12/11 18:59:44","新北市樹林區民和街21-1號","121.384478333333","24.9689333333333","6500700","樹林區"
"238017","283-BY","2017/12/11 18:59:46","新北市樹林區中山路三段134號","121.39192","24.9721533333333","6500700","樹林區"
"238014","282-BY","2017/12/11 18:59:43","新北市樹林區潭興街141巷1號","121.425455","24.9994166666667","6500700","樹林區"
"238020","268-VK","2017/12/11 18:59:50","新北市樹林區俊英街158號","121.426921666667","25.0063516666667","6500700","樹林區"
"238026","172-UY","2017/12/11 18:59:40","新北市樹林區佳園路一段73號","121.39371","24.9701183333333","6500700","樹林區"
"238016","169-UY","2017/12/11 18:57:41","新北市樹林區日新街148巷37號","121.419423333333","24.987935","6500700","樹林區"
"239007","AAC-297","2017/12/11 18:59:33","新北市鶯歌區成功街20巷5號","121.358623333333","24.95775","6500800","鶯歌區"
"239008","527-UM","2017/12/11 18:59:36","新北市鶯歌區國際二路38號","121.335793333333","24.9753983333333","6500800","鶯歌區"
"239005","526-UM","2017/12/11 18:59:42","新北市鶯歌區鳳吉一街121號","121.327848333333","24.974755","6500800","鶯歌區"
"239001","417-VK","2017/12/11 18:59:56","新北市鶯歌區鶯桃路122號","121.338393333333","24.954505","6500800","鶯歌區"
"239003","360-BY","2017/12/11 18:59:40","新北市鶯歌區鶯桃路505號","121.331446666667","24.96671","6500800","鶯歌區"
"239002","359-BY","2017/12/11 18:59:38","新北市鶯歌區中正一路277號","121.355236666667","24.9570316666667","6500800","鶯歌區"
"239004","193-VK","2017/12/11 18:59:45","新北市鶯歌區二橋新村32號","121.329208333333","24.9344633333333","6500800","鶯歌區"
"221008","489-VK","2017/12/11 18:59:37","新北市汐止區康寧街753巷2弄8號","121.639311666667","25.07393","6501100","汐止區"
"221036","130-UY","2017/12/11 18:59:32","新北市汐止區南昌街21號","121.663341666667","25.06938","6501100","汐止區"
"221010","269-BY","2017/12/11 18:59:45","新北市汐止區汐萬路二段9號","121.649388333333","25.0803633333333","6501100","汐止區"
"221012","278-VK","2017/12/11 18:59:45","新北市汐止區康寧街901號","121.650813333333","25.0752283333333","6501100","汐止區"
"221023","279-VK","2017/12/11 18:59:40","新北市汐止區康寧街901號","121.650985","25.07524","6501100","汐止區"
"221032","280-BY","2017/12/11 18:59:52","新北市汐止區橫科路407巷81弄5號","121.628978333333","25.0479666666667","6501100","汐止區"
"221027","281-BY","2017/12/11 18:59:51","新北市汐止區康寧街901號","121.651415","25.07497","6501100","汐止區"
"221029","298-VK","2017/12/11 18:59:39","新北市汐止區樟樹一路256號","121.642366666667","25.0673316666667","6501100","汐止區"
"221021","299-VK","2017/12/11 18:59:38","新北市汐止區康寧街901號","121.65151","25.0750416666667","6501100","汐止區"
"221031","353-TW","2017/12/11 18:59:42","新北市汐止區福德二路156巷27號","121.629963333333","25.0655383333333","6501100","汐止區"
"221015","567-BX","2017/12/11 18:59:36","新北市汐止區鄉長路一段55巷22號","121.664788333333","25.076345","6501100","汐止區"
"221035","622-UM","2017/12/11 18:59:51","新北市汐止區汐萬路一段256巷3號","121.653361666667","25.074775","6501100","汐止區"
"221025","623-UM","2017/12/11 18:59:36","新北市汐止區汐萬路一段256巷3號","121.65244","25.0745783333333","6501100","汐止區"
"221038","646-BX","2017/12/11 18:59:45","新北市汐止區汐萬路一段312號","121.650658333333","25.0753166666667","6501100","汐止區"
"221033","647-BX","2017/12/11 18:59:38","新北市汐止區南勢街1巷2號","121.626986666667","25.0374816666667","6501100","汐止區"
"221002","707-TV","2017/12/11 18:59:52","新北市汐止區大同路一段4號","121.62109","25.0550416666667","6501100","汐止區"
"221012","753-BX","2017/12/11 18:59:46","新北市汐止區茄苳路42號","121.665933333333","25.07079","6501100","汐止區"
"220079","145-BY","2017/12/11 18:59:52","新北市板橋區民權路202巷9弄90號","121.458973333333","25.0157816666667","6500100","板橋區"
"220082","610-BX","2017/12/11 18:59:49","新北市板橋區滿平街101號","121.428408333333","24.9886233333333","6500100","板橋區"
"220101","245-BX","2017/12/11 16:58:16","新北市板橋區民生路二段161巷1號","121.470236666667","25.0198933333333","6500100","板橋區"
"220056","276-BY","2017/12/11 18:59:41","新北市板橋區信義路150巷38號","121.457335","24.9918133333333","6500100","板橋區"
"220072","277-BY","2017/12/11 18:59:48","新北市板橋區篤行路一段33號","121.43204","24.9942683333333","6500100","板橋區"
"220071","283-VK","2017/12/11 18:59:45","新北市板橋區重慶路243號","121.46314","25.000605","6500100","板橋區"
"220094","285-UM","2017/12/11 18:59:50","新北市板橋區莒光路1-1號","121.469568333333","25.0248933333333","6500100","板橋區"
"220053","285-VK","2017/12/11 18:59:40","新北市板橋區中山路二段89巷45號","121.473681666667","25.0173","6500100","板橋區"
"220083","286-VK","2017/12/11 18:59:21","新北市板橋區大觀路一段38巷156弄9號","121.442413333333","25.0050366666667","6500100","板橋區"
"220081","287-VK","2017/12/11 18:59:52","新北市板橋區光華街19巷6號","121.453703333333","25.0121066666667","6500100","板橋區"
"220090","288-VK","2017/12/11 18:59:50","新北市板橋區四維路177巷3弄1號","121.463978333333","25.0261683333333","6500100","板橋區"
"220061","293-UM","2017/12/11 18:59:43","新北市板橋區富山街109巷69號","121.475301666667","25.0212133333333","6500100","板橋區"
"220084","296-UM","2017/12/11 18:59:47","新北市板橋區大觀路二段174巷116弄49號","121.442426666667","25.0012616666667","6500100","板橋區"
"220092","299-UM","2017/12/11 18:59:47","新北市板橋區漢生東路21號","121.465","25.0172316666667","6500100","板橋區"
"220062","305-R5","2017/12/11 18:59:40","新北市板橋區中山路二段176號","121.47722","25.0173216666667","6500100","板橋區"
"220098","317-R6","2017/12/11 18:59:40","新北市板橋區民有街13號","121.466255","25.0248233333333","6500100","板橋區"
"220080","461-BY","2017/12/11 18:59:49","新北市板橋區大觀路二段265巷3弄7號","121.443163333333","24.998285","6500100","板橋區"
"220064","486-VK","2017/12/11 18:59:53","新北市板橋區漢生東路133號","121.467903333333","25.0141933333333","6500100","板橋區"
"220089","487-VK","2017/12/11 18:59:51","新北市板橋區民生路二段250號","121.46841","25.0234683333333","6500100","板橋區"
"220088","491-VK","2017/12/11 18:59:45","新北市板橋區民生路二段234巷9號","121.468433333333","25.0228533333333","6500100","板橋區"
"220035","560-BX","2017/12/11 18:59:51","新北市板橋區中正路341巷21號","121.454268333333","25.02011","6500100","板橋區"
"220103","561-BX","2017/12/11 18:59:52","新北市板橋區民生路二段123號","121.47069","25.0185683333333","6500100","板橋區"
"220075","568-UM","2017/12/11 18:59:33","新北市板橋區茶館街28-2號","121.456426666667","25.0106","6500100","板橋區"
"220063","609-BX","2017/12/11 18:59:51","新北市板橋區中山路二段104號","121.475781666667","25.0166566666667","6500100","板橋區"
"220091","637-BX","2017/12/11 18:59:47","新北市板橋區雙十路二段47巷52號","121.47483","25.0253416666667","6500100","板橋區"
"220057","686-BX","2017/12/11 18:59:38","新北市板橋區館前西路53號","121.457708333333","25.0065333333333","6500100","板橋區"
"220077","687-BX","2017/12/11 18:59:37","新北市板橋區大觀路二段146-2號","121.442063333333","24.9988133333333","6500100","板橋區"
"220093","689-BX","2017/12/11 18:59:39","新北市板橋區文化路一段435巷16號","121.467936666667","25.023605","6500100","板橋區"
"220054","741-BX","2017/12/11 18:59:49","新北市板橋區後埔街28號","121.460451666667","25.00635","6500100","板橋區"
"220055","827-TW","2017/12/11 18:59:36","新北市板橋區新站路3號","121.467026666667","25.011355","6500100","板橋區"
"220067","829-TW","2017/12/11 18:59:43","新北市板橋區三民路二段154巷8號","121.478573333333","25.015045","6500100","板橋區"
"220096","831-TW","2017/12/11 18:59:34","新北市板橋區莒光路74號","121.47143","25.0241383333333","6500100","板橋區"
"220074","895-R6","2017/12/11 18:59:48","新北市板橋區西門街59號","121.45452","25.0092016666667","6500100","板橋區"
"220073","985-R7","2017/12/11 18:59:47","新北市板橋區民權路258-1號","121.458056666667","25.01502","6500100","板橋區"
"220097","AAC-210","2017/12/11 18:59:47","新北市板橋區漢生東路21號","121.464926666667","25.0172783333333","6500100","板橋區"
"220070","AAC-253","2017/12/11 18:59:49","新北市板橋區四川路一段353號","121.458268333333","24.999815","6500100","板橋區"
