"lineid","car","time","location","longitude","latitude","cityid","cityname"
"234046","148-BY","2017/12/11 20:11:40","新北市永和區秀朗路二段259號","121.526401666667","24.9991","6500400","永和區"
"234013","149-BY","2017/12/11 20:11:39","新北市永和區永貞路387號","121.508046666667","25.008645","6500400","永和區"
"234007","207-UY","2017/12/11 20:11:35","新北市永和區保順路11號","121.50428","25.009785","6500400","永和區"
"234081","298-R6","2017/12/11 20:11:41","新北市永和區永亨路107號","121.523398333333","25.0048916666667","6500400","永和區"
"234038","336-UY","2017/12/11 20:11:50","新北市永和區成功路一段60號","121.526935","25.0038516666667","6500400","永和區"
"234064","337-UY","2017/12/11 20:11:40","新北市永和區得和路249-4號","121.520795","24.999945","6500400","永和區"
"234086","338-UY","2017/12/11 20:11:39","新北市永和區福和路277號","121.517501666667","25.0073833333333","6500400","永和區"
"234070","552-UM","2017/12/11 20:11:48","新北市永和區永貞路8號","121.520801666667","25.0072716666667","6500400","永和區"
"234054","553-UM","2017/12/11 20:11:34","新北市永和區博愛街15號","121.517145","25.0158116666667","6500400","永和區"
"234017","745-BX","2017/12/11 20:11:37","新北市永和區文化路84號","121.514","25.0152","6500400","永和區"
"234030","746-BX","2017/12/11 20:11:37","新北市永和區民權路49巷7號","121.520566666667","24.9973133333333","6500400","永和區"
"234061","AAD-866","2017/12/11 20:11:32","新北市永和區中正路151巷1-1號","121.516358333333","24.9981883333333","6500400","永和區"
"234042","862-TW","2017/12/11 20:11:33","新北市永和區雙和街10號","121.509661666667","25.0018233333333","6500400","永和區"
"234050","863-TW","2017/12/11 20:11:38","新北市永和區新生路182巷5號","121.505966666667","25.013785","6500400","永和區"
"234011","9373-KE","2017/12/11 20:11:34","新北市永和區仁愛路352巷122弄15號","121.50079","25.0089466666667","6500400","永和區"
"249005","172-UM","2017/12/11 20:11:43","新北市八里區下罟子60-8號","121.387565","25.1369733333333","6502300","八里區"
"249001","173-UM","2017/12/11 20:11:28","新北市八里區中華路二段322號","121.403338333333","25.1479566666667","6502300","八里區"
"249004","303-UY","2017/12/11 20:11:39","新北市八里區中山路一段398巷20號","121.41145","25.1587166666667","6502300","八里區"
"249002","305-UY","2017/12/11 20:11:46","新北市八里區龍米路一段51號","121.456455","25.1193616666667","6502300","八里區"
"249003","759-BX","2017/12/11 20:11:41","新北市八里區中山路二段540巷9弄15號","121.396615","25.1467966666667","6502300","八里區"
"248014","025-BX","2017/12/11 20:11:32","新北市五股區成泰路三段83號","121.443891666667","25.0900766666667","6501500","五股區"
"248016","026-BX","2017/12/11 20:11:42","新北市五股區成泰路三段577巷136號","121.447913333333","25.1043416666667","6501500","五股區"
"248018","225-UY","2017/12/11 20:11:36","新北市五股區明德路9號","121.434958333333","25.0712666666667","6501500","五股區"
"248012","247-BX","2017/12/11 20:11:42","新北市五股區六合街94號","121.431201666667","25.0910166666667","6501500","五股區"
"248010","272-BY","2017/12/11 20:11:37","新北市五股區成泰路一段7巷48弄8號","121.432758333333","25.06782","6501500","五股區"
"248004","677-BX","2017/12/11 20:11:42","新北市五股區成泰路一段114號","121.435461666667","25.07313","6501500","五股區"
"248002","678-BX","2017/12/11 20:11:37","新北市五股區成泰路三段277號","121.447205","25.0940916666667","6501500","五股區"
"234023","9380-KE","2017/12/11 20:11:41","新北市永和區中正路662巷25號","121.517613333333","25.008835","6500400","永和區"
"234077","969-R7","2017/12/11 20:11:47","新北市永和區民光街22巷2號","121.516076666667","24.995715","6500400","永和區"
"234074","AAC-211","2017/12/11 20:11:49","新北市永和區豫溪街147號","121.520853333333","25.0103816666667","6500400","永和區"
"234067","AAC-212","2017/12/11 20:11:49","新北市永和區保平路236巷15弄1號","121.5086","25.0062566666667","6500400","永和區"
"234003","AAC-295","2017/12/11 20:11:46","新北市永和區自強街28巷3號","121.515675","25.00794","6500400","永和區"
"243012","AAD-798","2017/12/11 20:11:36","新北市泰山區楓江路110號","121.438476666667","25.064025","6501600","泰山區"
"243011","297-R6","2017/12/11 20:11:42","新北市泰山區壽山路32號","121.420636666667","25.0289766666667","6501600","泰山區"
"243015","380-SR","2017/12/11 20:11:44","新北市泰山區明志路一段361號","121.430845","25.05826","6501600","泰山區"
"243014","421-VK","2017/12/11 20:11:45","新北市泰山區明志路一段120號","121.433381666667","25.06358","6501600","泰山區"
"243010","KEA-2215","2017/12/11 20:11:34","新北市泰山區明志路二段214巷16弄35號","121.42682","25.050235","6501600","泰山區"
"243009","KEA-2216","2017/12/11 20:11:36","新北市泰山區福泰街24巷4號","121.43331","25.0597483333333","6501600","泰山區"
"243013","646-TV","2017/12/11 20:11:41","新北市泰山區民國街21號","121.425685","25.0434016666667","6501600","泰山區"
"243016","680-BX","2017/12/11 20:11:39","新北市泰山區貴陽街3號","121.421396666667","25.033375","6501600","泰山區"
"222003","436-BY","2017/12/11 20:11:35","新北市深坑區埔新街89號","121.619601666667","25.0023566666667","6501800","深坑區"
"222002","659-BX","2017/12/11 20:11:37","新北市深坑區北深路三段158巷48號","121.60143","25.004805","6501800","深坑區"
"231041","001-UM","2017/12/11 20:11:39","新北市新店區民權路180-1號","121.534401666667","24.9828283333333","6500600","新店區"
"231059","046-UY","2017/12/11 20:11:33","新北市新店區安德街60巷35號","121.511203333333","24.9635533333333","6500600","新店區"
"231061","047-UY","2017/12/11 20:11:31","新北市新店區光華街38巷11號","121.515826666667","24.9703433333333","6500600","新店區"
"231060","106-UY","2017/12/11 20:11:47","新北市新店區安康路三段381號","121.483531666667","24.9503266666667","6500600","新店區"
"231051","107-UY","2017/12/11 20:11:36","新北市新店區中央六街3號","121.53038","24.9744583333333","6500600","新店區"
"231047","108-UY","2017/12/11 20:11:41","新北市新店區永華街59號","121.544698333333","24.97562","6500600","新店區"
"231052","187-VK","2017/12/11 20:11:41","新北市新店區新烏路三段286號","121.549785","24.89838","6500600","新店區"
"231050","KEA-2219","2017/12/11 20:11:29","新北市新店區北新路一段96巷23號","121.542751666667","24.9687166666667","6500600","新店區"
"231057","256-BX","2017/12/11 20:11:44","新北市新店區花園一路一段2號","121.553151666667","24.9324216666667","6500600","新店區"
"231063","268-BY","2017/12/11 20:11:39","新北市新店區黎明路52巷2號","121.501908333333","24.9488583333333","6500600","新店區"
"231054","AAD-862","2017/12/11 20:11:48","新北市新店區檳榔路37號","121.542551666667","24.9635733333333","6500600","新店區"
"231058","3712-VJ","2017/12/11 20:11:38","新北市新店區薏仁坑路2-4號","121.501651666667","24.9584833333333","6500600","新店區"
"231056","3713-VJ","2017/12/11 20:11:34","新北市新店區中正路154巷1號","121.541693333333","24.9718883333333","6500600","新店區"
"231055","4716-K9","2017/12/11 20:11:44","新北市新店區中華路42巷39號","121.541328333333","24.9694183333333","6500600","新店區"
"231067","4772-VM","2017/12/11 20:11:47","新北市新店區溪洲路6巷32號","121.53388","24.9625833333333","6500600","新店區"
"231065","512-UM","2017/12/11 20:11:39","新北市新店區安祥路106巷157號","121.473595","24.9591066666667","6500600","新店區"
"231064","515-UM","2017/12/11 20:11:38","新北市新店區安德街60巷27號","121.511176666667","24.9632983333333","6500600","新店區"
"231042","616-UM","2017/12/11 20:11:37","新北市新店區中興路二段224號","121.547986666667","24.9750633333333","6500600","新店區"
"231040","619-UM","2017/12/11 20:11:40","新北市新店區中正路108號","121.543101666667","24.9706866666667","6500600","新店區"
"231068","718-UY","2017/12/11 20:11:34","新北市新店區中興路三段204號","121.543876666667","24.98206","6500600","新店區"
"231049","719-UM","2017/12/11 20:11:46","新北市新店區北新路二段97巷9弄15號","121.542215","24.9738533333333","6500600","新店區"
"231062","720-UM","2017/12/11 20:11:37","新北市新店區安康路二段393號","121.494318333333","24.9538983333333","6500600","新店區"
"231044","897-TW","2017/12/11 20:11:34","新北市新店區寶慶街58巷21-1號","121.542026666667","24.9873866666667","6500600","新店區"
"231045","898-TW","2017/12/11 20:11:42","新北市新店區北宜路一段111號","121.540105","24.9545083333333","6500600","新店區"
"231043","899-TW","2017/12/11 20:11:47","新北市新店區民族路161號","121.537585","24.9767816666667","6500600","新店區"
"231066","AKT-0513","2017/12/11 20:11:50","新北市新店區安民街175號","121.516753333333","24.970365","6500600","新店區"
"241011","013-R5","2017/12/11 20:11:36","新北市三重區仁愛街32號","121.496371666667","25.0717633333333","6500200","三重區"
"241008","059-VK","2017/12/11 20:11:28","新北市三重區永福街179巷4號","121.478835","25.0745133333333","6500200","三重區"
"241009","060-VK","2017/12/11 20:11:44","新北市三重區永福街125巷22號","121.478018333333","25.07728","6500200","三重區"
"241015","062-VK","2017/12/11 20:11:46","新北市三重區福德北路12號","121.50241","25.0643716666667","6500200","三重區"
"241017","063-VK","2017/12/11 20:11:46","新北市三重區長壽西街167號","121.492665","25.0665716666667","6500200","三重區"
"241026","066-VK","2017/12/11 20:11:43","新北市三重區中央南路124號","121.501608333333","25.05995","6500200","三重區"
"241002","090-VK","2017/12/11 20:11:31","新北市三重區仁忠街11號","121.497258333333","25.08284","6500200","三重區"
"241003","091-VK","2017/12/11 20:11:34","新北市三重區分子尾街45號","121.489258333333","25.0820116666667","6500200","三重區"
"241019","156-TC","2017/12/11 20:11:37","新北市三重區自強路二段33巷48號","121.490596666667","25.0698483333333","6500200","三重區"
"241005","262-UM","2017/12/11 20:11:38","新北市三重區碧華街251號","121.489405","25.083085","6500200","三重區"
"241024","265-UM","2017/12/11 20:11:43","新北市三重區中正北路294號","121.480211666667","25.0689833333333","6500200","三重區"
"241016","266-UM","2017/12/11 20:11:49","新北市三重區大同北路91號","121.49461","25.06356","6500200","三重區"
"241022","267-UM","2017/12/11 20:11:41","新北市三重區重陽路二段1號","121.48687","25.0615166666667","6500200","三重區"
"241018","268-UM","2017/12/11 20:11:38","新北市三重區自強路一段236號","121.493358333333","25.0671016666667","6500200","三重區"
"241032","269-UM","2017/12/11 20:11:40","新北市三重區捷運路19巷1號","121.485336666667","25.0562933333333","6500200","三重區"
"241013","270-UM","2017/12/11 20:11:45","新北市三重區三和路三段151巷60號","121.493951666667","25.0743783333333","6500200","三重區"
"241025","271-UM","2017/12/11 20:11:29","新北市三重區中正北路342號","121.478316666667","25.0693033333333","6500200","三重區"
"241007","398-BY","2017/12/11 20:11:40","新北市三重區三和路四段111-2號","121.485725","25.0773","6500200","三重區"
"241031","KEA-2210","2017/12/11 20:11:47","新北市三重區三寧街18號","121.489433333333","25.0598866666667","6500200","三重區"
"241020","413-TH","2017/12/11 20:11:41","新北市三重區忠孝路一段75號","121.49057","25.072055","6500200","三重區"
"241004","475-VK","2017/12/11 20:11:45","新北市三重區溪尾街109號","121.489763333333","25.0786466666667","6500200","三重區"
"241030","480-VK","2017/12/11 20:11:36","新北市三重區集美街75巷22號","121.488053333333","25.0530016666667","6500200","三重區"
"241014","543-UM","2017/12/11 20:11:33","新北市三重區長樂街112號","121.501603333333","25.0695566666667","6500200","三重區"
"241023","545-UM","2017/12/11 20:11:47","新北市三重區頂崁街239號","121.47694","25.0686033333333","6500200","三重區"
"241001","547-UM","2017/12/11 20:11:38","新北市三重區三和路四段89巷22號","121.489991666667","25.0759233333333","6500200","三重區"
"241006","AAD-863","2017/12/11 20:11:33","新北市三重區力行路二段61號","121.482225","25.0747683333333","6500200","三重區"
"241035","743-BX","2017/12/11 20:11:43","新北市三重區中央北路18巷41號","121.49948","25.063855","6500200","三重區"
"241028","887-TS","2017/12/11 20:11:38","新北市三重區仁化街107號","121.494443333333","25.0580216666667","6500200","三重區"
"241012","941-UM","2017/12/11 20:11:49","新北市三重區仁興街70號","121.4987","25.0764283333333","6500200","三重區"
"241029","942-UM","2017/12/11 20:11:49","新北市三重區光明路32巷30號","121.492031666667","25.0588033333333","6500200","三重區"
"241033","AAC-255","2017/12/11 20:11:47","新北市三重區光復路一段61巷23號","121.473393333333","25.0492066666667","6500200","三重區"
"235066","003-UY","2017/12/11 20:11:43","新北市中和區保平路300號","121.507841666667","25.0044983333333","6500300","中和區"
"235039","097-UM","2017/12/11 20:11:44","新北市中和區大勇街29巷14號","121.515743333333","24.9947583333333","6500300","中和區"
"235040","150-BY","2017/12/11 20:11:33","新北市中和區保健路39巷2號","121.509148333333","24.9976033333333","6500300","中和區"
"235068","377-QA","2017/12/11 20:11:50","新北市中和區中山路二段252號","121.497603333333","25.0026416666667","6500300","中和區"
"235050","4979-A6","2017/12/11 20:11:24","新北市中和區安樂路37號","121.511846666667","24.9929866666667","6500300","中和區"
"235069","4980-A6","2017/12/11 20:11:34","新北市中和區中正路454號","121.490755","24.9942283333333","6500300","中和區"
"235070","558-UM","2017/12/11 20:11:33","新北市中和區中正路224號","121.496325","24.993975","6500300","中和區"
"235064","911-UM","2017/12/11 20:11:38","新北市中和區福祥路66號","121.499286666667","25.0050883333333","6500300","中和區"
"235051","157-BY","2017/12/11 20:11:52","新北市中和區景安路220巷16號","121.502831666667","24.991365","6500300","中和區"
"235037","AAC-213","2017/12/11 20:11:31","新北市中和區自強路64號","121.519963333333","24.99434","6500300","中和區"
"235059","AAC-215","2017/12/11 20:11:32","新北市中和區圓通路367巷13弄22號","121.493193333333","24.9881483333333","6500300","中和區"
"220068","013-TV","2017/12/11 20:11:33","新北市板橋區中山路二段412巷21弄11號","121.483771666667","25.0201783333333","6500100","板橋區"
"220065","072-UY","2017/12/11 20:11:33","新北市板橋區萬安街142-2號","121.483683333333","25.0264366666667","6500100","板橋區"
"220106","075-UY","2017/12/11 20:11:40","新北市板橋區文聖街11巷15號","121.475871666667","25.032735","6500100","板橋區"
"220069","AAD-861","2017/12/11 20:11:35","新北市板橋區大明街18-5號","121.45878","25.0029066666667","6500100","板橋區"
"220102","120-SR","2017/12/11 20:11:39","新北市板橋區懷德街66巷22號","121.476851666667","25.0319416666667","6500100","板橋區"
"247022","893-R6","2017/12/11 20:11:36","新北市蘆洲區三民路171巷18號","121.470366666667","25.0869683333333","6501400","蘆洲區"
"247020","500-BY","2017/12/11 20:11:40","新北市蘆洲區民義街68巷5號","121.473451666667","25.0896216666667","6501400","蘆洲區"
"247008","341-TH","2017/12/11 20:11:31","新北市蘆洲區集賢路300號","121.48154","25.085065","6501400","蘆洲區"
"247010","339-TH","2017/12/11 20:11:46","新北市蘆洲區信義路146號","121.47948","25.0831116666667","6501400","蘆洲區"
"247002","337-TH","2017/12/11 20:11:50","新北市蘆洲區永康街66號","121.458546666667","25.0855783333333","6501400","蘆洲區"
"247004","336-TH","2017/12/11 20:11:50","新北市蘆洲區長安街285巷24號","121.457101666667","25.084025","6501400","蘆洲區"
"247016","057-VK","2017/12/11 20:11:34","新北市蘆洲區光華路186巷27號","121.464718333333","25.0832266666667","6501400","蘆洲區"
"247006","056-VK","2017/12/11 20:11:47","新北市蘆洲區九芎街15巷12號","121.467926666667","25.07782","6501400","蘆洲區"
"247014","007-UY","2017/12/11 20:11:36","新北市蘆洲區中山二路182號","121.47059","25.080645","6501400","蘆洲區"
"247024","002-UY","2017/12/11 20:11:38","新北市蘆洲區光明路139號","121.46402","25.0885266666667","6501400","蘆洲區"
"247018","001-UY","2017/12/11 20:11:40","新北市蘆洲區民族路314巷21號","121.478125","25.090515","6501400","蘆洲區"
"222001","KEA-2212","2017/12/11 20:11:41","新北市深坑區北深路三段210號","121.601213333333","25.0037683333333","6501800","深坑區"
"208003","665-BX","2017/12/11 20:11:43","新北市金山區海興路112號","121.631323333333","25.239005","6502700","金山區"
"251009","008-UM","2017/12/11 20:11:32","新北市淡水區清水街38號","121.444751666667","25.1703216666667","6501000","淡水區"
"251004","009-UM","2017/12/11 20:11:38","新北市淡水區民族路31巷21-1號","121.461913333333","25.13654","6501000","淡水區"
"251005","010-UM","2017/12/11 20:11:28","新北市淡水區水源街二段34巷3號","121.450201666667","25.17327","6501000","淡水區"
"251008","181-VK","2017/12/11 20:11:43","新北市淡水區淡海路72巷28弄9號","121.425281666667","25.182325","6501000","淡水區"
"251013","182-VK","2017/12/11 20:11:30","新北市淡水區奎柔山路752巷1號","121.472968333333","25.2052466666667","6501000","淡水區"
"251010","413-VK","2017/12/11 20:11:38","新北市淡水區濱海路三段148巷50弄76號","121.430695","25.1904533333333","6501000","淡水區"
"251012","441-VK","2017/12/11 20:11:48","新北市淡水區淡金路三段224號","121.448941666667","25.20476","6501000","淡水區"
"251015","442-VK","2017/12/11 20:11:49","新北市淡水區淡金路三段446號","121.450683333333","25.2144766666667","6501000","淡水區"
"251006","561-UM","2017/12/11 20:11:29","新北市淡水區北新路141巷29號","121.448101666667","25.17958","6501000","淡水區"
"251002","672-BX","2017/12/11 20:11:47","新北市淡水區中正路276號","121.438206666667","25.1716266666667","6501000","淡水區"
"251003","766-UM","2017/12/11 20:11:48","新北市淡水區新市一路二段255號","121.443793333333","25.18307","6501000","淡水區"
"207003","550-UM","2017/12/11 20:11:37","新北市萬里區大鵬里萬里加投132-1號","121.644895","25.214015","6502800","萬里區"
"207004","225-TW","2017/12/11 20:11:38","新北市萬里區北基里仁三街23號","121.68181","25.1763133333333","6502800","萬里區"
"252002","178-VK","2017/12/11 20:11:47","新北市三芝區中正路一段70號","121.504008333333","25.2577916666667","6502100","三芝區"
"252001","292-VK","2017/12/11 20:11:43","新北市三芝區公正街28號","121.499685","25.2582333333333","6502100","三芝區"
"237004","078-UY","2017/12/11 20:11:40","新北市三峽區大同路137號","121.37193","24.9265816666667","6500900","三峽區"
"237007","153-BY","2017/12/11 20:11:38","新北市三峽區二鬮路110巷54號","121.357833333333","24.91011","6500900","三峽區"
"237009","210-TH","2017/12/11 20:11:37","新北市三峽區民族街76-5號","121.369361666667","24.929905","6500900","三峽區"
"237012","275-BY","2017/12/11 20:11:44","新北市三峽區中華路96號","121.370961666667","24.9281383333333","6500900","三峽區"
"237008","302-VK","2017/12/11 20:11:44","新北市三峽區中正路一段174巷4弄16號","121.372641666667","24.9290933333333","6500900","三峽區"
"237014","433-BY","2017/12/11 20:11:34","新北市三峽區介壽路一段1號","121.375303333333","24.934","6500900","三峽區"
"237006","5529-G3","2017/12/11 20:11:46","新北市三峽區嘉添227-12號","121.370733333333","24.91129","6500900","三峽區"
"237015","649-BX","2017/12/11 20:11:40","新北市三峽區介壽路二段167號","121.394655","24.9360283333333","6500900","三峽區"
"237005","AKY-6261","2017/12/11 20:11:43","新北市三峽區三樹路98巷58號","121.38383","24.9383116666667","6500900","三峽區"
"236069","105-UM","2017/12/11 20:11:49","新北市土城區中央路三段149號","121.432185","24.965465","6501300","土城區"
"236042","107-UM","2017/12/11 20:11:43","新北市土城區學成路14號","121.453226666667","24.986655","6501300","土城區"
"236078","166-UM","2017/12/11 19:52:37","新北市土城區福安街73號","121.416836666667","24.9636316666667","6501300","土城區"
"236030","253-BX","2017/12/11 20:11:38","新北市土城區中央路一段141號","121.44673","24.987975","6501300","土城區"
"236026","269-VK","2017/12/11 20:11:48","新北市土城區裕生路83巷22號","121.447591666667","24.98396","6501300","土城區"
"236014","270-VK","2017/12/11 20:11:42","新北市土城區廣明街23巷10號","121.455048333333","24.99239","6501300","土城區"
"236036","271-VK","2017/12/11 20:11:42","新北市土城區延吉街363巷7號","121.464343333333","24.983485","6501300","土城區"
"236020","401-BY","2017/12/11 20:11:39","新北市土城區延吉街28號","121.472066666667","24.9873516666667","6501300","土城區"
"236058","912-UM","2017/12/11 20:11:40","新北市土城區中央路二段72號","121.4425","24.9790783333333","6501300","土城區"
"236048","913-UM","2017/12/11 20:11:34","新北市土城區清水路148號","121.459226666667","24.9814783333333","6501300","土城區"
"236053","AAC-216","2017/12/11 20:11:41","新北市土城區中華路一段195號","121.443078333333","24.9853666666667","6501300","土城區"
"242031","AAC-296","2017/12/11 20:11:32","新北市新莊區公園一路35號","121.443318333333","25.0354416666667","6500500","新莊區"
"242029","986-R7","2017/12/11 20:11:49","新北市新莊區中榮街152巷2號","121.445943333333","25.05302","6500500","新莊區"
"242050","751-BX","2017/12/11 20:11:34","新北市新莊區民安西路198號","121.42594","25.0153316666667","6500500","新莊區"
"242025","615-BX","2017/12/11 20:11:38","新北市新莊區五工路68巷31號","121.45896","25.0649466666667","6500500","新莊區"
"242023","613-BX","2017/12/11 20:11:45","新北市新莊區化成路632號","121.466091666667","25.0552516666667","6500500","新莊區"
"242027","612-BX","2017/12/11 20:11:50","新北市新莊區中和街174號","121.44743","25.049135","6500500","新莊區"
"242039","566-BX","2017/12/11 20:11:42","新北市新莊區民安西路109號","121.42679","25.0183316666667","6500500","新莊區"
"242044","497-BY","2017/12/11 20:11:44","新北市新莊區中正路895-39號","121.412586666667","25.0209816666667","6500500","新莊區"
"242013","442-UM","2017/12/11 20:11:50","新北市新莊區幸福路710巷5弄7號","121.448985","25.050135","6500500","新莊區"
"242048","441-UM","2017/12/11 20:11:44","新北市新莊區四維路152巷17號","121.422211666667","25.022745","6500500","新莊區"
"242053","440-UM","2017/12/11 20:11:48","新北市新莊區民安西路283號","121.426425","25.0121016666667","6500500","新莊區"
"242034","415-TV","2017/12/11 20:11:40","新北市新莊區華興街5號","121.445983333333","25.03523","6500500","新莊區"
"242004","413-TV","2017/12/11 20:11:48","新北市新莊區頭興街28號","121.464688333333","25.0535566666667","6500500","新莊區"
"242042","400-BY","2017/12/11 20:11:34","新北市新莊區壽山路69號","121.410155","25.0326983333333","6500500","新莊區"
"242060","362-BY","2017/12/11 20:11:39","新北市新莊區瓊林路104-17號","121.443393333333","25.02634","6500500","新莊區"
"242058","353-BY","2017/12/11 20:11:43","新北市新莊區龍安路266巷11號","121.421538333333","25.0187933333333","6500500","新莊區"
"242036","133-UY","2017/12/11 20:11:34","新北市新莊區後港一路130巷15號","121.429713333333","25.02665","6500500","新莊區"
"242021","135-UY","2017/12/11 20:11:45","新北市新莊區建中街28號","121.449041666667","25.0375316666667","6500500","新莊區"
"242009","173-VK","2017/12/11 20:11:42","新北市新莊區昌隆街42號","121.454423333333","25.0508566666667","6500500","新莊區"
"242015","175-VK","2017/12/11 20:11:45","新北市新莊區中平路6巷37號","121.446118333333","25.0428016666667","6500500","新莊區"
"242007","347-TH","2017/12/11 20:11:49","新北市新莊區思源路419巷1弄11號","121.459331666667","25.052","6500500","新莊區"
"242019","348-TH","2017/12/11 20:11:34","新北市新莊區博愛路1巷1號","121.456566666667","25.0426233333333","6500500","新莊區"
"242056","349-TH","2017/12/11 20:11:43","新北市新莊區豐年街28巷1弄11號","121.44611","25.0318916666667","6500500","新莊區"
"242017","350-TH","2017/12/11 20:11:36","新北市新莊區中港一街5號","121.451701666667","25.0456316666667","6500500","新莊區"
"242011","351-TH","2017/12/11 20:11:43","新北市新莊區幸福路710巷8號","121.44975","25.049725","6500500","新莊區"
"238021","KEA-2217","2017/12/11 20:11:32","新北市樹林區田尾街192巷3號","121.400401666667","24.94904","6500700","樹林區"
"239006","891-R6","2017/12/11 20:11:30","新北市鶯歌區文化路115巷23號","121.357698333333","24.955065","6500800","鶯歌區"
"239003","360-BY","2017/12/11 20:11:33","新北市鶯歌區二甲路13-16號","121.344766666667","24.935305","6500800","鶯歌區"
"221008","489-VK","2017/12/11 20:11:37","台北市內湖區康樂街109號","121.619088333333","25.0706683333333","6501100","汐止區"
"221036","130-UY","2017/12/11 20:11:32","新北市汐止區新台五路二段102號","121.662521666667","25.0660366666667","6501100","汐止區"
"221010","269-BY","2017/12/11 20:11:34","新北市汐止區八連路一段206號","121.641643333333","25.0808016666667","6501100","汐止區"
"221012","278-VK","2017/12/11 20:11:45","新北市汐止區汐平路一段147-1號","121.690091666667","25.0664316666667","6501100","汐止區"
"221023","279-VK","2017/12/11 20:11:40","新北市汐止區明峰街298巷7弄2號","121.624926666667","25.0688783333333","6501100","汐止區"
"221032","280-BY","2017/12/11 20:11:32","新北市汐止區弘道街8巷5弄6號","121.617376666667","25.0478683333333","6501100","汐止區"
"221027","281-BY","2017/12/11 20:11:36","新北市汐止區和平街108號","121.660805","25.0701116666667","6501100","汐止區"
"221029","298-VK","2017/12/11 20:11:39","新北市汐止區樟樹一路119巷8-6號","121.641258333333","25.0644166666667","6501100","汐止區"
"221021","299-VK","2017/12/11 20:11:38","新北市汐止區連興街122號","121.653796666667","25.062005","6501100","汐止區"
"221031","353-TW","2017/12/11 20:11:46","新北市汐止區原興路77號","121.631871666667","25.0663216666667","6501100","汐止區"
"221015","567-BX","2017/12/11 20:11:36","新北市汐止區建成路37巷1號","121.66379","25.0727866666667","6501100","汐止區"
"221035","622-UM","2017/12/11 20:11:31","新北市汐止區長江街79巷15號","121.657606666667","25.0729266666667","6501100","汐止區"
"221025","623-UM","2017/12/11 20:11:36","新北市汐止區連興街143號","121.65408","25.061525","6501100","汐止區"
"221038","646-BX","2017/12/11 20:11:45","新北市汐止區大同路三段93號","121.668026666667","25.07736","6501100","汐止區"
"221033","647-BX","2017/12/11 20:11:38","新北市汐止區東勢街201巷104號","121.63356","25.042885","6501100","汐止區"
"221002","707-TV","2017/12/11 20:11:32","新北市汐止區工建路202號","121.636765","25.0625283333333","6501100","汐止區"
"221012","753-BX","2017/12/11 20:11:46","新北市汐止區茄苳路323號","121.673756666667","25.0664483333333","6501100","汐止區"
"220101","245-BX","2017/12/11 20:11:33","新北市板橋區雙十路二段47巷2弄14號","121.475811666667","25.02651","6500100","板橋區"
"220071","283-VK","2017/12/11 20:11:42","新北市板橋區信義路105-1號","121.45751","24.993655","6500100","板橋區"
"220083","286-VK","2017/12/11 20:11:41","新北市板橋區僑中二街90巷16號","121.445558333333","25.0093","6500100","板橋區"
"220081","287-VK","2017/12/11 20:11:32","新北市板橋區僑中一街80巷14弄2號","121.448213333333","25.0132883333333","6500100","板橋區"
"220061","293-UM","2017/12/11 20:11:43","新北市板橋區中山路二段15號","121.472165","25.0149833333333","6500100","板橋區"
"220084","296-UM","2017/12/11 20:11:47","新北市板橋區篤行路三段玉平巷76弄14號","121.42751","24.985955","6500100","板橋區"
"220092","299-UM","2017/12/11 20:11:47","新北市板橋區民權路174號","121.459561666667","25.0132133333333","6500100","板橋區"
"220062","305-R5","2017/12/11 20:11:40","新北市板橋區民治街57巷32-1號","121.48155","25.035175","6500100","板橋區"
"220080","461-BY","2017/12/11 20:11:28","新北市板橋區僑中一街124巷72-3號","121.448543333333","25.0168416666667","6500100","板橋區"
"220064","486-VK","2017/12/11 20:11:33","新北市板橋區長安街331巷47號","121.473381666667","25.0129933333333","6500100","板橋區"
"220089","487-VK","2017/12/11 20:11:31","新北市板橋區互助街68號","121.461031666667","25.026595","6500100","板橋區"
"242002","280-VK","2017/12/11 20:11:31","新北市新莊區中正路97號","121.460615","25.0389883333333","6500500","新莊區"
"220088","491-VK","2017/12/11 20:11:43","新北市板橋區文化路二段656號","121.481011666667","25.040325","6500100","板橋區"
"220103","561-BX","2017/12/11 20:11:32","新北市板橋區英士路58巷4號","121.460825","25.02501","6500100","板橋區"
"220075","568-UM","2017/12/11 20:11:38","新北市板橋區金華街10巷68號","121.457491666667","25.0202616666667","6500100","板橋區"
"220093","689-BX","2017/12/11 20:11:49","新北市板橋區長江路一段11號","121.458121666667","25.028905","6500100","板橋區"
"220055","827-TW","2017/12/11 20:11:36","新北市板橋區忠孝路48巷11弄13號","121.461918333333","24.9999066666667","6500100","板橋區"
"220074","895-R6","2017/12/11 20:11:48","新北市板橋區館前西路122號","121.456636666667","25.00771","6500100","板橋區"
"220097","AAC-210","2017/12/11 20:11:47","新北市板橋區光正街57號","121.461728333333","25.0177283333333","6500100","板橋區"
"220070","AAC-253","2017/12/11 20:11:49","新北市板橋區四川路二段245巷16-2號","121.451081666667","24.99305","6500100","板橋區"
