"lineid","car","time","location","longitude","latitude","cityid","cityname"
"244019","403-UM","2017/12/11 21:04:51","新北市林口區粉寮路二段160巷28號","121.405111666667","25.0907533333333","6501700","林口區"
"231059","046-UY","2017/12/11 21:52:46","新北市新店區安華路28-1號","121.519608333333","24.9608516666667","6500600","新店區"
"251004","009-UM","2017/12/11 21:59:42","新北市淡水區民權路229號","121.459865","25.1298716666667","6501000","淡水區"
"251005","010-UM","2017/12/11 21:59:48","新北市淡水區鄧公路30巷1弄67號","121.454453333333","25.1695583333333","6501000","淡水區"
"251007","179-VK","2017/12/11 21:59:35","新北市淡水區北新路184巷142弄13號","121.451341666667","25.1774533333333","6501000","淡水區"
"251015","442-VK","2017/12/11 21:59:49","新北市淡水區水碓街7號","121.443138333333","25.177095","6501000","淡水區"
"251006","561-UM","2017/12/11 21:59:49","新北市淡水區馬偕街28-9號","121.437498333333","25.17305","6501000","淡水區"
"221012","753-BX","2017/12/11 21:12:21","新北市汐止區汐萬路一段256巷1號","121.652","25.0748533333333","6501100","汐止區"
"220062","305-R5","2017/12/11 21:52:09","新北市板橋區民生路二段120號","121.470468333333","25.01971","6500100","板橋區"
