"lineid","car","time","location","longitude","latitude","cityid","cityname"
"244019","403-UM","2017/12/11 21:04:51","新北市林口區粉寮路二段160巷28號","121.405111666667","25.0907533333333","6501700","林口區"
"231059","046-UY","2017/12/11 21:52:46","新北市新店區安華路28-1號","121.519608333333","24.9608516666667","6500600","新店區"
"251004","009-UM","2017/12/11 22:05:42","新北市淡水區民族路33號","121.46228","25.1358216666667","6501000","淡水區"
"251005","010-UM","2017/12/11 22:05:48","新北市淡水區鄧公路19號","121.45138","25.17005","6501000","淡水區"
"251007","179-VK","2017/12/11 22:05:35","新北市淡水區北新路184巷17號","121.450045","25.1781566666667","6501000","淡水區"
"251015","442-VK","2017/12/11 22:05:49","新北市淡水區水碓街7號","121.443165","25.177115","6501000","淡水區"
"251006","561-UM","2017/12/11 22:05:49","新北市淡水區沙崙路200號","121.424673333333","25.1839166666667","6501000","淡水區"
"221012","753-BX","2017/12/11 21:12:21","新北市汐止區汐萬路一段256巷1號","121.652","25.0748533333333","6501100","汐止區"
"220062","305-R5","2017/12/11 21:52:09","新北市板橋區民生路二段120號","121.470468333333","25.01971","6500100","板橋區"
