"lineid","car","time","location","longitude","latitude","cityid","cityname"
"232001","290-BY","2017/10/12 08:12:55","新北市坪林區下坑子口12號","121.720421666667","24.9421416666667","6502000","坪林區"
"232014","291-BY","2017/10/12 08:17:55","新北市坪林區黃舉皮寮21號","121.689501666667","24.9326666666667","6502000","坪林區"
"232007","758-BX","2017/10/12 08:17:41","新北市坪林區北宜路八段558號","121.716548333333","24.9087433333333","6502000","坪林區"
"244012","069-UM","2017/10/12 08:17:56","新北市林口區中山路7號","121.396466666667","25.0781766666667","6501700","林口區"
"244006","080-UY","2017/10/12 08:17:56","新北市林口區中湖60號","121.376088333333","25.0936116666667","6501700","林口區"
"244018","403-UM","2017/10/12 08:17:48","新北市林口區四維路156號","121.380526666667","25.0756533333333","6501700","林口區"
"244024","742-UY","2017/10/12 08:17:54","新北市林口區文化三路一段435號","121.367508333333","25.0741433333333","6501700","林口區"
"244009","410-SL","2017/10/12 08:17:45","新北市林口區寶林路269號","121.384576666667","25.0847466666667","6501700","林口區"
"244022","483-VK","2017/10/12 08:17:51","新北市林口區仁愛路一段669號","121.387701666667","25.0764983333333","6501700","林口區"
"244016","485-VK","2017/10/12 08:17:46","新北市林口區文化一路一段120號","121.37419","25.0719333333333","6501700","林口區"
"244010","656-BX","2017/10/12 08:17:40","新北市林口區竹林路35號","121.386883333333","25.0775916666667","6501700","林口區"
"244003","657-BX","2017/10/12 08:17:45","新北市林口區頂福里10鄰90號","121.32296","25.10717","6501700","林口區"
"244020","838-TS","2017/10/12 08:17:57","新北市林口區粉寮1號","121.397365","25.079845","6501700","林口區"
"222004","289-BY","2017/10/12 08:17:56","新北市深坑區北深路三段242-1號","121.60092","25.0054533333333","6501800","深坑區"
"231069","189-VK","2017/10/12 08:17:57","新北市新店區新潭路一段100-2號","121.527108333333","24.9379283333333","6500600","新店區"
"231008","192-VK","2017/10/12 08:17:51","新北市新店區中興路一段152號","121.542505","24.9638916666667","6500600","新店區"
"226005","5620-A6","2017/10/12 08:17:56","新北市平溪區平湖里大厝1號","121.780065","25.0391083333333","6502400","平溪區"
"226002","7418-A5","2017/10/12 08:17:14","新北市平溪區東勢里芊蓁坑2號","121.747161666667","25.0053533333333","6502400","平溪區"
"226003","AGD-0702","2017/10/12 08:17:52","新北市平溪區靜安路三段52巷10號","121.763866666667","25.033535","6502400","平溪區"
"223006","022-BY","2017/10/12 08:17:44","新北市深坑區昇高坑路51-1號","121.630418333333","24.994265","6501900","石碇區"
"223002","198-BX","2017/10/12 08:10:40","新北市石碇區北宜路五段80號","121.646538333333","24.95176","6501900","石碇區"
"223003","205-TH","2017/10/12 08:17:48","新北市石碇區北宜路六段塗潭巷47-1號","121.651526666667","24.9343016666667","6501900","石碇區"
"223008","406-TH","2017/10/12 08:17:52","新北市石碇區靜安路一段318號","121.693693333333","25.0068716666667","6501900","石碇區"
"223001","437-BY","2017/10/12 08:17:42","新北市石碇區北宜路五段80號","121.647235","24.95085","6501900","石碇區"
"223004","660-BX","2017/10/12 08:17:56","新北市石碇區外按9-2號","121.650623333333","24.9973783333333","6501900","石碇區"
"223007","661-BX","2017/10/12 08:17:47","新北市石碇區蚯蚓坑1號","121.693003333333","25.0066883333333","6501900","石碇區"
"223005","677-TV","2017/10/12 08:17:57","新北市石碇區外按12號","121.65062","24.9974833333333","6501900","石碇區"
"224006","676-BX","2017/10/12 08:17:56","新北市瑞芳區明燈路一段100號","121.819468333333","25.1078916666667","6501200","瑞芳區"
"253003","6232-TK","2017/10/12 08:17:49","新北市石門區石崩山20-7號","121.567738333333","25.2756983333333","6502200","石門區"
"253001","6251-TK","2017/10/12 08:17:39","新北市石門區楓林1號","121.536731666667","25.2983066666667","6502200","石門區"
"253002","637-UY","2017/10/12 08:17:55","新北市石門區大溪墘11-1號","121.554305","25.27472","6502200","石門區"
"253004","8270-PC","2017/10/12 08:17:40","新北市石門區阿里荖47號","121.604341666667","25.280505","6502200","石門區"
"252004","249-BX","2017/10/12 08:17:53","新北市三芝區興華里車埕62-1號","121.499961666667","25.1967133333333","6502100","三芝區"
"252007","AAC-283","2017/10/12 08:17:39","新北市三芝區後厝里大片頭101-3號","121.462771666667","25.24017","6502100","三芝區"
"237001","159-UY","2017/10/12 08:17:42","新北市三峽區學成路282號","121.37665","24.9435416666667","6500900","三峽區"
"236009","165-UM","2017/10/12 08:17:46","新北市土城區青雲路603號","121.459375","24.969985","6501300","土城區"
"236003","339-SR","2017/10/12 08:17:42","新北市土城區龍泉路62-3號","121.415076666667","24.9436083333333","6501300","土城區"
"236005","498-BY","2017/10/12 08:17:45","新北市土城區永平街9號","121.427913333333","24.9629566666667","6501300","土城區"
"242030","AAC-296","2017/10/12 08:17:41","新北市新莊區新泰路357巷3弄1號","121.442366666667","25.0411566666667","6500500","新莊區"
"242028","986-R7","2017/10/12 08:17:57","新北市新莊區復興路一段51號","121.447196666667","25.0423033333333","6500500","新莊區"
"242049","751-BX","2017/10/12 08:17:42","新北市新莊區西盛街232巷17號","121.427295","25.016365","6500500","新莊區"
"242024","615-BX","2017/10/12 08:17:49","新北市三重區新北大道二段78-1號","121.470358333333","25.061585","6500500","新莊區"
"242022","613-BX","2017/10/12 08:17:52","新北市新莊區福樂街35號","121.457603333333","25.0469216666667","6500500","新莊區"
"242026","612-BX","2017/10/12 08:17:46","新北市新莊區福壽街144號","121.45785","25.0519866666667","6500500","新莊區"
"242038","566-BX","2017/10/12 08:17:57","新北市新莊區民安路166號","121.424968333333","25.024165","6500500","新莊區"
"242043","497-BY","2017/10/12 08:17:45","新北市新莊區中正路829巷22弄47號","121.420515","25.0265816666667","6500500","新莊區"
"242001","442-UM","2017/10/12 08:17:46","新北市新莊區景德路93號","121.452013333333","25.0347433333333","6500500","新莊區"
"242047","441-UM","2017/10/12 08:17:57","新北市新莊區萬安街60巷15號","121.42051","25.0231766666667","6500500","新莊區"
"242052","440-UM","2017/10/12 08:17:44","新北市板橋區大觀路三段50巷57號","121.431818333333","24.9959283333333","6500500","新莊區"
"242003","413-TV","2017/10/12 08:17:41","新北市新莊區思源路177巷9弄3號","121.459058333333","25.0456833333333","6500500","新莊區"
"242040","400-BY","2017/10/12 08:17:52","新北市新莊區中正路614巷4弄2號","121.425806666667","25.03052","6500500","新莊區"
"242059","362-BY","2017/10/12 08:17:55","新北市新莊區新樹路587號","121.432936666667","25.006635","6500500","新莊區"
"242057","353-BY","2017/10/12 08:17:53","新北市新莊區中正路726-12號","121.415296666667","25.0238566666667","6500500","新莊區"
"242006","132-UY","2017/10/12 08:17:42","新北市新莊區自信街65巷12號","121.455508333333","25.04869","6500500","新莊區"
"242035","133-UY","2017/10/12 08:17:55","新北市新莊區建福路69巷29號","121.428131666667","25.0273633333333","6500500","新莊區"
"242020","135-UY","2017/10/12 08:17:55","新北市新莊區永寧街37巷1號","121.452906666667","25.0395683333333","6500500","新莊區"
"242045","172-VK","2017/10/12 08:17:51","新北市新莊區建國一路69號","121.434616666667","25.0297183333333","6500500","新莊區"
"242008","173-VK","2017/10/12 08:17:43","新北市新莊區昌明街68號","121.455421666667","25.0517983333333","6500500","新莊區"
"242014","175-VK","2017/10/12 08:17:43","新北市新莊區新泰路502巷56號","121.444528333333","25.0462816666667","6500500","新莊區"
"242018","176-VK","2017/10/12 08:17:40","新北市新莊區復興路二段28號","121.454623333333","25.0440516666667","6500500","新莊區"
"242012","346-TH","2017/10/12 08:16:55","新北市新莊區中誠街166巷2號","121.448113333333","25.0476066666667","6500500","新莊區"
"242033","348-TH","2017/10/12 08:17:53","新北市新莊區新莊路666號","121.441755","25.0328666666667","6500500","新莊區"
"242055","349-TH","2017/10/12 08:17:46","新北市新莊區豐年街114號","121.446413333333","25.0304316666667","6500500","新莊區"
"242016","350-TH","2017/10/12 08:17:44","新北市新莊區永安街5號","121.452283333333","25.04482","6500500","新莊區"
"242010","280-VK","2017/10/12 08:17:58","新北市新莊區中港路681巷5號","121.450508333333","25.0561666666667","6500500","新莊區"
