"lineid","car","time","location","longitude","latitude","cityid","cityname"
"234044","148-BY","2017/10/12 14:29:36","新北市永和區永元路122號","121.522741666667","25.0027483333333","6500400","永和區"
"234012","149-BY","2017/10/12 14:29:54","新北市永和區仁愛路295號","121.505111666667","25.00905","6500400","永和區"
"234005","207-UY","2017/10/12 14:29:44","新北市永和區中正路736號","121.515291666667","25.0101816666667","6500400","永和區"
"234078","298-R6","2017/10/12 14:29:38","新北市永和區永亨路66號","121.520921666667","25.0059916666667","6500400","永和區"
"234036","336-UY","2017/10/12 14:29:50","新北市永和區民樂街31巷17弄6號","121.52845","25.00189","6500400","永和區"
"234062","337-UY","2017/10/12 14:29:47","新北市永和區中正路393號","121.51726","25.0040533333333","6500400","永和區"
"234084","338-UY","2017/10/12 14:29:48","新北市永和區永和路二段81號","121.514748333333","25.0112666666667","6500400","永和區"
"234068","552-UM","2017/10/12 14:29:49","新北市永和區永寧街5號","121.520123333333","25.0069066666667","6500400","永和區"
"234052","553-UM","2017/10/12 14:29:49","新北市永和區光復街31-1號","121.516401666667","25.0179583333333","6500400","永和區"
"234028","746-BX","2017/10/12 14:29:47","新北市永和區民權路51號","121.519948333333","24.9970466666667","6500400","永和區"
"234060","AAD-866","2017/10/12 14:29:38","新北市永和區秀朗路一段175號","121.516998333333","25.00367","6500400","永和區"
"234040","862-TW","2017/10/12 14:29:42","新北市永和區安樂路433號","121.514278333333","25.0045566666667","6500400","永和區"
"234048","863-TW","2017/10/12 14:29:40","新北市永和區新生路189號","121.50682","25.01431","6500400","永和區"
"234025","9371-KE","2017/10/12 14:29:40","新北市永和區安樂路144巷19號","121.514666666667","25.000095","6500400","永和區"
"248013","025-BX","2017/10/12 14:29:33","新北市五股區民義路一段183巷5-1號","121.430481666667","25.0871316666667","6501500","五股區"
"248015","026-BX","2017/10/12 14:29:42","新北市五股區成泰路四段26號","121.454948333333","25.1082633333333","6501500","五股區"
"248007","095-VK","2017/10/12 14:29:43","新北市五股區中興路一段95巷15號","121.466598333333","25.0722883333333","6501500","五股區"
"248017","225-UY","2017/10/12 14:24:56","新北市五股區壟路15-1號","121.416596666667","25.0831733333333","6501500","五股區"
"248011","247-BX","2017/10/12 14:29:35","新北市五股區成泰路一段241巷12號","121.43613","25.08103","6501500","五股區"
"248009","272-BY","2017/10/12 14:29:41","新北市五股區自強路90巷72號","121.430768333333","25.07128","6501500","五股區"
"248003","677-BX","2017/10/12 14:29:41","新北市五股區五福路7號","121.434138333333","25.0878666666667","6501500","五股區"
"248001","678-BX","2017/10/12 14:29:44","新北市五股區成泰路三段436號","121.450955","25.0996966666667","6501500","五股區"
"234076","969-R7","2017/10/12 14:29:40","新北市永和區民權路55號","121.52008","24.996675","6500400","永和區"
"234072","AAC-211","2017/10/12 14:29:40","新北市永和區竹林路39巷33弄1號","121.520025","25.015245","6500400","永和區"
"234066","AAC-212","2017/10/12 14:29:52","新北市永和區仁愛路295號","121.505038333333","25.0091283333333","6500400","永和區"
"234001","AAC-295","2017/10/12 14:29:33","新北市永和區自強街2號","121.514165","25.0080716666667","6500400","永和區"
"244024","742-UY","2017/10/12 09:31:54","新北市林口區粉寮路二段160巷28號","121.405203333333","25.0907716666667","6501700","林口區"
"244003","657-BX","2017/10/12 14:29:38","新北市林口區林口路76號","121.389645","25.0806783333333","6501700","林口區"
"243005","AAD-798","2017/10/12 14:29:51","新北市泰山區民國街32號","121.425768333333","25.043185","6501600","泰山區"
"243001","297-R6","2017/10/12 14:29:45","新北市泰山區半山雅14號","121.431413333333","25.067495","6501600","泰山區"
"243007","380-SR","2017/10/12 14:29:55","新北市泰山區民權街22號","121.428511666667","25.050755","6501600","泰山區"
"243006","421-VK","2017/10/12 14:29:45","新北市泰山區仁愛路6巷9號","121.431378333333","25.05365","6501600","泰山區"
"243002","KEA-2215","2017/10/12 14:29:40","新北市泰山區民生路12號","121.430043333333","25.05266","6501600","泰山區"
"243003","KEA-2216","2017/10/12 14:29:37","新北市泰山區貴子路67巷22號","121.431086666667","25.0410183333333","6501600","泰山區"
"243004","646-TV","2017/10/12 14:29:42","新北市泰山區全興路18巷1號","121.43218","25.058935","6501600","泰山區"
"243008","680-BX","2017/10/12 14:29:48","新北市泰山區中山路三段69號","121.418741666667","25.03199","6501600","泰山區"
"231002","002-UM","2017/10/12 14:29:55","新北市新店區中央路97號","121.531178333333","24.9750516666667","6500600","新店區"
"231028","046-UY","2017/10/12 14:29:51","新北市新店區安康路二段156號","121.512235","24.96091","6500600","新店區"
"231030","047-UY","2017/10/12 14:29:46","新北市新店區安民街42號","121.515916666667","24.9654116666667","6500600","新店區"
"231029","106-UY","2017/10/12 14:29:38","新北市新店區安康路二段382號","121.50044","24.95707","6500600","新店區"
"231011","108-UY","2017/10/12 14:29:41","新北市新店區中興路二段236巷4號","121.548035","24.9758233333333","6500600","新店區"
"231018","110-UY","2017/10/12 14:29:47","新北市新店區中央三街83號","121.526075","24.9755433333333","6500600","新店區"
"231021","187-VK","2017/10/12 14:29:47","新北市新店區桂山路37號","121.560946666667","24.9018133333333","6500600","新店區"
"231007","189-VK","2017/10/12 12:02:17","新北市新店區安華路28-1號","121.519663333333","24.96105","6500600","新店區"
"231017","215-TC","2017/10/12 14:29:47","新北市新店區北宜路二段406號","121.566805","24.9535566666667","6500600","新店區"
"231023","AAD-862","2017/10/12 14:29:47","新北市新店區光明街123號","121.539358333333","24.9617683333333","6500600","新店區"
"231027","3712-VJ","2017/10/12 14:29:39","新北市新店區北新路二段228巷11號","121.54341","24.9772483333333","6500600","新店區"
"231025","4716-K9","2017/10/12 14:29:49","新北市新店區自立街32號","121.538535","24.9785133333333","6500600","新店區"
"231038","4715-K9","2017/10/12 14:29:41","新北市新店區溪洲路8巷56號","121.533415","24.96229","6500600","新店區"
"231036","513-UM","2017/10/12 14:29:46","新北市新店區安祥路109巷8號","121.47545","24.958855","6500600","新店區"
"231035","515-UM","2017/10/12 14:29:38","新北市新店區光華街12號","121.517521666667","24.9691183333333","6500600","新店區"
"231001","619-UM","2017/10/12 14:29:50","新北市新店區北新路一段96巷23號","121.543048333333","24.96884","6500600","新店區"
"231003","641-BX","2017/10/12 14:29:51","新北市新店區中興路一段273號","121.5452","24.968085","6500600","新店區"
"231034","645-TV","2017/10/12 14:29:50","新北市新店區黎明路11號","121.502075","24.950015","6500600","新店區"
"231013","719-UM","2017/10/12 14:29:54","新北市新店區民權路82號","121.537143333333","24.983055","6500600","新店區"
"231031","720-UM","2017/10/12 14:29:35","新北市新店區溪洲路123號","121.530393333333","24.96383","6500600","新店區"
"231005","897-TW","2017/10/12 14:29:47","新北市新店區中興路三段133號","121.544671666667","24.97964","6500600","新店區"
"231006","898-TW","2017/10/12 14:29:36","新北市新店區北宜路二段461號","121.561611666667","24.9541116666667","6500600","新店區"
"231004","899-TW","2017/10/12 14:29:51","新北市新店區中正路264號","121.539105","24.9734716666667","6500600","新店區"
"231037","AKT-0513","2017/10/12 14:29:44","新北市新店區車子路57號","121.503935","24.9515483333333","6500600","新店區"
"235030","003-UY","2017/10/12 14:29:42","新北市中和區中和路196巷9弄5號","121.505331666667","24.9991783333333","6500300","中和區"
"235028","005-UY","2017/10/12 14:29:45","新北市中和區南山路69號","121.502291666667","24.9981266666667","6500300","中和區"
"235027","006-UY","2017/10/12 14:29:44","新北市中和區連城路203巷10弄19號","121.495066666667","24.9967933333333","6500300","中和區"
"235020","096-UM","2017/10/12 14:29:33","新北市中和區民富街44號","121.476675","25.0068533333333","6500300","中和區"
"235003","097-UM","2017/10/12 14:29:42","新北市中和區秀峰街119巷8弄3號","121.519226666667","24.9892433333333","6500300","中和區"
"235029","098-UM","2017/10/12 14:29:40","新北市中和區永和路52號","121.499223333333","25.0040516666667","6500300","中和區"
"235004","150-BY","2017/10/12 14:29:42","新北市中和區安樂路77號","121.51274","24.994235","6500300","中和區"
"235022","151-BY","2017/10/12 14:29:38","新北市中和區員山路36巷16-2號","121.48542","24.9915533333333","6500300","中和區"
"235019","183-VK","2017/10/12 14:29:43","新北市中和區中山路三段181巷18弄11號","121.472685","25.0049033333333","6500300","中和區"
"235002","185-VK","2017/10/12 14:29:54","新北市中和區大仁街20巷48號","121.519891666667","24.9933183333333","6500300","中和區"
"235013","186-VK","2017/10/12 14:29:42","新北市中和區景新街295巷15號","121.510743333333","24.9933583333333","6500300","中和區"
"235031","255-BX","2017/10/12 14:29:39","新北市中和區連城路322號","121.48343","24.9960083333333","6500300","中和區"
"235008","293-VK","2017/10/12 14:29:34","新北市中和區捷運路185號","121.505453333333","24.99144","6500300","中和區"
"235036","301-VK","2017/10/12 14:29:48","新北市中和區福祥路2號","121.49966","25.0027616666667","6500300","中和區"
"235007","352-BY","2017/10/12 14:29:44","新北市中和區景平路380號","121.510775","24.993025","6500300","中和區"
"235032","375-QA","2017/10/12 14:29:48","新北市中和區景平路493巷12弄27號","121.498441666667","24.9968983333333","6500300","中和區"
"235015","376-QA","2017/10/12 14:29:42","新北市中和區興南路一段69號","121.510301666667","24.9892816666667","6500300","中和區"
"235025","378-QA","2017/10/12 14:29:40","新北市中和區民安街2巷14號","121.48028","25.001625","6500300","中和區"
"235035","269-TV","2017/10/12 14:29:37","新北市中和區建二路157號","121.487658333333","25.0037733333333","6500300","中和區"
"235014","4979-A6","2017/10/12 14:29:38","新北市中和區中正路450號","121.490876666667","24.9942366666667","6500300","中和區"
"235033","4980-A6","2017/10/12 14:29:44","新北市中和區連城路185號","121.495068333333","24.9982883333333","6500300","中和區"
"235006","551-UM","2017/10/12 14:29:44","新北市中和區中和路378巷14弄1號","121.511246666667","25.0016483333333","6500300","中和區"
"235034","558-UM","2017/10/12 14:29:36","新北市中和區連城路68-1號","121.497526666667","25.0014566666667","6500300","中和區"
"235009","565-BX","2017/10/12 14:29:40","新北市中和區景新街425號","121.513085","24.9892416666667","6500300","中和區"
"235018","640-BX","2017/10/12 14:29:36","新北市中和區國光街109巷10號","121.469738333333","25.0001516666667","6500300","中和區"
"235024","647-TV","2017/10/12 14:29:52","新北市中和區中山路三段37巷43號","121.479898333333","25.004675","6500300","中和區"
"235011","732-UM","2017/10/12 14:29:46","新北市中和區景平路241巷66號","121.507736666667","24.992295","6500300","中和區"
"235010","733-UM","2017/10/12 14:29:52","新北市中和區忠孝街37巷44號","121.510673333333","24.9847116666667","6500300","中和區"
"235026","800-TS","2017/10/12 14:29:49","新北市中和區橋安街17號","121.49278","25.0037983333333","6500300","中和區"
"235021","801-TS","2017/10/12 14:29:49","新北市中和區員山路425號","121.480955","25.003525","6500300","中和區"
"235005","802-TS","2017/10/12 14:29:44","新北市中和區宜安路150號","121.509376666667","24.9986983333333","6500300","中和區"
"235016","805-TS","2017/10/12 14:29:47","新北市中和區華新街143巷63弄1-1號","121.506431666667","24.9793383333333","6500300","中和區"
"235012","896-TW","2017/10/12 14:29:49","新北市中和區忠孝街37-1號","121.510728333333","24.9833883333333","6500300","中和區"
"235017","900-TW","2017/10/12 14:29:45","新北市中和區華順街42號","121.466513333333","24.9985816666667","6500300","中和區"
"235001","AAC-213","2017/10/12 14:29:48","新北市中和區秀朗路三段10巷14弄29號","121.524405","24.99644","6500300","中和區"
"235023","AAC-215","2017/10/12 14:29:46","新北市中和區圓通路252巷1號","121.493548333333","24.9912166666667","6500300","中和區"
"220013","072-UY","2017/10/12 14:29:52","新北市板橋區國泰街75巷28弄3-2號","121.467683333333","25.00533","6500100","板橋區"
"220034","073-UY","2017/10/12 14:29:48","新北市板橋區中正路216巷22號","121.456711666667","25.01857","6500100","板橋區"
"220105","075-UY","2017/10/12 14:29:42","新北市板橋區長江路三段68號","121.473855","25.0339483333333","6500100","板橋區"
"220017","AAD-861","2017/10/12 14:29:40","新北市板橋區華興街21巷18號","121.458626666667","25.0037383333333","6500100","板橋區"
"220016","120-SR","2017/10/12 14:29:46","新北市板橋區中山路二段531巷38號","121.482651666667","25.0224933333333","6500100","板橋區"
"247011","546-UM","2017/10/12 14:29:45","新北市蘆洲區三民路97號","121.473426666667","25.0852516666667","6501400","蘆洲區"
"247019","500-BY","2017/10/12 14:29:42","新北市蘆洲區水湳街399-7號","121.470148333333","25.09457","6501400","蘆洲區"
"247009","339-TH","2017/10/12 14:29:44","新北市蘆洲區鷺江街41號","121.478381666667","25.0824116666667","6501400","蘆洲區"
"247001","337-TH","2017/10/12 14:29:34","新北市蘆洲區永樂街38巷19弄53號","121.456893333333","25.0892783333333","6501400","蘆洲區"
"247003","336-TH","2017/10/12 14:29:34","新北市蘆洲區長榮路211巷6號","121.460243333333","25.084705","6501400","蘆洲區"
"247021","335-TH","2017/10/12 14:29:31","新北市蘆洲區水湳街70號","121.470495","25.0898283333333","6501400","蘆洲區"
"247015","057-VK","2017/10/12 14:29:53","新北市蘆洲區中正路185巷23弄18號","121.467286666667","25.0841233333333","6501400","蘆洲區"
"247005","056-VK","2017/10/12 14:29:43","新北市蘆洲區永安南路二段168-1號","121.461225","25.0791733333333","6501400","蘆洲區"
"247007","053-VK","2017/10/12 14:29:35","新北市蘆洲區中山一路95巷3號","121.47732","25.080915","6501400","蘆洲區"
"247013","007-UY","2017/10/12 14:29:33","新北市蘆洲區中山二路225號","121.470228333333","25.0801783333333","6501400","蘆洲區"
"247023","002-UY","2017/10/12 14:29:48","新北市蘆洲區中正路263巷2號","121.467328333333","25.0874366666667","6501400","蘆洲區"
"247017","001-UY","2017/10/12 14:29:39","新北市蘆洲區復興路227巷19-1號","121.479491666667","25.0908583333333","6501400","蘆洲區"
"228005","097-TW","2017/10/12 14:29:42","新北市貢寮區美豐里巫里岸9-1號","121.901956666667","25.0701116666667","6502600","貢寮區"
"228004","212-TW","2017/10/12 14:29:47","新北市貢寮區雙玉里田寮洋街33-1號","121.932193333333","25.0135166666667","6502600","貢寮區"
"208004","AAC-292","2017/10/12 14:29:36","新北市金山區六股里下六股65號","121.614408333333","25.2235783333333","6502700","金山區"
"207002","749-BX","2017/10/12 14:29:49","新北市萬里區溪底里富士坪路27-1號","121.619603333333","25.15257","6502800","萬里區"
"207001","291-VK","2017/10/12 12:18:10","新北市萬里區萬里里獅頭路23號","121.693833333333","25.1783066666667","6502800","萬里區"
"252005","073-UM","2017/10/12 14:29:38","新北市三芝區橫山里大坑34號","121.527031666667","25.2554633333333","6502100","三芝區"
"207001","662-BX","2017/10/12 14:29:53","新北市萬里區磺潭里清水18-2號","121.638505","25.1983883333333","6502800","萬里區"
"236066","105-UM","2017/10/12 14:29:50","新北市土城區永豐路205-5號","121.474451666667","24.9777183333333","6501300","土城區"
"236040","107-UM","2017/10/12 14:29:39","新北市土城區裕民路61巷5號","121.449363333333","24.9880283333333","6501300","土城區"
"236076","166-UM","2017/10/12 14:29:44","新北市土城區中央路四段27巷10弄2號","121.424693333333","24.961865","6501300","土城區"
"236028","253-BX","2017/10/12 14:29:32","新北市土城區水源街81巷4號","121.439496666667","24.976345","6501300","土城區"
"236024","269-VK","2017/10/12 14:29:47","新北市土城區承天路65號","121.439578333333","24.9637216666667","6501300","土城區"
"236012","270-VK","2017/10/12 14:29:33","新北市土城區青雲路39巷5號","121.460348333333","24.987635","6501300","土城區"
"236033","271-VK","2017/10/12 14:29:35","新北市土城區青雲路451巷3號","121.45913","24.9746383333333","6501300","土城區"
"236018","401-BY","2017/10/12 14:29:32","新北市土城區永豐路202巷7號","121.46628","24.9832816666667","6501300","土城區"
"236005","498-BY","2017/10/12 14:29:40","新北市土城區日新街37號","121.443003333333","24.98824","6501300","土城區"
"236056","912-UM","2017/10/12 14:29:36","新北市土城區中央路四段464號","121.409915","24.950565","6501300","土城區"
"236047","913-UM","2017/10/12 14:29:52","新北市土城區青雲路465號","121.458691666667","24.9742383333333","6501300","土城區"
"236060","915-UM","2017/10/12 14:29:51","新北市土城區延壽路75巷23弄2號","121.468885","24.991845","6501300","土城區"
"236052","AAC-216","2017/10/12 14:29:37","新北市土城區中華路二段87-1號","121.439265","24.9775633333333","6501300","土城區"
"221012","276-VK","2017/10/12 13:21:37","新北市汐止區汐萬路一段256巷3號","121.653455","25.07467","6501100","汐止區"
"220027","145-BY","2017/10/12 14:29:43","新北市板橋區民權路202巷24號","121.460803333333","25.0169616666667","6500100","板橋區"
"220030","610-BX","2017/10/12 14:29:45","新北市板橋區溪城路115號","121.427508333333","24.982645","6500100","板橋區"
"220040","267-BY","2017/10/12 14:29:44","新北市板橋區文聖街72號","121.477198333333","25.0304333333333","6500100","板橋區"
"220004","276-BY","2017/10/12 14:29:49","新北市板橋區干城路151-1號","121.460115","24.9927733333333","6500100","板橋區"
"220020","277-BY","2017/10/12 14:29:36","新北市板橋區篤行路二段141巷23號","121.430618333333","24.9877666666667","6500100","板橋區"
"220043","280-UM","2017/10/12 14:29:49","新北市板橋區吳鳳路50巷85弄1號","121.470246666667","25.0304233333333","6500100","板橋區"
"220001","285-VK","2017/10/12 14:29:53","新北市板橋區富山街80巷6-1號","121.476801666667","25.0223833333333","6500100","板橋區"
"220031","286-VK","2017/10/12 14:29:44","新北市板橋區龍興街65巷8號","121.443408333333","25.001505","6500100","板橋區"
"220029","287-VK","2017/10/12 14:27:37","新北市板橋區大觀路一段28巷1弄94號","121.451885","25.006565","6500100","板橋區"
"220039","288-VK","2017/10/12 14:29:52","新北市板橋區長江路一段106巷12弄16號","121.459773333333","25.0287766666667","6500100","板橋區"
"220009","293-UM","2017/10/12 14:29:51","新北市板橋區中山路一段265巷32號","121.468975","25.0148916666667","6500100","板橋區"
"220045","295-UM","2017/10/12 14:29:53","新北市板橋區大同街35巷26號","121.477381666667","25.02797","6500100","板橋區"
"220032","296-UM","2017/10/12 14:29:35","新北市板橋區篤行路三段玉平巷79號","121.428236666667","24.9859566666667","6500100","板橋區"
"220023","297-UM","2017/10/12 14:29:49","新北市板橋區南雅南路一段73號","121.455675","25.005685","6500100","板橋區"
"220052","299-UM","2017/10/12 14:29:37","新北市板橋區文化路一段220號","121.466738333333","25.0206816666667","6500100","板橋區"
"220010","303-R5","2017/10/12 14:29:49","新北市板橋區三民路二段181巷3號","121.479711666667","25.0144416666667","6500100","板橋區"
"220041","307-R5","2017/10/12 14:29:49","新北市板橋區光武街4巷15號","121.468248333333","25.0256983333333","6500100","板橋區"
"220047","317-R6","2017/10/12 14:29:52","新北市板橋區民生路三段299巷18號","121.462745","25.0301683333333","6500100","板橋區"
"220028","461-BY","2017/10/12 14:29:38","新北市板橋區大觀路二段37巷89號","121.450383333333","25.0023933333333","6500100","板橋區"
"220012","486-VK","2017/10/12 14:29:40","新北市板橋區中山路一段30號","121.46049","25.0084683333333","6500100","板橋區"
"220038","487-VK","2017/10/12 14:29:47","新北市板橋區文化路一段245號","121.464311666667","25.0178733333333","6500100","板橋區"
"220037","491-VK","2017/10/12 14:29:40","新北市板橋區雙十路二段157號","121.47444","25.0283916666667","6500100","板橋區"
"220104","560-BX","2017/10/12 14:29:39","新北市板橋區中正路399巷30-8號","121.452943333333","25.0230666666667","6500100","板橋區"
"220011","609-BX","2017/10/12 14:29:38","新北市板橋區三民路二段251號","121.479003333333","25.012215","6500100","板橋區"
"220002","630-UY","2017/10/12 14:29:45","新北市板橋區光明街142號","121.463988333333","25.003185","6500100","板橋區"
"220005","686-BX","2017/10/12 14:29:49","新北市板橋區五權街39-2號","121.464458333333","24.99392","6500100","板橋區"
"220025","687-BX","2017/10/12 14:29:43","新北市板橋區大觀路二段67號","121.446585","25.00244","6500100","板橋區"
"220042","689-BX","2017/10/12 14:29:51","新北市板橋區雨農路50號","121.461151666667","25.0242883333333","6500100","板橋區"
"220003","827-TW","2017/10/12 14:29:48","新北市板橋區實踐路72-4號","121.463931666667","25.0056316666667","6500100","板橋區"
"220014","829-TW","2017/10/12 14:29:40","新北市板橋區漢生東路313巷22號","121.472825","25.0084616666667","6500100","板橋區"
"220051","830-TW","2017/10/12 14:29:49","新北市板橋區松柏街19號","121.474601666667","25.0299616666667","6500100","板橋區"
"220022","895-R6","2017/10/12 14:29:54","新北市板橋區館前西路150號","121.455623333333","25.008425","6500100","板橋區"
"220021","985-R7","2017/10/12 14:29:45","新北市板橋區新生街92號","121.45819","25.02181","6500100","板橋區"
"220046","AAC-210","2017/10/12 14:29:32","新北市板橋區漢生西路157號","121.463223333333","25.0233766666667","6500100","板橋區"
"220018","AAC-253","2017/10/12 14:29:51","新北市板橋區四川路一段133號","121.45984","25.004585","6500100","板橋區"
