"lineid","car","time","location","longitude","latitude","cityid","cityname"
"234084","338-UY","2017/10/12 14:49:48","新北市永和區光復街27號","121.516506666667","25.0175266666667","6500400","永和區"
"234028","746-BX","2017/10/12 14:49:47","新北市三重區後埔街80-1號","121.478696666667","25.0447116666667","6500400","永和區"
"234040","862-TW","2017/10/12 14:49:36","新北市三重區後埔街80-1號","121.478661666667","25.04536","6500400","永和區"
"234048","863-TW","2017/10/12 14:49:40","新北市板橋區文化路二段652號","121.479943333333","25.0422833333333","6500400","永和區"
"234025","9371-KE","2017/10/12 14:49:33","新北市永和區雙和街25巷4號","121.508908333333","25.0019283333333","6500400","永和區"
"248013","025-BX","2017/10/12 14:49:33","新北市五股區五福路32巷26號","121.435066666667","25.0897616666667","6501500","五股區"
"248015","026-BX","2017/10/12 14:49:42","新北市五股區成泰路三段577巷80弄50號","121.449736666667","25.10493","6501500","五股區"
"248007","095-VK","2017/10/12 14:49:43","新北市五股區四維路183號","121.468068333333","25.0754366666667","6501500","五股區"
"248017","225-UY","2017/10/12 14:24:56","新北市五股區壟路15-1號","121.416596666667","25.0831733333333","6501500","五股區"
"248011","247-BX","2017/10/12 14:49:35","新北市五股區民義路一段138-1號","121.434103333333","25.086555","6501500","五股區"
"248009","272-BY","2017/10/12 14:49:41","新北市五股區成泰路一段87-1號","121.43508","25.0689966666667","6501500","五股區"
"248003","677-BX","2017/10/12 14:49:41","新北市五股區成泰路一段106-1號","121.435693333333","25.071785","6501500","五股區"
"248001","678-BX","2017/10/12 14:49:51","新北市五股區成泰路三段157號","121.445026666667","25.0916566666667","6501500","五股區"
"244024","742-UY","2017/10/12 09:31:54","新北市林口區粉寮路二段160巷28號","121.405203333333","25.0907716666667","6501700","林口區"
"244003","657-BX","2017/10/12 14:49:34","新北市林口區竹林路265號","121.38964","25.08072","6501700","林口區"
"243005","AAD-798","2017/10/12 14:49:41","新北市泰山區應化街13號","121.423441666667","25.0433383333333","6501600","泰山區"
"243001","297-R6","2017/10/12 14:49:45","新北市泰山區泰林路二段142巷7弄10號","121.434545","25.0605833333333","6501600","泰山區"
"243007","380-SR","2017/10/12 14:49:52","新北市泰山區明志路二段10號","121.429956666667","25.0535883333333","6501600","泰山區"
"243006","421-VK","2017/10/12 14:49:45","新北市泰山區明志路一段24號","121.433588333333","25.0655666666667","6501600","泰山區"
"243002","KEA-2215","2017/10/12 14:49:40","新北市泰山區明志路二段254巷16弄7號","121.426195","25.0482033333333","6501600","泰山區"
"243003","KEA-2216","2017/10/12 14:49:37","新北市泰山區貴陽街3號","121.42094","25.0336433333333","6501600","泰山區"
"243004","646-TV","2017/10/12 14:49:50","新北市泰山區楓江路86巷9號","121.437458333333","25.062715","6501600","泰山區"
"243008","680-BX","2017/10/12 14:49:48","新北市泰山區明志路三段121號","121.425038333333","25.0406933333333","6501600","泰山區"
"231002","002-UM","2017/10/12 14:49:34","新北市新店區民權路96號","121.536646666667","24.9830666666667","6500600","新店區"
"231028","046-UY","2017/10/12 14:49:38","新北市新店區安德街154號","121.508251666667","24.959695","6500600","新店區"
"231030","047-UY","2017/10/12 14:49:46","新北市新店區安民街206號","121.51727","24.9719783333333","6500600","新店區"
"231029","106-UY","2017/10/12 14:49:38","新北市新店區安康路三段620號","121.479615","24.94661","6500600","新店區"
"231011","108-UY","2017/10/12 14:49:41","新北市新店區永華街31號","121.543771666667","24.9764183333333","6500600","新店區"
"231018","110-UY","2017/10/12 14:49:47","新北市新店區中央二街5巷2號","121.528973333333","24.9728533333333","6500600","新店區"
"231021","187-VK","2017/10/12 14:49:47","新北市新店區新烏路二段300號","121.548751666667","24.9129","6500600","新店區"
"231007","189-VK","2017/10/12 12:02:17","新北市新店區安華路28-1號","121.519663333333","24.96105","6500600","新店區"
"231017","215-TC","2017/10/12 14:49:47","新北市新店區北宜路三段214號","121.589466666667","24.9520633333333","6500600","新店區"
"231026","256-BX","2017/10/12 14:49:37","新北市新店區安康路一段355-3號","121.519763333333","24.962075","6500600","新店區"
"231023","AAD-862","2017/10/12 14:49:47","新北市新店區檳榔路109號","121.544378333333","24.9616633333333","6500600","新店區"
"231027","3712-VJ","2017/10/12 14:49:39","新北市新店區中正路334巷7號","121.536903333333","24.975395","6500600","新店區"
"231024","3713-VJ","2017/10/12 14:49:34","新北市新店區新生街3巷2號","121.540403333333","24.9657066666667","6500600","新店區"
"231025","4716-K9","2017/10/12 14:49:49","新北市新店區民族路161號","121.537735","24.9768516666667","6500600","新店區"
"231038","4715-K9","2017/10/12 14:49:41","新北市新店區安康路二段320巷6號","121.50494","24.96001","6500600","新店區"
"231036","513-UM","2017/10/12 14:49:46","新北市新店區安祥路104巷6弄36號","121.483076666667","24.9629833333333","6500600","新店區"
"231035","515-UM","2017/10/12 14:49:38","新北市新店區安樂街16號","121.520845","24.973315","6500600","新店區"
"231001","619-UM","2017/10/12 14:49:30","新北市新店區三民路21巷1號","121.539231666667","24.971585","6500600","新店區"
"231003","641-BX","2017/10/12 14:49:50","新北市新店區中興路一段302號","121.546263333333","24.9697066666667","6500600","新店區"
"231034","645-TV","2017/10/12 14:49:46","新北市新店區車子路1-1號","121.50459","24.958045","6500600","新店區"
"231039","718-UY","2017/10/12 14:49:47","新北市新店區安康路一段92-1號","121.527815","24.9620533333333","6500600","新店區"
"231013","719-UM","2017/10/12 14:49:34","新北市新店區北新路二段35號","121.542803333333","24.97247","6500600","新店區"
"231005","897-TW","2017/10/12 14:49:47","新北市新店區復興路60號","121.537935","24.9869033333333","6500600","新店區"
"231006","898-TW","2017/10/12 14:49:36","新北市新店區北宜路一段152號","121.540286666667","24.9538883333333","6500600","新店區"
"231004","899-TW","2017/10/12 14:49:43","新北市新店區民族路161號","121.537756666667","24.9769083333333","6500600","新店區"
"231037","AKT-0513","2017/10/12 14:49:44","新北市新店區柴埕路57號","121.513658333333","24.9652383333333","6500600","新店區"
"235030","003-UY","2017/10/12 14:49:42","新北市中和區中山路二段3巷22弄1號","121.506425","25.0054183333333","6500300","中和區"
"235028","005-UY","2017/10/12 14:49:45","新北市中和區圓通路33號","121.501025","24.9977716666667","6500300","中和區"
"235027","006-UY","2017/10/12 14:49:46","新北市中和區連城路263巷27弄4號","121.492881666667","24.99457","6500300","中和區"
"235020","096-UM","2017/10/12 14:49:32","新北市中和區中山路三段114巷72號","121.476115","25.0077566666667","6500300","中和區"
"235003","097-UM","2017/10/12 14:49:43","新北市中和區安樂路243巷9-3號","121.513948333333","24.9996116666667","6500300","中和區"
"235029","098-UM","2017/10/12 14:49:40","新北市中和區福祥路66號","121.49935","25.0049033333333","6500300","中和區"
"235004","150-BY","2017/10/12 14:49:42","新北市中和區景新街145號","121.506425","24.9966666666667","6500300","中和區"
"235022","151-BY","2017/10/12 14:49:38","新北市中和區員山路146巷7號","121.481833333333","24.9968416666667","6500300","中和區"
"235019","183-VK","2017/10/12 14:49:43","新北市中和區民生街85巷5弄1號","121.469208333333","25.0042016666667","6500300","中和區"
"235002","185-VK","2017/10/12 14:49:35","新北市中和區自立路117巷4弄5號","121.52279","24.9942466666667","6500300","中和區"
"235013","186-VK","2017/10/12 14:49:42","新北市中和區中正路2號","121.503306666667","24.9937983333333","6500300","中和區"
"235031","255-BX","2017/10/12 14:49:39","新北市中和區員山路148巷23弄60號","121.48236","24.9980683333333","6500300","中和區"
"235008","293-VK","2017/10/12 14:49:34","新北市中和區南山路361號","121.505991666667","24.9906133333333","6500300","中和區"
"235036","301-VK","2017/10/12 14:49:48","新北市中和區中山路二段57號","121.504278333333","25.0047683333333","6500300","中和區"
"235007","352-BY","2017/10/12 14:49:44","新北市中和區安和路17號","121.51115","24.99391","6500300","中和區"
"235032","375-QA","2017/10/12 14:49:48","新北市中和區中山路二段136巷3弄6號","121.501405","25.0037333333333","6500300","中和區"
"235015","376-QA","2017/10/12 14:49:38","新北市中和區中興街169號","121.499908333333","24.990425","6500300","中和區"
"235035","269-TV","2017/10/12 14:49:37","新北市中和區連城路469巷21弄13號","121.484078333333","24.995155","6500300","中和區"
"235014","4979-A6","2017/10/12 14:49:39","新北市中和區景平路241巷82弄24號","121.506835","24.9922866666667","6500300","中和區"
"235033","4980-A6","2017/10/12 14:48:44","新北市中和區景平路630巷11號","121.500695","24.9983116666667","6500300","中和區"
"235006","551-UM","2017/10/12 14:49:44","新北市中和區保健路29巷2號","121.508988333333","24.9981833333333","6500300","中和區"
"235034","558-UM","2017/10/12 14:48:36","新北市中和區景平路583號","121.4976","25.000215","6500300","中和區"
"235018","640-BX","2017/10/12 14:49:36","新北市中和區民享街32巷26號","121.47253","25.00319","6500300","中和區"
"235024","647-TV","2017/10/12 14:49:32","新北市中和區中山路二段523巷20號","121.481686666667","25.0041866666667","6500300","中和區"
"235011","732-UM","2017/10/12 14:49:46","新北市中和區和平街48號","121.508746666667","24.9905583333333","6500300","中和區"
"235010","733-UM","2017/10/12 14:49:32","新北市中和區仁愛街53號","121.511283333333","24.9880083333333","6500300","中和區"
"235026","800-TS","2017/10/12 14:49:49","新北市中和區中山路二段526巷19號","121.485796666667","25.00558","6500300","中和區"
"235021","801-TS","2017/10/12 14:49:49","新北市中和區員山路150-22號","121.481413333333","24.9979733333333","6500300","中和區"
"235016","805-TS","2017/10/12 14:49:47","新北市中和區華新街192巷40號","121.506056666667","24.983685","6500300","中和區"
"235012","896-TW","2017/10/12 14:49:49","新北市中和區信義街115號","121.512183333333","24.98682","6500300","中和區"
"235017","900-TW","2017/10/12 14:49:45","新北市中和區國光街142巷21號","121.468226666667","25.00193","6500300","中和區"
"235001","AAC-213","2017/10/12 14:49:47","新北市中和區秀朗路三段130-2號","121.524548333333","24.9919866666667","6500300","中和區"
"235023","AAC-215","2017/10/12 14:49:46","新北市中和區圓通路305巷25弄10號","121.49493","24.9897033333333","6500300","中和區"
"220034","015-TV","2017/10/12 14:49:50","新北市板橋區中正路250巷85號","121.459101666667","25.019935","6500100","板橋區"
"220013","072-UY","2017/10/12 14:49:40","新北市板橋區國泰街39巷5弄9號","121.468721666667","25.006095","6500100","板橋區"
"220105","075-UY","2017/10/12 14:49:42","新北市板橋區文化路二段650巷15號","121.478168333333","25.03507","6500100","板橋區"
"220017","AAD-861","2017/10/12 14:49:40","新北市板橋區貴興路88-3號","121.455996666667","25.003315","6500100","板橋區"
"220016","120-SR","2017/10/12 14:49:47","新北市板橋區光復街141號","121.485241666667","25.0198233333333","6500100","板橋區"
"247011","546-UM","2017/10/12 14:49:45","新北市蘆洲區集賢路224巷66號","121.480738333333","25.0881916666667","6501400","蘆洲區"
"247019","500-BY","2017/10/12 14:46:22","新北市蘆洲區民義街86巷16號","121.473843333333","25.0901466666667","6501400","蘆洲區"
"247009","339-TH","2017/10/12 14:49:44","新北市蘆洲區中山一路234號","121.4728","25.08023","6501400","蘆洲區"
"247001","337-TH","2017/10/12 14:49:34","新北市蘆洲區長安街248號","121.457645","25.0861433333333","6501400","蘆洲區"
"247021","335-TH","2017/10/12 14:49:51","新北市蘆洲區仁愛街212巷8號","121.464356666667","25.0941683333333","6501400","蘆洲區"
"247015","057-VK","2017/10/12 14:49:42","新北市蘆洲區正和街86號","121.468296666667","25.0809116666667","6501400","蘆洲區"
"247005","056-VK","2017/10/12 14:49:43","新北市蘆洲區中華街31號","121.463276666667","25.08151","6501400","蘆洲區"
"247007","053-VK","2017/10/12 14:49:35","新北市蘆洲區信義路44號","121.474966666667","25.0795583333333","6501400","蘆洲區"
"247023","002-UY","2017/10/12 14:49:48","新北市蘆洲區和平路79號","121.468823333333","25.0791983333333","6501400","蘆洲區"
"228005","097-TW","2017/10/12 14:49:42","新北市貢寮區美豐里丹裡街59-1號","121.90949","25.0589533333333","6502600","貢寮區"
"228004","212-TW","2017/10/12 14:49:47","新北市貢寮區福隆里裕隆街2號","121.946646666667","25.0155583333333","6502600","貢寮區"
"208004","AAC-292","2017/10/12 14:49:36","新北市金山區兩湖里倒照湖39號","121.59","25.23572","6502700","金山區"
"207002","749-BX","2017/10/12 14:49:49","新北市萬里區崁腳里崁腳路73號","121.647591666667","25.1596366666667","6502800","萬里區"
"207001","291-VK","2017/10/12 12:18:10","新北市萬里區萬里里獅頭路23號","121.693833333333","25.1783066666667","6502800","萬里區"
"252005","073-UM","2017/10/12 14:49:38","新北市三芝區埔坪里埔頭坑149號","121.510495","25.2496633333333","6502100","三芝區"
"207001","662-BX","2017/10/12 14:43:12","新北市萬里區雙興里豐稟路22號","121.640611666667","25.18643","6502800","萬里區"
"236066","105-UM","2017/10/12 14:49:38","新北市土城區明德路一段323號","121.459123333333","24.977105","6501300","土城區"
"236040","107-UM","2017/10/12 14:49:39","新北市土城區裕民路92巷25弄12號","121.449885","24.9856166666667","6501300","土城區"
"236076","166-UM","2017/10/12 14:49:50","新北市土城區中央路四段125巷27號","121.41716","24.9567783333333","6501300","土城區"
"236028","253-BX","2017/10/12 14:49:32","新北市土城區忠義路26巷10號","121.439981666667","24.9699666666667","6501300","土城區"
"236024","269-VK","2017/10/12 14:49:47","新北市土城區慶安街48號","121.441098333333","24.9733033333333","6501300","土城區"
"236012","270-VK","2017/10/12 14:49:33","新北市土城區金城路二段354巷4號","121.460751666667","24.9848383333333","6501300","土城區"
"236033","271-VK","2017/10/12 14:49:35","新北市土城區明德路一段195巷3弄5號","121.464281666667","24.9785783333333","6501300","土城區"
"236018","401-BY","2017/10/12 14:49:32","新北市土城區延安街37巷1號","121.468106666667","24.9841866666667","6501300","土城區"
"236056","912-UM","2017/10/12 14:49:36","新北市土城區中央路三段205號","121.429895","24.9647016666667","6501300","土城區"
"236047","913-UM","2017/10/12 14:49:52","新北市土城區青雲路35號","121.460125","24.988625","6501300","土城區"
"236060","915-UM","2017/10/12 14:49:31","新北市土城區金城路三段179號","121.469481666667","24.988755","6501300","土城區"
"236052","AAC-216","2017/10/12 14:49:37","新北市土城區裕民路179號","121.453343333333","24.9847133333333","6501300","土城區"
"238018","571-TV","2017/10/12 14:49:46","新北市樹林區育德街78-1號","121.387925","24.9682833333333","6500700","樹林區"
"238012","303-VK","2017/10/12 14:49:45","新北市樹林區中山路三段204號","121.387235","24.96829","6500700","樹林區"
"238007","268-VK","2017/10/12 14:49:47","新北市樹林區中山路三段204號","121.38677","24.9682783333333","6500700","樹林區"
"221012","276-VK","2017/10/12 13:21:37","新北市汐止區汐萬路一段256巷3號","121.653455","25.07467","6501100","汐止區"
"220027","145-BY","2017/10/12 14:49:43","新北市板橋區建國街54巷30號","121.45992","25.017025","6500100","板橋區"
"220030","610-BX","2017/10/12 14:49:45","新北市板橋區大觀路三段133巷12號","121.433306666667","24.99379","6500100","板橋區"
"220040","267-BY","2017/10/12 14:49:38","新北市板橋區懷德街139巷27號","121.480043333333","25.0309033333333","6500100","板橋區"
"220004","276-BY","2017/10/12 14:49:49","新北市板橋區德興街37巷22號","121.454103333333","24.9939216666667","6500100","板橋區"
"220020","277-BY","2017/10/12 14:49:36","新北市板橋區金門街151巷40弄15號","121.433451666667","24.9896466666667","6500100","板橋區"
"220043","280-UM","2017/10/12 14:49:49","新北市板橋區長江路一段114號","121.45992","25.0297316666667","6500100","板橋區"
"220001","285-VK","2017/10/12 14:49:53","新北市板橋區民享街11號","121.475065","25.0144933333333","6500100","板橋區"
"220031","286-VK","2017/10/12 14:49:44","新北市板橋區僑中二街12巷8號","121.44645","25.01062","6500100","板橋區"
"220029","287-VK","2017/10/12 14:47:57","新北市板橋區大觀路一段31號","121.449895","25.0083083333333","6500100","板橋區"
"220039","288-VK","2017/10/12 14:49:46","新北市板橋區龍泉街54巷10號","121.456873333333","25.0266433333333","6500100","板橋區"
"220009","293-UM","2017/10/12 14:49:51","新北市板橋區板新路136號","121.4708","25.0155866666667","6500100","板橋區"
"220045","295-UM","2017/10/12 14:49:43","新北市板橋區民生路二段240巷59號","121.469935","25.0229533333333","6500100","板橋區"
"220032","296-UM","2017/10/12 14:49:35","新北市板橋區滿平街60號","121.427046666667","24.9893416666667","6500100","板橋區"
"220023","297-UM","2017/10/12 14:49:49","新北市板橋區中正路253巷58號","121.453383333333","25.01745","6500100","板橋區"
"220052","299-UM","2017/10/12 14:49:37","新北市板橋區陽明街29巷29號","121.46407","25.0224716666667","6500100","板橋區"
"220010","303-R5","2017/10/12 14:49:50","新北市板橋區中山路二段416巷56-3號","121.482813333333","25.0192283333333","6500100","板橋區"
"220041","307-R5","2017/10/12 14:49:49","新北市板橋區四維路259巷46號","121.461261666667","25.0270983333333","6500100","板橋區"
"220047","317-R6","2017/10/12 14:49:32","新北市板橋區英士路199號","121.458653333333","25.0234666666667","6500100","板橋區"
"220028","461-BY","2017/10/12 14:49:38","新北市板橋區大觀路二段37巷28號","121.447741666667","25.0027233333333","6500100","板橋區"
"220012","486-VK","2017/10/12 14:49:40","新北市板橋區公園街36-1號","121.462276666667","25.0083983333333","6500100","板橋區"
"220038","487-VK","2017/10/12 14:49:47","新北市板橋區英士路199號","121.458788333333","25.0236266666667","6500100","板橋區"
"220037","491-VK","2017/10/12 14:49:36","新北市板橋區文化路二段331號","121.47254","25.03023","6500100","板橋區"
"220104","560-BX","2017/10/12 14:49:39","新北市板橋區金華街95號","121.458456666667","25.020805","6500100","板橋區"
"220011","609-BX","2017/10/12 14:49:38","新北市板橋區三民路一段5巷23號","121.480128333333","25.0235433333333","6500100","板橋區"
"220002","630-UY","2017/10/12 14:49:45","新北市板橋區實踐路181-2號","121.464333333333","25.00361","6500100","板橋區"
"220005","686-BX","2017/10/12 14:49:49","新北市板橋區和平路安樂巷53號","121.462296666667","24.9931366666667","6500100","板橋區"
"220025","687-BX","2017/10/12 14:49:36","新北市板橋區僑中二街126巷2號","121.445246666667","25.00511","6500100","板橋區"
"220042","689-BX","2017/10/12 14:49:31","新北市板橋區長江路一段123號","121.460146666667","25.0300033333333","6500100","板橋區"
"220003","827-TW","2017/10/12 14:49:48","新北市板橋區國慶路149巷23-2號","121.460928333333","24.9974916666667","6500100","板橋區"
"220014","829-TW","2017/10/12 14:49:40","新北市板橋區長安街210號","121.474508333333","25.0120433333333","6500100","板橋區"
"220051","830-TW","2017/10/12 14:49:49","新北市板橋區仁化街53號","121.475226666667","25.0318366666667","6500100","板橋區"
"220022","895-R6","2017/10/12 14:49:36","新北市板橋區民權路71號","121.461413333333","25.011625","6500100","板橋區"
"220021","985-R7","2017/10/12 14:49:45","新北市板橋區大仁街75-1號","121.453928333333","25.016205","6500100","板橋區"
"220046","AAC-210","2017/10/12 14:49:52","新北市板橋區文化路一段285巷1弄1號","121.464495","25.0188883333333","6500100","板橋區"
"220018","AAC-253","2017/10/12 14:49:31","新北市板橋區民族路288號","121.470286666667","25.00688","6500100","板橋區"
