"lineid","car","time","location","longitude","latitude","cityid","cityname"
"234048","863-TW","2017/10/12 15:28:20","新北市八里區荖阡坑路32號","121.402931666667","25.127895","6500400","永和區"
"244024","742-UY","2017/10/12 09:31:54","新北市林口區粉寮路二段160巷28號","121.405203333333","25.0907716666667","6501700","林口區"
"231002","002-UM","2017/10/12 15:29:34","新北市新店區環河路114巷2號","121.536291666667","24.9644716666667","6500600","新店區"
"231028","046-UY","2017/10/12 15:29:51","新北市新店區僑信路25號","121.499466666667","24.95123","6500600","新店區"
"231030","047-UY","2017/10/12 15:29:46","新北市新店區新和街54號","121.519725","24.9853033333333","6500600","新店區"
"231029","106-UY","2017/10/12 15:29:38","新北市新店區安康路三段625號","121.47154","24.940325","6500600","新店區"
"231011","108-UY","2017/10/12 15:29:41","新北市新店區寶慶街5-2號","121.54419","24.9862766666667","6500600","新店區"
"231018","110-UY","2017/10/12 15:29:47","新北市新店區中央八街121號","121.525601666667","24.97822","6500600","新店區"
"231021","187-VK","2017/10/12 15:29:47","新北市新店區湖興路89號","121.559451666667","24.9358766666667","6500600","新店區"
"231007","189-VK","2017/10/12 12:02:17","新北市新店區安華路28-1號","121.519663333333","24.96105","6500600","新店區"
"231026","256-BX","2017/10/12 15:29:37","新北市新店區三民路117巷6弄1號","121.534188333333","24.9712633333333","6500600","新店區"
"231023","AAD-862","2017/10/12 15:29:47","新北市新店區北新路一段96巷23號","121.54287","24.96874","6500600","新店區"
"231025","4716-K9","2017/10/12 15:29:48","新北市新店區環河路113-1號","121.531133333333","24.9710533333333","6500600","新店區"
"231036","513-UM","2017/10/12 15:29:46","新北市新店區安祥路69巷52弄1號","121.481906666667","24.95971","6500600","新店區"
"231035","515-UM","2017/10/12 15:29:38","新北市新店區安民街365巷7弄2號","121.516026666667","24.97531","6500600","新店區"
"231003","641-BX","2017/10/12 15:29:30","新北市新店區寶高路120巷1號","121.554633333333","24.9760183333333","6500600","新店區"
"231034","645-TV","2017/10/12 15:29:46","新北市新店區富貴街9巷2號","121.494078333333","24.9491133333333","6500600","新店區"
"231039","718-UY","2017/10/12 15:29:47","新北市新店區寶元路一段89號","121.543331666667","24.9851666666667","6500600","新店區"
"231005","897-TW","2017/10/12 15:29:47","新北市新店區建國路184號","121.53792","24.98013","6500600","新店區"
"231004","899-TW","2017/10/12 15:29:43","新北市新店區建國路104-1號","121.539901666667","24.97786","6500600","新店區"
"231037","AKT-0513","2017/10/12 15:29:44","新北市新店區安興路105-1號","121.514598333333","24.9776833333333","6500600","新店區"
"241013","270-UM","2017/10/12 15:29:54","新北市三重區重新路四段121號","121.484803333333","25.0525666666667","6500200","三重區"
"241007","398-BY","2017/10/12 15:29:44","新北市三重區重新路四段121號","121.485233333333","25.0521166666667","6500200","三重區"
"241029","942-UM","2017/10/12 15:29:31","新北市三重區成功路106-1號","121.487493333333","25.0516183333333","6500200","三重區"
"241033","AAC-255","2017/10/12 15:29:52","新北市三重區成功路97號","121.488068333333","25.05146","6500200","三重區"
"235036","301-VK","2017/10/12 15:29:48","新北市中和區板南路268號","121.495441666667","24.996065","6500300","中和區"
"235007","352-BY","2017/10/12 15:29:44","新北市中和區中正路202號","121.497101666667","24.9939816666667","6500300","中和區"
"235014","4979-A6","2017/10/12 15:29:37","新北市中和區南華路1巷3號","121.501913333333","24.9956","6500300","中和區"
"235033","4980-A6","2017/10/12 15:29:44","新北市中和區中正路508號","121.488605","24.994595","6500300","中和區"
"235006","551-UM","2017/10/12 15:29:43","新北市新店區安忠路205巷8號","121.508995","24.954655","6500300","中和區"
"235026","800-TS","2017/10/12 15:29:49","新北市中和區中正路506號","121.488686666667","24.9942883333333","6500300","中和區"
"235001","AAC-213","2017/10/12 15:29:47","新北市五股區新城八路1號","121.447888333333","25.0891066666667","6500300","中和區"
"235023","AAC-215","2017/10/12 15:29:46","新北市中和區員山路30-3號","121.483631666667","24.9878916666667","6500300","中和區"
"247009","339-TH","2017/10/12 15:28:04","","121.401596666667","25.1296666666667","6501400","蘆洲區"
"247007","053-VK","2017/10/12 15:29:35","新北市八里區中山路三段390號","121.368223333333","25.1350366666667","6501400","蘆洲區"
"208004","AAC-292","2017/10/12 15:29:51","新北市金山區南勢35號","121.626741666667","25.21933","6502700","金山區"
"207001","291-VK","2017/10/12 12:18:10","新北市萬里區萬里里獅頭路23號","121.693833333333","25.1783066666667","6502800","萬里區"
"252005","073-UM","2017/10/12 15:29:38","新北市三芝區埔坪里埔頭坑41號","121.504356666667","25.2646033333333","6502100","三芝區"
"207001","662-BX","2017/10/12 15:29:32","新北市萬里區龜吼里美崙路96號","121.683858333333","25.1849466666667","6502800","萬里區"
"236066","105-UM","2017/10/12 15:29:38","新北市土城區中正路1號","121.442315","24.9750383333333","6501300","土城區"
"236040","107-UM","2017/10/12 15:29:39","新北市土城區學府路一段141號","121.45374","24.986085","6501300","土城區"
"236076","166-UM","2017/10/12 15:29:44","新北市土城區中州路26-4號","121.414295","24.9576883333333","6501300","土城區"
"236028","253-BX","2017/10/12 15:29:32","新北市土城區中央路一段260巷26號","121.442901666667","24.9845816666667","6501300","土城區"
"236024","269-VK","2017/10/12 15:29:47","新北市土城區中央路一段313號","121.443905","24.983415","6501300","土城區"
"236012","270-VK","2017/10/12 15:29:53","新北市土城區廣明街26號","121.455695","24.9924933333333","6501300","土城區"
"236033","271-VK","2017/10/12 15:29:43","新北市土城區明德路一段16號","121.464911666667","24.985015","6501300","土城區"
"236018","401-BY","2017/10/12 15:29:52","新北市土城區金城路三段143號","121.4684","24.9881333333333","6501300","土城區"
"236056","912-UM","2017/10/12 15:29:36","新北市土城區中央路三段7號","121.4395","24.9706666666667","6501300","土城區"
"236047","913-UM","2017/10/12 15:29:52","新北市土城區明德路一段192號","121.46192","24.9779916666667","6501300","土城區"
"236060","915-UM","2017/10/12 15:29:51","新北市土城區金城路三段73巷4弄28號","121.466335","24.98823","6501300","土城區"
"236052","AAC-216","2017/10/12 15:29:50","新北市土城區延和路43號","121.466153333333","24.98941","6501300","土城區"
"238002","755-BX","2017/10/12 15:29:42","新北市樹林區復興路196號","121.420023333333","24.991035","6500700","樹林區"
"238010","601-UM","2017/10/12 15:29:47","新北市樹林區中正路434-1號","121.413641666667","25.01146","6500700","樹林區"
"238006","599-UM","2017/10/12 15:29:46","新北市樹林區太平路1-13號","121.418805","24.9842966666667","6500700","樹林區"
"238005","571-TV","2017/10/12 15:29:46","新北市樹林區樹新路30-3號","121.42726","24.99481","6500700","樹林區"
"238011","5061-A6","2017/10/12 15:29:42","新北市樹林區太順街36號","121.419018333333","24.9799216666667","6500700","樹林區"
"238008","KEA-2217","2017/10/12 15:29:43","新北市樹林區西圳街一段165巷2號","121.395416666667","24.96207","6500700","樹林區"
"238009","KEA-2213","2017/10/12 15:29:43","新北市樹林區信義街2號","121.422156666667","24.9816483333333","6500700","樹林區"
"238012","303-VK","2017/10/12 15:29:46","新北市樹林區中山路一段149-3號","121.422085","24.9891533333333","6500700","樹林區"
"238004","283-BY","2017/10/12 15:29:44","新北市樹林區保安街二段333巷2號","121.412508333333","25.007515","6500700","樹林區"
"238001","282-BY","2017/10/12 15:29:44","新北市樹林區大安路145巷11號","121.422545","24.9965366666667","6500700","樹林區"
"238007","268-VK","2017/10/12 15:29:47","新北市樹林區俊英街116巷41弄19號","121.428693333333","25.0068516666667","6500700","樹林區"
"238013","172-UY","2017/10/12 15:29:35","新北市樹林區新興街19巷34弄32號","121.402341666667","24.9724883333333","6500700","樹林區"
"238003","169-UY","2017/10/12 15:29:37","新北市樹林區長壽街4號","121.423881666667","24.9933266666667","6500700","樹林區"
"221012","276-VK","2017/10/12 13:21:37","新北市汐止區汐萬路一段256巷3號","121.653455","25.07467","6501100","汐止區"
"220031","286-VK","2017/10/12 15:29:44","新北市板橋區僑中一街124巷61-61號","121.446986666667","25.0193466666667","6500100","板橋區"
"220029","287-VK","2017/10/12 15:29:17","新北市板橋區大觀路二段30號","121.44464","25.0020633333333","6500100","板橋區"
"220052","299-UM","2017/10/12 15:29:37","新北市板橋區漢生東路63巷27號","121.466955","25.0172483333333","6500100","板橋區"
"220010","303-R5","2017/10/12 15:29:49","新北市八里區中山路三段409號","121.368688333333","25.1347183333333","6500100","板橋區"
"220038","487-VK","2017/10/12 15:29:47","新北市板橋區四維路156號","121.46489","25.0259116666667","6500100","板橋區"
"220037","491-VK","2017/10/12 15:29:36","新北市板橋區懷德街127巷23弄13號","121.479538333333","25.0317533333333","6500100","板橋區"
"220042","689-BX","2017/10/12 15:29:51","新北市板橋區長江路一段8號","121.457863333333","25.02857","6500100","板橋區"
"220018","AAC-253","2017/10/12 15:29:48","新北市板橋區四川路二段245巷26號","121.451298333333","24.9928633333333","6500100","板橋區"
