"lineid","car","time","location","longitude","latitude","cityid","cityname"
"244024","742-UY","2017/10/12 09:31:54","新北市林口區粉寮路二段160巷28號","121.405203333333","25.0907716666667","6501700","林口區"
"243016","680-BX","2017/10/12 15:49:29","新北市泰山區犁頭窠3-1號","121.4221","25.0605333333333","6501600","泰山區"
"231018","110-UY","2017/10/12 16:19:27","新北市新店區中正路694巷15號","121.535491666667","24.99085","6500600","新店區"
"231007","189-VK","2017/10/12 12:02:17","新北市新店區安華路28-1號","121.519663333333","24.96105","6500600","新店區"
"231046","278-BY","2017/10/12 16:19:31","新北市新店區灣潭路3-7號","121.537946666667","24.9505066666667","6500600","新店區"
"231003","641-BX","2017/10/12 16:19:30","新北市新店區薏仁坑路自強巷1號","121.49811","24.9577583333333","6500600","新店區"
"241011","013-R5","2017/10/12 16:19:37","新北市三重區龍門路122號","121.49795","25.07298","6500200","三重區"
"241028","022-UY","2017/10/12 16:19:21","新北市三重區正義南路169號","121.498803333333","25.0574383333333","6500200","三重區"
"241008","059-VK","2017/10/12 16:19:38","新北市三重區永福街112號","121.479036666667","25.075485","6500200","三重區"
"241031","061-VK","2017/10/12 16:19:21","新北市三重區重新路四段121號","121.48467","25.0521183333333","6500200","三重區"
"241015","062-VK","2017/10/12 16:19:24","新北市三重區福德北路83號","121.501883333333","25.0659266666667","6500200","三重區"
"241017","063-VK","2017/10/12 16:19:18","新北市三重區大同北路156巷29號","121.491586666667","25.0653283333333","6500200","三重區"
"241024","065-VK","2017/10/12 16:19:26","新北市三重區中正北路145巷4弄1號","121.483531666667","25.0677016666667","6500200","三重區"
"241026","066-VK","2017/10/12 16:19:25","新北市三重區正義南路46號","121.498351666667","25.060875","6500200","三重區"
"241002","090-VK","2017/10/12 16:19:31","新北市三重區仁義街101巷28號","121.499145","25.0799866666667","6500200","三重區"
"241003","091-VK","2017/10/12 16:19:23","新北市三重區仁義街220巷32-1號","121.494141666667","25.08336","6500200","三重區"
"241009","156-TC","2017/10/12 16:19:21","新北市三重區仁愛街510號","121.487428333333","25.0821666666667","6500200","三重區"
"241005","262-UM","2017/10/12 16:19:24","新北市三重區溪尾街305號","121.487596666667","25.0837","6500200","三重區"
"241016","266-UM","2017/10/12 16:19:33","新北市三重區大仁街86號","121.492873333333","25.0654666666667","6500200","三重區"
"241022","267-UM","2017/10/12 16:19:20","新北市三重區新北大道一段7號","121.489656666667","25.0616233333333","6500200","三重區"
"241018","268-UM","2017/10/12 16:19:32","新北市三重區重陽路三段7號","121.489033333333","25.0662966666667","6500200","三重區"
"241013","270-UM","2017/10/12 16:19:34","新北市三重區三和路三段79號","121.494516666667","25.0719933333333","6500200","三重區"
"241025","271-UM","2017/10/12 16:19:28","新北市三重區中正北路560巷100弄2號","121.472535","25.06829","6500200","三重區"
"241007","398-BY","2017/10/12 16:19:29","新北市三重區三和路四段163巷83號","121.486213333333","25.0793783333333","6500200","三重區"
"241020","413-TH","2017/10/12 16:19:27","新北市三重區車路頭街17巷20號","121.484441666667","25.0706566666667","6500200","三重區"
"241019","478-VK","2017/10/12 16:19:35","新北市三重區自強路二段1號","121.490423333333","25.06895","6500200","三重區"
"241014","543-UM","2017/10/12 16:19:32","新北市三重區龍濱路159號","121.502473333333","25.0695083333333","6500200","三重區"
"241023","545-UM","2017/10/12 16:19:23","新北市三重區忠孝路二段124巷1弄13號","121.482723333333","25.0681116666667","6500200","三重區"
"241001","547-UM","2017/10/12 16:19:25","新北市三重區自強路四段77號","121.490841666667","25.079095","6500200","三重區"
"241006","AAD-863","2017/10/12 16:19:17","新北市三重區永福街46巷37號","121.482291666667","25.0774883333333","6500200","三重區"
"241004","887-TS","2017/10/12 16:19:27","新北市三重區自強路五段69號","121.494925","25.0820333333333","6500200","三重區"
"241012","941-UM","2017/10/12 16:19:20","新北市三重區仁愛街35號","121.496801666667","25.0712866666667","6500200","三重區"
"241029","942-UM","2017/10/12 16:19:31","新北市三重區泉州街76巷3號","121.494993333333","25.0545866666667","6500200","三重區"
"241033","AAC-255","2017/10/12 16:19:32","新北市三重區五谷王南街11巷17弄1號","121.472668333333","25.04464","6500200","三重區"
"235026","800-TS","2017/10/12 16:19:29","新北市中和區建八路143號","121.490348333333","24.9987633333333","6500300","中和區"
"247004","336-TH","2017/10/12 15:54:09","新北市五股區中興路三段163號","121.449248333333","25.0806233333333","6501400","蘆洲區"
"224006","676-BX","2017/10/12 16:19:26","新北市瑞芳區中正路2號","121.809301666667","25.1069883333333","6501200","瑞芳區"
"224008","275-VK","2017/10/12 16:19:32","新北市瑞芳區逢甲路20-1號","121.80932","25.1084533333333","6501200","瑞芳區"
"224007","273-VK","2017/10/12 16:19:37","新北市瑞芳區大埔路278號","121.760031666667","25.1025733333333","6501200","瑞芳區"
"224005","271-BY","2017/10/12 16:19:31","新北市瑞芳區阿美家園33號","121.821155","25.11671","6501200","瑞芳區"
"227004","642-TC","2017/10/12 16:19:21","新北市雙溪區上林里內平林80號","121.828308333333","25.02796","6502500","雙溪區"
"227010","400-TW","2017/10/12 16:19:28","新北市雙溪區三港里雙澳路80號","121.883856666667","25.0538983333333","6502500","雙溪區"
"251008","181-VK","2017/10/12 16:19:34","新北市淡水區中正東路二段48巷20號","121.457616666667","25.158365","6501000","淡水區"
"207001","291-VK","2017/10/12 12:18:10","新北市萬里區萬里里獅頭路23號","121.693833333333","25.1783066666667","6502800","萬里區"
"236076","166-UM","2017/10/12 16:19:24","新北市土城區金安街8號","121.42125","24.9643816666667","6501300","土城區"
"236056","912-UM","2017/10/12 16:19:36","新北市土城區中央路三段171號","121.431595","24.9654483333333","6501300","土城區"
"238002","755-BX","2017/10/12 16:19:22","新北市樹林區中山路一段276號","121.420823333333","24.9870833333333","6500700","樹林區"
"238010","601-UM","2017/10/12 16:19:28","新北市樹林區忠信街15號","121.407646666667","25.015055","6500700","樹林區"
"238006","599-UM","2017/10/12 16:19:31","新北市樹林區東榮街169號","121.414021666667","24.9813866666667","6500700","樹林區"
"238005","571-TV","2017/10/12 16:19:26","新北市樹林區水源街15號","121.425213333333","24.982915","6500700","樹林區"
"238011","5061-A6","2017/10/12 16:19:21","新北市樹林區八德街1148號","121.390765","24.9684333333333","6500700","樹林區"
"238012","303-VK","2017/10/12 16:19:25","新北市樹林區中正路22-1號","121.4279","24.9993433333333","6500700","樹林區"
"238004","283-BY","2017/10/12 16:19:18","新北市樹林區中正路433-2號","121.414958333333","25.0082566666667","6500700","樹林區"
"238001","282-BY","2017/10/12 16:19:23","新北市樹林區中正路21號","121.427593333333","24.9993733333333","6500700","樹林區"
"238007","268-VK","2017/10/12 16:19:27","新北市樹林區三龍街118巷23號","121.415348333333","25.0172816666667","6500700","樹林區"
"238003","169-UY","2017/10/12 16:19:37","新北市樹林區中山路一段306巷51弄11號","121.418101666667","24.9859066666667","6500700","樹林區"
"221012","276-VK","2017/10/12 13:21:37","新北市汐止區汐萬路一段256巷3號","121.653455","25.07467","6501100","汐止區"
