"lineid","car","time","location","longitude","latitude","cityid","cityname"
"234046","148-BY","2017/10/12 18:59:38","新北市永和區秀朗路二段175號","121.52564","25.00164","6500400","永和區"
"234013","149-BY","2017/10/12 18:59:49","新北市永和區中山路一段66號","121.512645","25.0107433333333","6500400","永和區"
"234007","207-UY","2017/10/12 18:59:35","新北市永和區中山路一段50號","121.513306666667","25.01063","6500400","永和區"
"234081","298-R6","2017/10/12 18:59:48","新北市永和區永亨路67-1號","121.521273333333","25.00607","6500400","永和區"
"234038","336-UY","2017/10/12 18:59:46","新北市永和區成功路二段203號","121.526593333333","24.996015","6500400","永和區"
"234064","337-UY","2017/10/12 18:59:51","新北市永和區秀朗路一段195巷4號","121.517806666667","25.00374","6500400","永和區"
"234086","338-UY","2017/10/12 18:59:51","新北市永和區中正路393號","121.517231666667","25.004015","6500400","永和區"
"234070","552-UM","2017/10/12 18:59:40","新北市永和區中興街84巷8號","121.518525","25.0117033333333","6500400","永和區"
"234054","553-UM","2017/10/12 18:59:40","新北市永和區竹林路66巷4號","121.518145","25.013355","6500400","永和區"
"234017","745-BX","2017/10/12 18:59:53","新北市永和區永和路二段297號","121.516111666667","25.01596","6500400","永和區"
"234030","746-BX","2017/10/12 18:59:47","新北市永和區厚德街5號","121.525715","24.9980583333333","6500400","永和區"
"234061","AAD-866","2017/10/12 18:59:43","新北市永和區福和路309巷1號","121.51628","25.0070766666667","6500400","永和區"
"234042","862-TW","2017/10/12 18:59:44","新北市永和區永貞路308號","121.511901666667","25.004935","6500400","永和區"
"234050","863-TW","2017/10/12 18:59:54","新北市永和區文化路194號","121.510886666667","25.0162816666667","6500400","永和區"
"234011","9373-KE","2017/10/12 18:59:48","新北市永和區忠孝街34巷1弄1號","121.51476","25.0159766666667","6500400","永和區"
"249005","172-UM","2017/10/12 17:19:44","新北市五股區中直路崩山巷9-2號","121.417885","25.124515","6502300","八里區"
"249001","173-UM","2017/10/12 18:59:54","新北市八里區渡船頭街2號","121.434645","25.1582783333333","6502300","八里區"
"248016","026-BX","2017/10/12 18:59:53","新北市五股區成泰路三段543巷16號","121.45096","25.10226","6501500","五股區"
"248006","077-UY","2017/10/12 18:59:55","新北市五股區中興路一段50號","121.468063333333","25.0726916666667","6501500","五股區"
"248008","095-VK","2017/10/12 18:59:37","新北市五股區中興路一段118巷6弄10號","121.46635","25.0743666666667","6501500","五股區"
"248020","225-UY","2017/10/12 18:59:42","新北市五股區凌雲路三段57號","121.425333333333","25.1250666666667","6501500","五股區"
"248012","247-BX","2017/10/12 18:59:44","新北市五股區工商路40號","121.439371666667","25.0838116666667","6501500","五股區"
"248009","272-BY","2017/10/12 18:59:34","新北市五股區水碓一路23號","121.43056","25.0713483333333","6501500","五股區"
"248004","677-BX","2017/10/12 18:59:52","新北市五股區民義路二段54-7號","121.408126666667","25.10632","6501500","五股區"
"248002","678-BX","2017/10/12 18:59:40","新北市五股區凌雲路一段135號","121.449566666667","25.1021266666667","6501500","五股區"
"234023","9380-KE","2017/10/12 18:59:48","新北市永和區竹林路39巷28弄39號","121.52007","25.01409","6500400","永和區"
"234077","969-R7","2017/10/12 18:59:53","新北市永和區中正路316號","121.517816666667","24.999405","6500400","永和區"
"234074","AAC-211","2017/10/12 18:59:49","新北市永和區環河東路二段98號","121.524141666667","25.0103666666667","6500400","永和區"
"234067","AAC-212","2017/10/12 18:59:43","新北市永和區中和路625號","121.513021666667","25.004895","6500400","永和區"
"234003","AAC-295","2017/10/12 18:59:46","新北市永和區和平街38號","121.513025","25.0099633333333","6500400","永和區"
"232011","375-UM","2017/10/12 18:59:48","新北市坪林區坪林街98號","121.712063333333","24.936315","6502000","坪林區"
"244013","069-UM","2017/10/12 18:59:56","新北市林口區麗園一街11巷3號","121.37746","25.070445","6501700","林口區"
"244007","080-UY","2017/10/12 18:59:38","新北市林口區太平里4鄰20號","121.377656666667","25.1161816666667","6501700","林口區"
"244019","403-UM","2017/10/12 18:59:38","新北市林口區麗園二街23巷11號","121.379973333333","25.0701566666667","6501700","林口區"
"244025","742-UY","2017/10/12 18:59:47","新北市林口區文化北路一段436號","121.365078333333","25.0768133333333","6501700","林口區"
"244009","410-SL","2017/10/12 18:59:47","新北市林口區竹林路362巷18號","121.392703333333","25.0843233333333","6501700","林口區"
"244023","483-VK","2017/10/12 18:59:57","新北市林口區文林六街27巷9號","121.371063333333","25.0809433333333","6501700","林口區"
"244017","485-VK","2017/10/12 18:59:40","新北市林口區公園路131巷131-1號","121.36908","25.0705566666667","6501700","林口區"
"244011","656-BX","2017/10/12 18:59:49","新北市林口區興林路15號","121.389803333333","25.0771066666667","6501700","林口區"
"243013","AAD-798","2017/10/12 18:59:43","新北市泰山區明志路三段257號","121.423286666667","25.0373866666667","6501600","泰山區"
"243009","297-R6","2017/10/12 18:59:45","新北市泰山區泰林路二段359號","121.428035","25.063725","6501600","泰山區"
"243015","380-SR","2017/10/12 18:59:50","新北市泰山區明志路一段252號","121.432301666667","25.060775","6501600","泰山區"
"243014","421-VK","2017/10/12 18:59:41","新北市泰山區泰林路二段570號","121.422635","25.0637583333333","6501600","泰山區"
"243010","KEA-2215","2017/10/12 18:59:42","新北市泰山區辭修路28號","121.428998333333","25.0581933333333","6501600","泰山區"
"243011","KEA-2216","2017/10/12 18:59:48","新北市泰山區明志路二段298巷16-1號","121.425731666667","25.0467933333333","6501600","泰山區"
"243012","646-TV","2017/10/12 18:59:49","新北市泰山區福興三街164號","121.432735","25.05705","6501600","泰山區"
"243016","680-BX","2017/10/12 18:59:42","新北市泰山區明志路二段211號","121.427441666667","25.04877","6501600","泰山區"
"222003","436-BY","2017/10/12 18:59:53","新北市深坑區深南路51-1號","121.621358333333","25.010225","6501800","深坑區"
"222001","628-TS","2017/10/12 18:59:42","新北市深坑區北深路一段264號","121.629395","25.0087683333333","6501800","深坑區"
"222002","659-BX","2017/10/12 18:59:44","新北市深坑區文山路一段33號","121.62956","25.0040616666667","6501800","深坑區"
"231041","002-UM","2017/10/12 18:59:48","新北市新店區環河路29巷1號","121.536946666667","24.96136","6500600","新店區"
"231059","046-UY","2017/10/12 18:59:48","新北市新店區安康路一段266巷4號","121.519801666667","24.9640766666667","6500600","新店區"
"231061","047-UY","2017/10/12 18:59:47","新北市新店區安康路一段302-3號","121.517698333333","24.9640316666667","6500600","新店區"
"231060","106-UY","2017/10/12 18:59:51","新北市新店區安忠路205巷8號","121.509965","24.9553633333333","6500600","新店區"
"231047","108-UY","2017/10/12 18:59:55","新北市新店區德正街27巷29弄76號","121.545888333333","24.973325","6500600","新店區"
"231051","110-UY","2017/10/12 18:59:42","新北市新店區百忍街1號","121.534973333333","24.9755233333333","6500600","新店區"
"231052","187-VK","2017/10/12 18:59:54","新北市新店區新烏路二段7號","121.543585","24.929705","6500600","新店區"
"231007","189-VK","2017/10/12 12:02:17","新北市新店區安華路28-1號","121.519663333333","24.96105","6500600","新店區"
"231050","215-TC","2017/10/12 18:59:39","新北市新店區北宜路二段30巷5弄2號","121.548015","24.950835","6500600","新店區"
"231046","278-BY","2017/10/12 18:59:41","新北市新店區直潭五街28號","121.534128333333","24.9416283333333","6500600","新店區"
"231054","AAD-862","2017/10/12 18:59:41","新北市新店區新店路13號","121.540318333333","24.9528983333333","6500600","新店區"
"231058","3712-VJ","2017/10/12 18:59:52","新北市新店區中興路一段183號","121.543048333333","24.96486","6500600","新店區"
"231055","3713-VJ","2017/10/12 18:59:51","新北市新店區新生街13巷16號","121.539255","24.96594","6500600","新店區"
"231056","4716-K9","2017/10/12 18:59:45","新北市新店區二十張路33巷32號","121.539675","24.9802916666667","6500600","新店區"
"231067","4772-VM","2017/10/12 18:59:37","新北市新店區安康路一段263巷27號","121.52398","24.9616233333333","6500600","新店區"
"231065","513-UM","2017/10/12 18:59:53","新北市新店區安祥路147巷1號","121.474963333333","24.9548916666667","6500600","新店區"
"231064","515-UM","2017/10/12 18:59:45","新北市新店區安忠路8號","121.514763333333","24.9632","6500600","新店區"
"231040","619-UM","2017/10/12 18:59:44","新北市新店區中正路376號","121.534883333333","24.9768716666667","6500600","新店區"
"231042","641-BX","2017/10/12 18:59:42","新北市新店區中興路一段292號","121.545905","24.969235","6500600","新店區"
"231063","645-TV","2017/10/12 18:59:52","新北市新店區車子路109號","121.505253333333","24.9521583333333","6500600","新店區"
"231049","719-UM","2017/10/12 18:59:56","新北市新店區二十張路92號","121.536263333333","24.9798083333333","6500600","新店區"
"231062","720-UM","2017/10/12 18:59:46","新北市新店區吉安街39號","121.515456666667","24.96616","6500600","新店區"
"231044","897-TW","2017/10/12 18:59:47","新北市新店區寶中路99號","121.548936666667","24.9802133333333","6500600","新店區"
"231045","898-TW","2017/10/12 18:59:52","新北市新店區光明街31號","121.538295","24.9596333333333","6500600","新店區"
"231043","899-TW","2017/10/12 18:59:37","新北市新店區北新路二段7號","121.542725","24.9713083333333","6500600","新店區"
"231066","AKT-0513","2017/10/12 18:59:51","新北市新店區安康路三段51號","121.492493333333","24.9524966666667","6500600","新店區"
"241035","462-BY","2017/10/12 18:59:54","新北市三重區重新路四段121號","121.484653333333","25.0519583333333","6500200","三重區"
"241029","942-UM","2017/10/12 18:59:51","新北市三重區重安街24號","121.490378333333","25.05798","6500200","三重區"
"235066","003-UY","2017/10/12 18:59:50","新北市中和區水源路6巷18號","121.503235","25.003235","6500300","中和區"
"235064","005-UY","2017/10/12 18:59:51","新北市中和區連城路75巷13號","121.498515","24.9983183333333","6500300","中和區"
"235063","006-UY","2017/10/12 18:59:52","新北市中和區中正路466號","121.490036666667","24.99436","6500300","中和區"
"235056","096-UM","2017/10/12 18:59:51","新北市中和區員山路466巷15號","121.480665","25.0066266666667","6500300","中和區"
"235039","097-UM","2017/10/12 18:59:49","新北市中和區安樂路217巷40弄1號","121.513345","24.997965","6500300","中和區"
"235065","098-UM","2017/10/12 18:59:50","新北市中和區中山路二段2巷81弄11號","121.50063","25.0071616666667","6500300","中和區"
"235040","150-BY","2017/10/12 18:59:55","新北市中和區安樂路51巷12號","121.511768333333","24.9939383333333","6500300","中和區"
"235058","151-BY","2017/10/12 18:59:50","新北市中和區連城路569巷9弄13號","121.479763333333","24.99417","6500300","中和區"
"235055","183-VK","2017/10/12 18:59:48","新北市中和區德光路78號","121.469091666667","25.00368","6500300","中和區"
"235038","185-VK","2017/10/12 18:59:44","新北市中和區大勇街43巷11號","121.517085","24.9946133333333","6500300","中和區"
"235049","186-VK","2017/10/12 18:59:41","新北市中和區景安路177巷36號","121.506948333333","24.9944333333333","6500300","中和區"
"235067","255-BX","2017/10/12 18:59:51","新北市中和區民樂路77號","121.484446666667","25.00127","6500300","中和區"
"235044","293-VK","2017/10/12 18:59:39","新北市中和區復興路280巷33弄4號","121.501336666667","24.9915516666667","6500300","中和區"
"235072","301-VK","2017/10/12 18:59:45","新北市中和區中山路二段106號","121.503143333333","25.004065","6500300","中和區"
"235043","352-BY","2017/10/12 18:59:38","新北市中和區成功路69號","121.52612","24.99244","6500300","中和區"
"235068","375-QA","2017/10/12 18:59:43","新北市中和區圓通路265巷30號","121.49576","24.992565","6500300","中和區"
"235051","376-QA","2017/10/12 18:59:45","新北市中和區忠孝街4號","121.509955","24.9827366666667","6500300","中和區"
"235061","378-QA","2017/10/12 18:59:45","新北市中和區民享街77號","121.47421","25.0019","6500300","中和區"
"235050","4979-A6","2017/10/12 18:59:40","新北市中和區華新街50巷8號","121.507663333333","24.9839766666667","6500300","中和區"
"235069","4980-A6","2017/10/12 18:59:44","新北市中和區圓通路109巷1弄4號","121.499941666667","24.9964083333333","6500300","中和區"
"235042","551-UM","2017/10/12 18:59:53","新北市中和區秀朗路三段100巷2弄4號","121.525163333333","24.9935033333333","6500300","中和區"
"235070","558-UM","2017/10/12 18:59:47","新北市中和區中和路241號","121.504676666667","24.9998833333333","6500300","中和區"
"235045","565-BX","2017/10/12 18:59:37","新北市中和區景新街461號","121.513301666667","24.9882166666667","6500300","中和區"
"235054","640-BX","2017/10/12 18:59:38","新北市中和區民享街35巷15號","121.474911666667","25.004095","6500300","中和區"
"235060","647-TV","2017/10/12 18:59:54","新北市中和區民治街3巷1號","121.474975","25.0053916666667","6500300","中和區"
"235047","732-UM","2017/10/12 18:38:26","新北市中和區南山路320巷10弄25號","121.506558333333","24.9866166666667","6500300","中和區"
"235046","733-UM","2017/10/12 18:59:47","新北市中和區興南路一段135巷17號","121.50925","24.9870733333333","6500300","中和區"
"235062","800-TS","2017/10/12 18:59:42","新北市中和區中山路二段356號","121.493003333333","25.0028933333333","6500300","中和區"
"235057","801-TS","2017/10/12 18:59:36","新北市中和區民安街25巷12弄28號","121.47956","24.9997","6500300","中和區"
"235041","802-TS","2017/10/12 18:59:36","新北市中和區宜安路92巷11號","121.511071666667","24.9978716666667","6500300","中和區"
"235052","805-TS","2017/10/12 18:59:41","新北市中和區興南路二段252號","121.50311","24.9818916666667","6500300","中和區"
"235048","896-TW","2017/10/12 18:59:38","新北市中和區華新街93號","121.508596666667","24.983125","6500300","中和區"
"235053","900-TW","2017/10/12 18:59:37","新北市中和區民德路298巷13號","121.466465","24.9956483333333","6500300","中和區"
"235037","AAC-213","2017/10/12 18:59:46","新北市中和區自立路99巷9號","121.522481666667","24.994815","6500300","中和區"
"235059","AAC-215","2017/10/12 18:59:47","新北市中和區圓通路367巷18-5號","121.491853333333","24.988455","6500300","中和區"
"220065","072-UY","2017/10/12 18:59:57","新北市板橋區漢生東路340巷8號","121.471521666667","25.007435","6500100","板橋區"
"220086","073-UY","2017/10/12 18:59:50","新北市板橋區中正路80巷5號","121.456976666667","25.01465","6500100","板橋區"
"220106","075-UY","2017/10/12 18:59:44","新北市板橋區文化路二段124巷28-2號","121.471238333333","25.0256633333333","6500100","板橋區"
"220069","AAD-861","2017/10/12 18:59:46","新北市板橋區華興街32-5號","121.458898333333","25.0047516666667","6500100","板橋區"
"220068","120-SR","2017/10/12 18:59:55","新北市板橋區中山路二段467號","121.481916666667","25.0205166666667","6500100","板橋區"
"247008","053-VK","2017/10/12 18:56:38","新北市五股區中興路三段163號","121.44915","25.0806583333333","6501400","蘆洲區"
"226004","312-R5","2017/10/12 18:59:50","新北市平溪區靜安路二段530巷30號","121.743818333333","25.0268366666667","6502400","平溪區"
"228003","097-TW","2017/10/12 18:59:37","新北市貢寮區和美里龍洞街56-2號","121.912138333333","25.1139866666667","6502600","貢寮區"
"228001","212-TW","2017/10/12 18:59:54","新北市貢寮區仁理村研海街12-1號","121.923753333333","25.0517183333333","6502600","貢寮區"
"228002","585-TW","2017/10/12 18:59:49","新北市貢寮區福隆里東興街106巷25弄1號","121.946433333333","25.0183366666667","6502600","貢寮區"
"224010","AGQ-8101","2017/10/12 18:59:42","新北市瑞芳區基山街103號","121.844576666667","25.1084983333333","6501200","瑞芳區"
"224006","676-BX","2017/10/12 18:59:47","新北市瑞芳區中正路2號","121.808933333333","25.10711","6501200","瑞芳區"
"224009","285-BY","2017/10/12 18:59:44","新北市瑞芳區祈堂路53-1號","121.859595","25.1107683333333","6501200","瑞芳區"
"224008","275-VK","2017/10/12 18:59:51","新北市瑞芳區逢甲路335號","121.801056666667","25.11227","6501200","瑞芳區"
"224007","273-VK","2017/10/12 18:59:46","新北市瑞芳區中央路48巷吉祥園8號","121.759433333333","25.1035883333333","6501200","瑞芳區"
"224005","271-BY","2017/10/12 18:59:54","新北市瑞芳區海濱路155號","121.829535","25.1220383333333","6501200","瑞芳區"
"227004","642-TC","2017/10/12 18:59:41","新北市雙溪區平林里康福家園17號","121.858813333333","25.0374066666667","6502500","雙溪區"
"227010","400-TW","2017/10/12 18:59:48","新北市雙溪區牡丹里中正路58巷23號","121.866455","25.0416933333333","6502500","雙溪區"
"253005","032-BX","2017/10/12 18:59:41","新北市石門區中央路14-2號","121.566763333333","25.2915983333333","6502200","石門區"
"253006","295-VK","2017/10/12 18:59:43","新北市石門區八甲6號","121.521555","25.282145","6502200","石門區"
"208002","742-BX","2017/10/12 18:59:36","新北市金山區仁愛路37-13號","121.635823333333","25.22033","6502700","金山區"
"208003","665-BX","2017/10/12 18:59:58","新北市金山區中正路20號","121.635956666667","25.2223133333333","6502700","金山區"
"208001","761-BX","2017/10/12 18:59:57","新北市金山區中山路16號","121.641801666667","25.2182633333333","6502700","金山區"
"251009","008-UM","2017/10/12 18:59:53","新北市淡水區重建街59號","121.439855","25.1717416666667","6501000","淡水區"
"251001","011-UM","2017/10/12 18:59:50","新北市淡水區自強路58-1號","121.463225","25.1275983333333","6501000","淡水區"
"251002","012-UM","2017/10/12 18:59:47","新北市淡水區中正東路49號","121.446695","25.1680666666667","6501000","淡水區"
"251014","182-VK","2017/10/12 18:59:37","新北市淡水區小中寮32號","121.490951666667","25.2262733333333","6501000","淡水區"
"251010","413-VK","2017/10/12 18:59:46","新北市淡水區淡海路111號","121.422091666667","25.1825283333333","6501000","淡水區"
"251012","441-VK","2017/10/12 18:59:49","新北市淡水區新民街322巷1號","121.435376666667","25.1837066666667","6501000","淡水區"
"251016","442-VK","2017/10/12 18:59:37","新北市淡水區埤島23-3號","121.44735","25.1992033333333","6501000","淡水區"
"251007","577-R6","2017/10/12 18:59:41","新北市淡水區民生路135巷24號","121.466355","25.13914","6501000","淡水區"
"251011","650-BX","2017/10/12 18:59:48","新北市淡水區中正東路二段143巷2弄1號","121.460791666667","25.1474633333333","6501000","淡水區"
"251003","673-BX","2017/10/12 18:59:54","新北市淡水區中山北路一段149巷28號","121.442956666667","25.1781116666667","6501000","淡水區"
"207003","291-VK","2017/10/12 18:59:53","新北市萬里區大鵬里頂社24號","121.657276666667","25.2104116666667","6502800","萬里區"
"207004","225-TW","2017/10/12 18:59:51","新北市萬里區萬里里獅頭路22-1號","121.693095","25.17829","6502800","萬里區"
"252002","178-VK","2017/10/12 18:59:46","新北市三芝區中正路一段80號","121.50406","25.2573416666667","6502100","三芝區"
"252003","249-BX","2017/10/12 18:59:54","新北市三芝區後厝里北勢子42-6號","121.472386666667","25.2527616666667","6502100","三芝區"
"252001","292-VK","2017/10/12 18:59:45","新北市三芝區中興街二段260號","121.501743333333","25.253105","6502100","三芝區"
"237004","078-UY","2017/10/12 18:59:54","新北市三峽區插角217-1號","121.414845","24.8684733333333","6500900","三峽區"
"237007","153-BY","2017/10/12 18:59:54","新北市三峽區大埔路32號","121.366048333333","24.9090383333333","6500900","三峽區"
"237013","252-BX","2017/10/12 18:59:41","新北市三峽區光明路69巷25號","121.376696666667","24.9292233333333","6500900","三峽區"
"237012","275-BY","2017/10/12 18:59:45","新北市三峽區三樹路267號","121.379121666667","24.9429416666667","6500900","三峽區"
"237008","302-VK","2017/10/12 18:59:35","新北市三峽區中正路一段375號","121.370828333333","24.922545","6500900","三峽區"
"237014","433-BY","2017/10/12 18:59:50","新北市三峽區隆恩街170號","121.363218333333","24.9430433333333","6500900","三峽區"
"237006","5529-G3","2017/10/12 18:59:56","新北市三峽區溪東路233巷45弄8號","121.409798333333","24.9336016666667","6500900","三峽區"
"237011","572-TV","2017/10/12 12:53:09","新北市三峽區中山路459巷151-1號","121.348805","24.9322216666667","6500900","三峽區"
"237016","649-BX","2017/10/12 18:59:36","新北市三峽區建安85號","121.453113333333","24.9217916666667","6500900","三峽區"
"237010","706-TV","2017/10/12 18:57:57","新北市三峽區國光街358號","121.371148333333","24.9396933333333","6500900","三峽區"
"237005","AKY-6261","2017/10/12 18:59:40","新北市三峽區中山路459巷163-3號","121.349083333333","24.9333233333333","6500900","三峽區"
"236071","105-UM","2017/10/12 18:59:53","新北市土城區清水路99巷13號","121.456775","24.982415","6501300","土城區"
"236042","107-UM","2017/10/12 18:59:47","新北市土城區學府路一段227號","121.451185","24.9841733333333","6501300","土城區"
"236078","166-UM","2017/10/12 18:59:47","新北市土城區中央路四段125巷2弄10號","121.416431666667","24.9570416666667","6501300","土城區"
"236030","253-BX","2017/10/12 18:59:37","新北市土城區興城路75號","121.440143333333","24.97082","6501300","土城區"
"236026","269-VK","2017/10/12 18:59:48","新北市土城區光明街11號","121.441956666667","24.9747033333333","6501300","土城區"
"236014","270-VK","2017/10/12 18:59:48","新北市土城區立德路28號","121.463275","24.987615","6501300","土城區"
"236037","271-VK","2017/10/12 18:59:55","新北市土城區仁愛路54巷22弄2號","121.461631666667","24.9784416666667","6501300","土城區"
"236021","401-BY","2017/10/12 18:59:37","新北市土城區明峰街50號","121.46775","24.9864933333333","6501300","土城區"
"236058","912-UM","2017/10/12 18:59:37","新北市土城區金城路一段118號","121.445758333333","24.9744433333333","6501300","土城區"
"236051","913-UM","2017/10/12 18:59:39","新北市土城區青雲路113號","121.458843333333","24.9846766666667","6501300","土城區"
"236062","915-UM","2017/10/12 18:59:51","新北市土城區延和路108巷4弄2號","121.467356666667","24.989305","6501300","土城區"
"236053","AAC-216","2017/10/12 18:59:41","新北市土城區學成路162號","121.448118333333","24.98916","6501300","土城區"
"242051","751-BX","2017/10/12 18:59:47","新北市樹林區中山路三段214號","121.380518333333","24.966885","6500500","新莊區"
"238023","601-UM","2017/10/12 18:59:47","新北市樹林區工興街15號","121.398191666667","25.013805","6500700","樹林區"
"238019","599-UM","2017/10/12 18:59:46","新北市樹林區東華街73號","121.415666666667","24.980905","6500700","樹林區"
"238018","571-TV","2017/10/12 18:59:46","新北市樹林區太元街5號","121.417853333333","24.980965","6500700","樹林區"
"238021","KEA-2217","2017/10/12 18:59:41","新北市樹林區西圳街二段90號","121.385073333333","24.9581133333333","6500700","樹林區"
"238022","KEA-2213","2017/10/12 18:59:42","新北市樹林區東興街51號","121.41143","24.977175","6500700","樹林區"
"238012","303-VK","2017/10/12 18:59:45","新北市樹林區民和街50號","121.384301666667","24.9693666666667","6500700","樹林區"
"238014","282-BY","2017/10/12 18:59:56","新北市樹林區潭興街143巷28弄2號","121.424895","24.9995833333333","6500700","樹林區"
"238020","268-VK","2017/10/12 18:59:46","新北市樹林區俊英街180號","121.426111666667","25.0076216666667","6500700","樹林區"
"238026","172-UY","2017/10/12 18:59:53","新北市樹林區信和街136-2號","121.390575","24.972145","6500700","樹林區"
"238016","169-UY","2017/10/12 18:59:37","新北市樹林區文化街28號","121.419278333333","24.987705","6500700","樹林區"
"239007","AAC-297","2017/10/12 18:59:43","新北市鶯歌區中正一路345巷21號","121.357643333333","24.9577883333333","6500800","鶯歌區"
"239008","527-UM","2017/10/12 18:59:41","新北市鶯歌區國際二路14巷16號","121.338065","24.9750466666667","6500800","鶯歌區"
"239005","526-UM","2017/10/12 18:59:46","新北市鶯歌區鳳吉一街46號","121.326156666667","24.973895","6500800","鶯歌區"
"239001","417-VK","2017/10/12 18:59:39","新北市鶯歌區永明街97號","121.3415","24.9564066666667","6500800","鶯歌區"
"239003","360-BY","2017/10/12 18:59:56","新北市鶯歌區鶯桃路599號","121.329315","24.969","6500800","鶯歌區"
"239004","193-VK","2017/10/12 18:59:43","新北市鶯歌區中正三路230巷6號","121.330845","24.9382783333333","6500800","鶯歌區"
"221008","489-VK","2017/10/12 18:59:49","新北市汐止區康寧街753巷2弄28號","121.640518333333","25.074805","6501100","汐止區"
"221036","130-UY","2017/10/12 18:59:35","新北市汐止區水碓街40號","121.66505","25.0686183333333","6501100","汐止區"
"221015","131-UY","2017/10/12 18:59:43","新北市汐止區鄉長路一段43號","121.665391666667","25.0749683333333","6501100","汐止區"
"221010","269-BY","2017/10/12 18:59:52","新北市汐止區康寧街901號","121.651413333333","25.0751016666667","6501100","汐止區"
"221012","276-VK","2017/10/12 13:21:37","新北市汐止區汐萬路一段256巷3號","121.653455","25.07467","6501100","汐止區"
"221012","278-VK","2017/10/12 18:59:41","新北市汐止區康寧街901號","121.650938333333","25.075265","6501100","汐止區"
"221023","279-VK","2017/10/12 18:59:47","新北市汐止區康寧街901號","121.651021666667","25.0752783333333","6501100","汐止區"
"221032","280-BY","2017/10/12 18:59:41","新北市汐止區橫科路407巷30弄28號","121.627286666667","25.0483133333333","6501100","汐止區"
"221027","281-BY","2017/10/12 18:59:46","新北市汐止區康寧街901號","121.650893333333","25.0753133333333","6501100","汐止區"
"221029","298-VK","2017/10/12 18:59:45","新北市汐止區樟樹一路254號","121.642373333333","25.0672933333333","6501100","汐止區"
"221021","299-VK","2017/10/12 18:59:54","新北市汐止區汐萬路一段256巷3號","121.65263","25.07456","6501100","汐止區"
"221031","353-TW","2017/10/12 18:59:52","新北市汐止區福德一路270號","121.632255","25.0639116666667","6501100","汐止區"
"221035","622-UM","2017/10/12 18:59:52","新北市汐止區康寧街901號","121.651091666667","25.0751983333333","6501100","汐止區"
"221025","623-UM","2017/10/12 18:59:38","新北市汐止區康寧街901號","121.651203333333","25.07516","6501100","汐止區"
"221038","646-BX","2017/10/12 18:59:56","新北市汐止區康寧街901號","121.650808333333","25.0754183333333","6501100","汐止區"
"221033","647-BX","2017/10/12 18:59:51","新北市汐止區南勢街1巷1號","121.627098333333","25.0374783333333","6501100","汐止區"
"221002","707-TV","2017/10/12 18:59:52","新北市汐止區大同路一段2號","121.62102","25.0550966666667","6501100","汐止區"
"221018","753-BX","2017/10/12 18:59:49","新北市汐止區大同路二段391號","121.657841666667","25.067315","6501100","汐止區"
"220079","145-BY","2017/10/12 18:59:47","新北市板橋區民權路202巷14弄2號","121.460595","25.0157466666667","6500100","板橋區"
"220082","610-BX","2017/10/12 18:59:51","新北市板橋區篤行路三段20-1號","121.42876","24.9871266666667","6500100","板橋區"
"220101","245-BX","2017/10/12 18:59:55","新北市板橋區文化路二段182巷27號","121.472481666667","25.0266516666667","6500100","板橋區"
"220091","267-BY","2017/10/12 18:59:39","新北市板橋區莒光路165巷30號","121.474115","25.0248","6500100","板橋區"
"220056","276-BY","2017/10/12 18:59:52","新北市板橋區信義路116號","121.458365","24.9925833333333","6500100","板橋區"
"220072","277-BY","2017/10/12 18:59:50","新北市板橋區大觀路三段50巷63號","121.431715","24.9961466666667","6500100","板橋區"
"220094","280-UM","2017/10/12 18:59:43","新北市板橋區莒光路1-1號","121.469616666667","25.0249316666667","6500100","板橋區"
"220071","283-VK","2017/10/12 18:59:57","新北市板橋區忠孝路196巷45號","121.46562","25.001625","6500100","板橋區"
"220053","285-VK","2017/10/12 18:59:50","新北市板橋區中山路二段89巷58號","121.473841666667","25.0172866666667","6500100","板橋區"
"220083","286-VK","2017/10/12 18:59:53","新北市板橋區大觀路一段38巷156弄10號","121.442395","25.004795","6500100","板橋區"
"220081","287-VK","2017/10/12 18:44:29","新北市板橋區大觀路一段51號","121.447778333333","25.0070716666667","6500100","板橋區"
"220090","288-VK","2017/10/12 18:59:50","新北市板橋區四維路177巷2弄1號","121.464021666667","25.02632","6500100","板橋區"
"220061","293-UM","2017/10/12 18:59:49","新北市板橋區富山街102號","121.476263333333","25.0219416666667","6500100","板橋區"
"220096","295-UM","2017/10/12 18:59:56","新北市板橋區莒光路103號","121.472638333333","25.02407","6500100","板橋區"
"220084","296-UM","2017/10/12 18:59:57","新北市板橋區大觀路二段156巷78號","121.4412","25.0009266666667","6500100","板橋區"
"220075","297-UM","2017/10/12 18:59:54","新北市板橋區福德街57號","121.456086666667","25.0083033333333","6500100","板橋區"
"220103","299-UM","2017/10/12 18:59:44","新北市板橋區民生路二段123號","121.470651666667","25.0186833333333","6500100","板橋區"
"220062","303-R5","2017/10/12 18:59:48","新北市板橋區三民路二段正隆巷30號","121.477311666667","25.013455","6500100","板橋區"
"220092","307-R5","2017/10/12 18:59:42","新北市板橋區縣民大道二段166號","121.468365","25.0164966666667","6500100","板橋區"
"220098","317-R6","2017/10/12 18:59:50","新北市板橋區民有街18號","121.46622","25.0249966666667","6500100","板橋區"
"220080","461-BY","2017/10/12 18:59:55","新北市板橋區大觀路二段265巷3弄21號","121.443758333333","24.9981933333333","6500100","板橋區"
"220064","486-VK","2017/10/12 18:59:41","新北市板橋區新站路28號","121.466961666667","25.01399","6500100","板橋區"
"220089","487-VK","2017/10/12 18:59:56","新北市板橋區民生路二段234巷9號","121.468538333333","25.0229066666667","6500100","板橋區"
"220088","491-VK","2017/10/12 18:59:54","新北市板橋區民生路二段232-13號","121.4687","25.0224333333333","6500100","板橋區"
"220035","560-BX","2017/10/12 18:59:36","新北市板橋區中正路341巷35號","121.454171666667","25.019775","6500100","板橋區"
"220103","561-BX","2017/10/12 18:52:53","新北市板橋區民生路二段161巷9號","121.470321666667","25.01964","6500100","板橋區"
"220063","609-BX","2017/10/12 18:59:45","新北市板橋區中山路二段167號","121.475916666667","25.0168416666667","6500100","板橋區"
"220054","630-UY","2017/10/12 18:59:40","新北市板橋區後埔街37號","121.46057","25.0061116666667","6500100","板橋區"
"220057","686-BX","2017/10/12 18:59:53","新北市板橋區重慶路65號","121.461881666667","25.00709","6500100","板橋區"
"220077","687-BX","2017/10/12 18:59:51","新北市板橋區龍興街6號","121.442756666667","24.999575","6500100","板橋區"
"220093","689-BX","2017/10/12 18:59:44","新北市板橋區文化路一段435巷16號","121.467911666667","25.0236383333333","6500100","板橋區"
"220055","827-TW","2017/10/12 18:59:55","新北市板橋區中山路一段143號","121.464598333333","25.01179","6500100","板橋區"
"220067","829-TW","2017/10/12 18:59:52","新北市板橋區三民路二段正隆巷12弄10號","121.477928333333","25.0132266666667","6500100","板橋區"
"220102","830-TW","2017/10/12 18:59:43","新北市板橋區懷德街235巷2-1號","121.481253333333","25.0282566666667","6500100","板橋區"
"220074","895-R6","2017/10/12 18:59:54","新北市板橋區林園街53號","121.453671666667","25.010215","6500100","板橋區"
"220073","985-R7","2017/10/12 18:59:51","新北市板橋區民權路312號","121.456995","25.016255","6500100","板橋區"
"220097","AAC-210","2017/10/12 18:59:39","新北市板橋區四維路137巷17號","121.464211666667","25.0249083333333","6500100","板橋區"
"220070","AAC-253","2017/10/12 18:59:43","新北市板橋區四川路一段281號","121.459425","25.0020316666667","6500100","板橋區"
