"lineid","car","time","location","longitude","latitude","cityid","cityname"
"234046","148-BY","2017/10/12 19:59:58","新北市永和區永利路135號","121.52404","25.0033766666667","6500400","永和區"
"234013","149-BY","2017/10/12 19:59:49","新北市永和區保生路55號","121.504713333333","25.010625","6500400","永和區"
"234007","207-UY","2017/10/12 19:59:55","新北市永和區保生路22巷10號","121.507271666667","25.008115","6500400","永和區"
"234081","298-R6","2017/10/12 19:59:51","新北市永和區林森路112巷12弄34號","121.522756666667","25.004595","6500400","永和區"
"234038","336-UY","2017/10/12 19:59:46","新北市永和區成功路二段155號","121.526648333333","24.997425","6500400","永和區"
"234064","337-UY","2017/10/12 19:59:50","新北市永和區中正路412巷2弄11號","121.51843","25.0019166666667","6500400","永和區"
"234086","338-UY","2017/10/12 19:59:51","新北市永和區福和路182號","121.520453333333","25.0079083333333","6500400","永和區"
"234070","552-UM","2017/10/12 19:59:47","新北市永和區國光路49巷6號","121.518906666667","25.00797","6500400","永和區"
"234054","553-UM","2017/10/12 19:59:40","新北市永和區環河東路一段122號","121.520635","25.015495","6500400","永和區"
"234017","745-BX","2017/10/12 19:59:52","新北市永和區文化路69號","121.513968333333","25.0151383333333","6500400","永和區"
"234030","746-BX","2017/10/12 19:59:40","新北市永和區民生路22巷9號","121.521985","24.99721","6500400","永和區"
"234061","AAD-866","2017/10/12 19:59:43","新北市永和區得和路68號","121.516306666667","24.99992","6500400","永和區"
"234042","862-TW","2017/10/12 19:59:44","新北市永和區中和路335巷18弄5號","121.507646666667","25.0003266666667","6500400","永和區"
"234050","863-TW","2017/10/12 19:59:34","新北市永和區保安路214號","121.507416666667","25.0136633333333","6500400","永和區"
"234026","9371-KE","2017/10/12 19:59:52","新北市永和區雙和街24號","121.508965","25.0023666666667","6500400","永和區"
"234011","9373-KE","2017/10/12 19:59:56","新北市永和區仁愛路352巷112弄17號","121.501161666667","25.0086316666667","6500400","永和區"
"249005","172-UM","2017/10/12 17:19:44","新北市五股區中直路崩山巷9-2號","121.417885","25.124515","6502300","八里區"
"249001","173-UM","2017/10/12 19:59:49","新北市八里區中華路二段310號","121.403885","25.1483833333333","6502300","八里區"
"249004","303-UY","2017/10/12 19:59:39","新北市八里區中華路一段333-1號","121.412773333333","25.1544516666667","6502300","八里區"
"249002","305-UY","2017/10/12 19:59:37","新北市八里區龍米路一段87巷31-12號","121.453096666667","25.123105","6502300","八里區"
"249003","593-UM","2017/10/12 19:59:51","新北市八里區中華路二段560巷3號","121.398648333333","25.145115","6502300","八里區"
"248014","025-BX","2017/10/12 19:59:54","新北市五股區五福路22巷4號","121.43461","25.0889716666667","6501500","五股區"
"248016","026-BX","2017/10/12 19:59:48","新北市五股區成泰路三段577巷80弄25號","121.449645","25.1045783333333","6501500","五股區"
"248008","095-VK","2017/10/12 19:59:37","新北市五股區中興路一段1巷11號","121.469411666667","25.07149","6501500","五股區"
"248012","247-BX","2017/10/12 19:59:44","新北市五股區民義路一段52號","121.436693333333","25.0843816666667","6501500","五股區"
"248009","272-BY","2017/10/12 19:59:54","新北市五股區登林路76-10號","121.429505","25.069445","6501500","五股區"
"248004","677-BX","2017/10/12 19:59:52","新北市五股區成泰路一段10號","121.434535","25.0673933333333","6501500","五股區"
"248002","678-BX","2017/10/12 19:59:40","新北市五股區成泰路三段495-1號","121.450681666667","25.09972","6501500","五股區"
"234077","969-R7","2017/10/12 19:59:53","新北市永和區民有街3-2號","121.51597","24.9971983333333","6500400","永和區"
"234074","AAC-211","2017/10/12 19:59:49","新北市永和區豫溪街207巷4號","121.523783333333","25.0096166666667","6500400","永和區"
"234067","AAC-212","2017/10/12 19:59:54","新北市永和區保平路236巷48號","121.507615","25.00687","6500400","永和區"
"234003","AAC-295","2017/10/12 19:59:46","新北市永和區中正路708號","121.516093333333","25.00991","6500400","永和區"
"243013","AAD-798","2017/10/12 19:59:43","新北市泰山區應化街7號","121.4239","25.043765","6501600","泰山區"
"243009","297-R6","2017/10/12 19:59:40","新北市泰山區楓江路16巷32號","121.434011666667","25.0614683333333","6501600","泰山區"
"243015","380-SR","2017/10/12 19:59:50","新北市泰山區明志路二段214巷16弄11號","121.426756666667","25.049585","6501600","泰山區"
"243014","421-VK","2017/10/12 19:59:41","新北市泰山區泰林路二段168號","121.433813333333","25.060585","6501600","泰山區"
"243010","KEA-2215","2017/10/12 19:59:42","新北市泰山區中華街10巷5號","121.428051666667","25.052625","6501600","泰山區"
"243011","KEA-2216","2017/10/12 19:59:48","新北市泰山區明志路三段196巷44號","121.422078333333","25.039795","6501600","泰山區"
"243012","646-TV","2017/10/12 19:59:49","新北市泰山區仁德路73號","121.434041666667","25.056705","6501600","泰山區"
"243016","680-BX","2017/10/12 19:59:42","新北市泰山區貴陽街4號","121.421505","25.03313","6501600","泰山區"
"222003","436-BY","2017/10/12 19:59:42","新北市深坑區埔新街14號","121.620743333333","25.0039816666667","6501800","深坑區"
"222001","628-TS","2017/10/12 19:59:46","新北市深坑區北深路三段160號","121.602515","25.00339","6501800","深坑區"
"222002","659-BX","2017/10/12 19:59:44","新北市深坑區北深路二段81巷8弄3號","121.618283333333","25.0030683333333","6501800","深坑區"
"231041","002-UM","2017/10/12 19:59:48","新北市新店區中正路348號","121.536378333333","24.9754183333333","6500600","新店區"
"231059","046-UY","2017/10/12 19:59:48","新北市新店區安康路二段149-5號","121.511276666667","24.959705","6500600","新店區"
"231061","047-UY","2017/10/12 19:59:47","新北市新店區安興路96-1號","121.515105","24.9764933333333","6500600","新店區"
"231060","106-UY","2017/10/12 19:59:51","新北市新店區安康路二段416號","121.496463333333","24.9551683333333","6500600","新店區"
"231047","108-UY","2017/10/12 19:59:35","新北市新店區寶宏路6-2號","121.549111666667","24.9766733333333","6500600","新店區"
"231051","110-UY","2017/10/12 19:59:49","新北市新店區中央二街22號","121.528531666667","24.9735","6500600","新店區"
"231052","187-VK","2017/10/12 19:59:54","新北市新店區新烏路三段320號","121.547138333333","24.89663","6500600","新店區"
"231007","189-VK","2017/10/12 12:02:17","新北市新店區安華路28-1號","121.519663333333","24.96105","6500600","新店區"
"231050","215-TC","2017/10/12 19:59:39","新北市新店區北宜路二段8號","121.547826666667","24.9518316666667","6500600","新店區"
"231057","256-BX","2017/10/12 19:59:55","新北市新店區花園二路一段11號","121.555516666667","24.93252","6500600","新店區"
"231054","AAD-862","2017/10/12 19:59:41","新北市新店區光明街141號","121.539448333333","24.9621066666667","6500600","新店區"
"231055","3713-VJ","2017/10/12 19:59:44","新北市新店區中華路83巷67號","121.538375","24.9672883333333","6500600","新店區"
"231067","4772-VM","2017/10/12 19:59:57","新北市新店區秀山路11巷10號","121.531698333333","24.9595083333333","6500600","新店區"
"231065","513-UM","2017/10/12 19:59:53","新北市新店區安祥路109巷3弄2號","121.475105","24.95908","6500600","新店區"
"231064","515-UM","2017/10/12 19:59:45","新北市新店區光華街5巷27號","121.517625","24.96807","6500600","新店區"
"231040","619-UM","2017/10/12 19:59:44","新北市新店區中正路64號","121.544223333333","24.9700966666667","6500600","新店區"
"231042","641-BX","2017/10/12 19:59:42","新北市新店區中正路2號","121.54584","24.9693","6500600","新店區"
"231063","645-TV","2017/10/12 19:59:52","新北市新店區黎明路53巷1號","121.502313333333","24.9487016666667","6500600","新店區"
"231068","718-UY","2017/10/12 19:59:37","新北市新店區安華路28-1號","121.519445","24.9612783333333","6500600","新店區"
"231049","719-UM","2017/10/12 19:59:36","新北市新店區明德路38號","121.541426666667","24.97789","6500600","新店區"
"231062","720-UM","2017/10/12 19:59:46","新北市新店區華城路10巷1-3號","121.528811666667","24.957795","6500600","新店區"
"231044","897-TW","2017/10/12 19:59:47","新北市新店區復興路38號","121.538986666667","24.986765","6500600","新店區"
"231045","898-TW","2017/10/12 19:59:52","新北市新店區北宜路二段269號","121.554715","24.9536166666667","6500600","新店區"
"231043","899-TW","2017/10/12 19:59:37","新北市新店區中正路263-2號","121.538466666667","24.9738516666667","6500600","新店區"
"231066","AKT-0513","2017/10/12 19:59:51","新北市新店區柴埕路20巷2號","121.514025","24.9658816666667","6500600","新店區"
"241011","013-R5","2017/10/12 19:59:56","新北市三重區三和路二段147號","121.49832","25.0694433333333","6500200","三重區"
"241028","022-UY","2017/10/12 19:59:42","新北市三重區中正南路2號","121.493455","25.0608066666667","6500200","三重區"
"241008","059-VK","2017/10/12 19:59:38","新北市三重區永福街124號","121.47943","25.0751416666667","6500200","三重區"
"241031","061-VK","2017/10/12 19:59:41","新北市三重區重新路四段140-1號","121.486986666667","25.056005","6500200","三重區"
"241015","062-VK","2017/10/12 19:59:45","新北市三重區三和路二段6-1號","121.501346666667","25.0666666666667","6500200","三重區"
"241017","063-VK","2017/10/12 19:59:38","新北市三重區自強路一段215號","121.491291666667","25.068475","6500200","三重區"
"241024","065-VK","2017/10/12 19:59:46","新北市三重區力行路一段178巷13號","121.48148","25.0715166666667","6500200","三重區"
"241026","066-VK","2017/10/12 19:59:45","新北市三重區中央南路3號","121.501218333333","25.0629966666667","6500200","三重區"
"241003","091-VK","2017/10/12 19:59:49","新北市三重區五華街130號","121.49157","25.08346","6500200","三重區"
"241009","156-TC","2017/10/12 19:59:41","新北市三重區三和路四段390巷25號","121.480748333333","25.078785","6500200","三重區"
"241005","262-UM","2017/10/12 19:59:56","新北市三重區五華街255號","121.489028333333","25.0864083333333","6500200","三重區"
"241016","266-UM","2017/10/12 19:59:53","新北市三重區正義北路48巷15號","121.496736666667","25.06372","6500200","三重區"
"241022","267-UM","2017/10/12 19:59:53","新北市三重區過圳街31巷2號","121.488968333333","25.0606683333333","6500200","三重區"
"241018","268-UM","2017/10/12 19:59:53","新北市三重區正義北路232號","121.495818333333","25.0677566666667","6500200","三重區"
"241013","270-UM","2017/10/12 19:59:54","新北市三重區三和路3段125巷2-1號","121.492915","25.0735383333333","6500200","三重區"
"241025","271-UM","2017/10/12 19:59:43","新北市三重區頂崁街210巷9號","121.476536666667","25.06779","6500200","三重區"
"241007","398-BY","2017/10/12 19:59:43","新北市三重區慈愛街74號","121.487673333333","25.0796883333333","6500200","三重區"
"241030","KEA-2210","2017/10/12 19:59:42","新北市三重區成功路153號","121.486583333333","25.052255","6500200","三重區"
"241020","413-TH","2017/10/12 19:59:55","新北市三重區大智街169號","121.489885","25.0725283333333","6500200","三重區"
"241035","462-BY","2017/10/12 19:59:54","新北市三重區大榮街7號","121.49822","25.0630916666667","6500200","三重區"
"241019","478-VK","2017/10/12 19:59:55","新北市三重區六張街135號","121.490686666667","25.0692533333333","6500200","三重區"
"241014","543-UM","2017/10/12 19:59:52","新北市三重區三和路二段109號","121.4993","25.0687483333333","6500200","三重區"
"241023","545-UM","2017/10/12 19:59:37","新北市三重區大有街1-9號","121.477641666667","25.0660233333333","6500200","三重區"
"241001","547-UM","2017/10/12 19:59:48","新北市三重區五華街9-1號","121.495108333333","25.080095","6500200","三重區"
"241006","AAD-863","2017/10/12 19:59:41","新北市三重區力行路二段33巷12號","121.482535","25.0737833333333","6500200","三重區"
"241004","887-TS","2017/10/12 19:59:53","新北市三重區仁愛街425巷91-1號","121.492263333333","25.082695","6500200","三重區"
"241012","941-UM","2017/10/12 19:59:40","新北市三重區仁厚街78號","121.500766666667","25.076785","6500200","三重區"
"241029","942-UM","2017/10/12 19:59:51","新北市三重區重新路三段196號","121.490258333333","25.058725","6500200","三重區"
"241033","AAC-255","2017/10/12 19:59:55","新北市三重區中興北街77號","121.469511666667","25.0477566666667","6500200","三重區"
"235066","003-UY","2017/10/12 19:59:50","新北市中和區水源路127巷1號","121.508046666667","25.0032733333333","6500300","中和區"
"235056","096-UM","2017/10/12 19:59:51","新北市中和區中山路三段166號","121.473","25.00635","6500300","中和區"
"235039","097-UM","2017/10/12 19:59:49","新北市中和區景平路262號","121.514908333333","24.9930133333333","6500300","中和區"
"235065","098-UM","2017/10/12 19:59:50","新北市中和區福祥路106號","121.499046666667","25.00618","6500300","中和區"
"235040","150-BY","2017/10/12 19:59:55","新北市中和區景安路79巷37弄2號","121.507613333333","24.9963966666667","6500300","中和區"
"235058","151-BY","2017/10/12 19:59:50","新北市中和區員山路150巷2弄41號","121.48189","24.99744","6500300","中和區"
"235055","183-VK","2017/10/12 19:59:40","新北市中和區德光路15巷3號","121.471268333333","25.0040633333333","6500300","中和區"
"235038","185-VK","2017/10/12 19:59:44","新北市中和區立人街69巷5號","121.519965","24.9937833333333","6500300","中和區"
"235049","186-VK","2017/10/12 19:59:40","新北市中和區景平路534號","121.502681666667","24.9945166666667","6500300","中和區"
"235067","255-BX","2017/10/12 19:59:51","新北市中和區新生街220巷4號","121.48303","24.998635","6500300","中和區"
"235044","293-VK","2017/10/12 19:59:39","新北市中和區南山路273號","121.504001666667","24.9924916666667","6500300","中和區"
"235072","301-VK","2017/10/12 19:59:45","新北市中和區中正路432巷11號","121.490641666667","24.9957883333333","6500300","中和區"
"235043","352-BY","2017/10/12 19:59:38","新北市中和區興南路二段159巷7號","121.50521","24.9831916666667","6500300","中和區"
"235068","375-QA","2017/10/12 19:59:42","新北市中和區福祥路90巷1號","121.499333333333","25.00573","6500300","中和區"
"235051","376-QA","2017/10/12 19:59:45","新北市中和區中興街233巷8弄1號","121.501163333333","24.9892466666667","6500300","中和區"
"235061","378-QA","2017/10/12 19:59:55","新北市中和區新生街176巷32號","121.482415","24.9996233333333","6500300","中和區"
"235050","4979-A6","2017/10/12 19:59:39","新北市中和區景平路241巷64弄1號","121.507586666667","24.9924583333333","6500300","中和區"
"235069","4980-A6","2017/10/12 19:59:44","新北市中和區景平路479號","121.50022","24.997255","6500300","中和區"
"235070","558-UM","2017/10/12 19:59:45","新北市中和區連城路139巷66號","121.49683","24.9967483333333","6500300","中和區"
"235054","640-BX","2017/10/12 19:59:38","新北市中和區莒光路111號","121.472423333333","25.0025583333333","6500300","中和區"
"235047","732-UM","2017/10/12 19:59:46","新北市中和區和平街33號","121.506806666667","24.9915533333333","6500300","中和區"
"235046","733-UM","2017/10/12 19:59:47","新北市中和區興南路一段93巷79號","121.510576666667","24.9865233333333","6500300","中和區"
"235062","800-TS","2017/10/12 19:59:42","新北市八里區中華路三段2號","121.393655","25.1439966666667","6500300","中和區"
"235057","801-TS","2017/10/12 19:59:55","新北市中和區員山路325-5號","121.481228333333","25.0009116666667","6500300","中和區"
"235041","802-TS","2017/10/12 19:59:57","新北市中和區中安街64號","121.512446666667","25.0024016666667","6500300","中和區"
"235052","805-TS","2017/10/12 19:59:41","新北市中和區華新街192巷22弄9號","121.506556666667","24.983235","6500300","中和區"
"235048","896-TW","2017/10/12 19:59:39","新北市中和區興南路一段20-1號","121.51133","24.9910766666667","6500300","中和區"
"235053","900-TW","2017/10/12 19:59:37","新北市中和區國光街171巷6號","121.467596666667","25.0014083333333","6500300","中和區"
"235037","AAC-213","2017/10/12 19:59:46","新北市中和區自立路36-8號","121.522751666667","24.9926216666667","6500300","中和區"
"235059","AAC-215","2017/10/12 19:59:47","新北市中和區圓通路367巷18-4號","121.491871666667","24.9886816666667","6500300","中和區"
"220065","072-UY","2017/10/12 19:59:40","新北市板橋區民族路69巷2弄1號","121.465613333333","25.0092333333333","6500100","板橋區"
"220106","075-UY","2017/10/12 19:59:44","新北市板橋區民治街96巷16號","121.47861","25.0321216666667","6500100","板橋區"
"220069","AAD-861","2017/10/12 19:59:46","新北市板橋區貴興路114號","121.455055","25.0019416666667","6500100","板橋區"
"220068","120-SR","2017/10/12 19:59:48","新北市板橋區中山路二段416巷57弄15號","121.483613333333","25.0188183333333","6500100","板橋區"
"247010","339-TH","2017/10/12 19:59:42","新北市蘆洲區集賢路227-1號","121.482325","25.086145","6501400","蘆洲區"
"247002","337-TH","2017/10/12 19:59:49","新北市蘆洲區長安街274巷2號","121.457601666667","25.0869883333333","6501400","蘆洲區"
"247004","336-TH","2017/10/12 19:59:54","新北市蘆洲區永安南路二段328巷2號","121.456933333333","25.08303","6501400","蘆洲區"
"247016","057-VK","2017/10/12 19:59:40","新北市蘆洲區光華路13-1號","121.469841666667","25.0832616666667","6501400","蘆洲區"
"247006","056-VK","2017/10/12 19:59:52","新北市蘆洲區九芎街82號","121.466183333333","25.0794316666667","6501400","蘆洲區"
"247008","053-VK","2017/10/12 19:59:35","新北市蘆洲區中山一路95巷20弄17號","121.476693333333","25.0805166666667","6501400","蘆洲區"
"247014","007-UY","2017/10/12 19:59:48","新北市蘆洲區中山二路109號","121.472491666667","25.0817583333333","6501400","蘆洲區"
"247024","002-UY","2017/10/12 19:59:34","新北市蘆洲區光榮路120巷12號","121.465526666667","25.0884533333333","6501400","蘆洲區"
"226004","312-R5","2017/10/12 19:59:50","新北市平溪區石底里公園街18-3號","121.733188333333","25.025845","6502400","平溪區"
"228003","097-TW","2017/10/12 19:59:37","新北市貢寮區仁理村仁和路222號","121.92386","25.0535183333333","6502600","貢寮區"
"227004","642-TC","2017/10/12 19:59:41","新北市雙溪區雙溪里長安街16號","121.865006666667","25.034715","6502500","雙溪區"
"227010","400-TW","2017/10/12 19:59:48","新北市雙溪區新基里朝陽街18號","121.865945","25.0386566666667","6502500","雙溪區"
"208002","742-BX","2017/10/12 19:59:56","新北市金山區環金路19號","121.641086666667","25.2176066666667","6502700","金山區"
"208003","665-BX","2017/10/12 19:59:39","新北市金山區永興里忠義路1號","121.633093333333","25.2590633333333","6502700","金山區"
"251009","008-UM","2017/10/12 19:59:53","新北市淡水區英專路28巷18號","121.445941666667","25.1699383333333","6501000","淡水區"
"251004","009-UM","2017/10/12 19:59:37","新北市淡水區民族路110巷38弄11號","121.461195","25.1357","6501000","淡水區"
"251001","011-UM","2017/10/12 19:59:50","新北市淡水區水源街二段177巷2弄8號","121.456173333333","25.1771116666667","6501000","淡水區"
"251008","181-VK","2017/10/12 19:59:54","新北市淡水區淡海路76號","121.423133333333","25.181025","6501000","淡水區"
"251014","182-VK","2017/10/12 19:59:57","新北市淡水區石頭厝12-1號","121.4611","25.23612","6501000","淡水區"
"251010","413-VK","2017/10/12 19:59:46","新北市淡水區崁頂三路169號","121.430551666667","25.20134","6501000","淡水區"
"251012","441-VK","2017/10/12 19:59:19","新北市淡水區下圭柔山100-10號","121.440493333333","25.21166","6501000","淡水區"
"251016","442-VK","2017/10/12 19:59:37","新北市淡水區番子田16-13號","121.453746666667","25.23168","6501000","淡水區"
"251005","443-VK","2017/10/12 19:59:49","新北市淡水區學府路104號","121.449878333333","25.1718066666667","6501000","淡水區"
"251006","561-UM","2017/10/12 19:59:50","新北市淡水區水碓街79號","121.44499","25.17747","6501000","淡水區"
"251011","650-BX","2017/10/12 19:59:48","新北市淡水區崁頂55-3號","121.44232","25.1966766666667","6501000","淡水區"
"207003","291-VK","2017/10/12 19:59:53","新北市萬里區大鵬里萬里加投46號","121.641846666667","25.21121","6502800","萬里區"
"207004","225-TW","2017/10/12 19:59:51","新北市萬里區北基里忠二街35號","121.685655","25.175785","6502800","萬里區"
"252002","178-VK","2017/10/12 19:59:46","新北市三芝區三民街39巷36號","121.505443333333","25.257535","6502100","三芝區"
"252001","292-VK","2017/10/12 19:59:45","新北市三芝區公正街9號","121.499776666667","25.2575416666667","6502100","三芝區"
"207001","662-BX","2017/10/12 19:59:42","新北市萬里區大鵬里萬里加投46號","121.64188","25.2112016666667","6502800","萬里區"
"237004","078-UY","2017/10/12 19:59:54","新北市三峽區添福111-5號","121.374118333333","24.9012766666667","6500900","三峽區"
"237007","153-BY","2017/10/12 19:59:54","新北市三峽區二鬮路136巷20弄9號","121.356578333333","24.9098866666667","6500900","三峽區"
"237009","210-TH","2017/10/12 19:59:49","新北市三峽區民族街78巷3號","121.368828333333","24.92984","6500900","三峽區"
"237012","275-BY","2017/10/12 19:59:45","新北市三峽區中華路3巷6-1號","121.374978333333","24.9312033333333","6500900","三峽區"
"237008","302-VK","2017/10/12 19:59:35","新北市三峽區安溪路343號","121.370071666667","24.9264716666667","6500900","三峽區"
"237014","433-BY","2017/10/12 19:59:50","新北市三峽區添福29-1號","121.373266666667","24.9032766666667","6500900","三峽區"
"237006","5529-G3","2017/10/12 19:59:36","新北市三峽區正義街2號","121.369958333333","24.9200983333333","6500900","三峽區"
"237016","649-BX","2017/10/12 19:59:36","新北市三峽區橫溪路99巷42號","121.400055","24.9368833333333","6500900","三峽區"
"237010","706-TV","2017/10/12 19:59:37","新北市鶯歌區中正一路465號","121.371228333333","24.95864","6500900","三峽區"
"237005","AKY-6261","2017/10/12 19:59:40","新北市三峽區民生街1巷27-1號","121.379671666667","24.9341566666667","6500900","三峽區"
"236071","105-UM","2017/10/12 19:59:53","新北市土城區千歲路26號","121.441693333333","24.96887","6501300","土城區"
"236042","107-UM","2017/10/12 19:59:47","新北市土城區學府路一段143巷5號","121.453873333333","24.985965","6501300","土城區"
"236078","166-UM","2017/10/12 19:59:47","新北市土城區中央路四段466號","121.410026666667","24.950525","6501300","土城區"
"236030","253-BX","2017/10/12 19:59:37","新北市土城區中央路一段250巷1號","121.444176666667","24.9846383333333","6501300","土城區"
"236026","269-VK","2017/10/12 19:59:48","新北市土城區員林街1號","121.442478333333","24.97817","6501300","土城區"
"236014","270-VK","2017/10/12 19:59:48","新北市土城區廣福街123號","121.45621","24.992895","6501300","土城區"
"236037","271-VK","2017/10/12 19:59:52","新北市土城區國際路87號","121.467266666667","24.9759133333333","6501300","土城區"
"236021","401-BY","2017/10/12 19:59:37","新北市土城區延吉街165巷16號","121.470106666667","24.9855133333333","6501300","土城區"
"236058","912-UM","2017/10/12 19:59:37","新北市土城區中央路一段116號","121.446551666667","24.9880416666667","6501300","土城區"
"236051","913-UM","2017/10/12 19:59:18","新北市土城區金城路三段192號","121.468403333333","24.9878883333333","6501300","土城區"
"236062","915-UM","2017/10/12 19:59:51","新北市土城區延和路215號","121.469855","24.9897683333333","6501300","土城區"
"236053","AAC-216","2017/10/12 19:59:45","新北市土城區延和路11號","121.463953333333","24.98803","6501300","土城區"
"242031","AAC-296","2017/10/12 19:59:56","新北市新莊區公園一路39號","121.443245","25.0355883333333","6500500","新莊區"
"242029","986-R7","2017/10/12 19:59:39","新北市新莊區中平路359號","121.444683333333","25.0517983333333","6500500","新莊區"
"242051","751-BX","2017/10/12 19:59:47","新北市新莊區西盛街214-1號","121.428166666667","25.0176566666667","6500500","新莊區"
"242025","615-BX","2017/10/12 19:59:48","新北市新莊區五工二路86巷39號","121.46071","25.0674616666667","6500500","新莊區"
"242023","613-BX","2017/10/12 19:59:47","新北市新莊區化成路354號","121.465861666667","25.0492783333333","6500500","新莊區"
"242027","612-BX","2017/10/12 19:59:57","新北市新莊區立信一街75號","121.44296","25.0500183333333","6500500","新莊區"
"242039","566-BX","2017/10/12 19:59:49","新北市新莊區民安路285號","121.429058333333","25.0227066666667","6500500","新莊區"
"242044","497-BY","2017/10/12 19:59:51","新北市新莊區中正路923號","121.410746666667","25.021315","6500500","新莊區"
"242002","442-UM","2017/10/12 19:59:38","新北市新莊區新泰路103號","121.448998333333","25.034975","6500500","新莊區"
"242048","441-UM","2017/10/12 19:59:44","新北市新莊區民安路201號","121.426286666667","25.022415","6500500","新莊區"
"242053","440-UM","2017/10/12 19:59:53","新北市新莊區西盛街412號","121.427308333333","25.012325","6500500","新莊區"
"242004","413-TV","2017/10/12 19:59:44","新北市新莊區化成路424號","121.465998333333","25.051085","6500500","新莊區"
"242061","362-BY","2017/10/12 19:59:53","新北市新莊區瓊林路68號","121.445236666667","25.028705","6500500","新莊區"
"242058","353-BY","2017/10/12 19:59:51","新北市新莊區八德街107號","121.424245","25.02103","6500500","新莊區"
"242007","132-UY","2017/10/12 19:59:38","新北市新莊區富貴路51號","121.459001666667","25.0574066666667","6500500","新莊區"
"242036","133-UY","2017/10/12 19:59:54","新北市新莊區民安路207巷34弄1號","121.428415","25.0246933333333","6500500","新莊區"
"242021","135-UY","2017/10/12 19:59:47","新北市新莊區建中街16巷30號","121.449075","25.038755","6500500","新莊區"
"242009","173-VK","2017/10/12 19:59:44","新北市新莊區幸福路770號","121.447096666667","25.0491283333333","6500500","新莊區"
"242015","175-VK","2017/10/12 19:59:45","新北市新莊區泰順街33巷2號","121.446193333333","25.0425516666667","6500500","新莊區"
"242013","346-TH","2017/10/12 19:59:37","新北市新莊區中港路378號","121.452381666667","25.04766","6500500","新莊區"
"242019","347-TH","2017/10/12 19:59:40","新北市新莊區民生街23號","121.456156666667","25.0422883333333","6500500","新莊區"
"242017","350-TH","2017/10/12 19:59:47","新北市新莊區中港路326號","121.45254","25.04564","6500500","新莊區"
"242011","351-TH","2017/10/12 19:59:39","新北市新莊區中港路531巷58號","121.450046666667","25.0517533333333","6500500","新莊區"
"238015","755-BX","2017/10/12 19:59:51","新北市樹林區中山路三段210-2號","121.380946666667","24.9671966666667","6500700","樹林區"
"238021","KEA-2217","2017/10/12 19:59:41","新北市樹林區佳園路三段141號","121.38607","24.949365","6500700","樹林區"
"238012","303-VK","2017/10/12 19:59:45","新北市樹林區中山路三段214號","121.37992","24.967835","6500700","樹林區"
"238017","283-BY","2017/10/12 19:59:38","新北市樹林區保安街二段107巷1弄5號","121.415126666667","25.00086","6500700","樹林區"
"238014","282-BY","2017/10/12 19:59:43","新北市樹林區中正路103號","121.425223333333","25.0007116666667","6500700","樹林區"
"239006","891-R6","2017/10/12 19:59:37","新北市鶯歌區文化路215號","121.35459","24.9535183333333","6500800","鶯歌區"
"221008","489-VK","2017/10/12 19:59:48","台北市內湖區康樂街125巷16號","121.620438333333","25.0733166666667","6501100","汐止區"
"221036","130-UY","2017/10/12 19:59:35","新北市汐止區新台五路二段85巷20號","121.664141666667","25.06745","6501100","汐止區"
"221015","131-UY","2017/10/12 19:59:43","新北市汐止區橋東街11號","121.666566666667","25.0758833333333","6501100","汐止區"
"221010","269-BY","2017/10/12 19:59:52","新北市汐止區連峰街270號","121.644243333333","25.0815033333333","6501100","汐止區"
"221012","276-VK","2017/10/12 13:21:37","新北市汐止區汐萬路一段256巷3號","121.653455","25.07467","6501100","汐止區"
"221012","278-VK","2017/10/12 19:59:41","新北市汐止區大同路三段262-1號","121.676561666667","25.0717833333333","6501100","汐止區"
"221023","279-VK","2017/10/12 19:59:47","新北市汐止區明峰街196號","121.627893333333","25.0695683333333","6501100","汐止區"
"221032","280-BY","2017/10/12 19:59:41","新北市汐止區橫科路18巷32弄8號","121.617488333333","25.0498783333333","6501100","汐止區"
"221027","281-BY","2017/10/12 19:59:46","新北市汐止區中正路73號","121.661638333333","25.069605","6501100","汐止區"
"221029","298-VK","2017/10/12 19:59:45","新北市汐止區樟樹一路139巷23號","121.6411","25.0660616666667","6501100","汐止區"
"221021","299-VK","2017/10/12 19:59:54","新北市汐止區水源路一段143號","121.655931666667","25.0623016666667","6501100","汐止區"
"221031","353-TW","2017/10/12 19:59:52","新北市汐止區福德一路176巷7弄2號","121.635011666667","25.0666566666667","6501100","汐止區"
"221035","622-UM","2017/10/12 19:59:52","新北市汐止區長江街39巷8號","121.655536666667","25.071785","6501100","汐止區"
"221025","623-UM","2017/10/12 19:59:41","新北市汐止區秀峰路109巷7號","121.660498333333","25.0634833333333","6501100","汐止區"
"221038","646-BX","2017/10/12 19:59:56","新北市汐止區忠孝東路480號","121.666195","25.0738083333333","6501100","汐止區"
"221033","647-BX","2017/10/12 19:59:51","新北市汐止區東勢街201巷2號","121.633716666667","25.0421066666667","6501100","汐止區"
"221018","753-BX","2017/10/12 19:59:53","新北市汐止區茄福街10號","121.67279","25.0675483333333","6501100","汐止區"
"220079","145-BY","2017/10/12 19:59:47","新北市板橋區南雅西路二段145巷10號","121.4517","25.012005","6500100","板橋區"
"220082","610-BX","2017/10/12 19:59:51","新北市板橋區溪北路91號","121.428608333333","24.98939","6500100","板橋區"
"220101","245-BX","2017/10/12 19:59:55","新北市板橋區縣民大道三段101號","121.476236666667","25.0223983333333","6500100","板橋區"
"220091","267-BY","2017/10/12 19:59:39","新北市板橋區文聖街101巷12號","121.478218333333","25.029655","6500100","板橋區"
"220072","277-BY","2017/10/12 19:59:44","新北市板橋區金門街149號","121.43276","24.99062","6500100","板橋區"
"220094","280-UM","2017/10/12 19:59:43","新北市板橋區漢生西路197-1號","121.463205","25.0244683333333","6500100","板橋區"
"220071","283-VK","2017/10/12 19:59:44","新北市板橋區五權街30巷37弄11號","121.46357","24.992315","6500100","板橋區"
"220053","285-VK","2017/10/12 19:59:50","新北市板橋區中山路二段135號","121.475136666667","25.016515","6500100","板橋區"
"220083","286-VK","2017/10/12 19:59:53","新北市板橋區僑中二街48巷10號","121.445863333333","25.0104616666667","6500100","板橋區"
"220081","287-VK","2017/10/12 18:44:29","新北市板橋區大觀路一段51號","121.447778333333","25.0070716666667","6500100","板橋區"
"220090","288-VK","2017/10/12 19:59:50","新北市板橋區幸福路32巷4弄5-3號","121.461133333333","25.0213933333333","6500100","板橋區"
"220061","293-UM","2017/10/12 19:59:54","新北市板橋區觀光街5號","121.471775","25.0159166666667","6500100","板橋區"
"220096","295-UM","2017/10/12 19:59:41","新北市板橋區莒光路39巷18號","121.471066666667","25.0253166666667","6500100","板橋區"
"220084","296-UM","2017/10/12 19:59:37","新北市板橋區溪崑二街103巷15號","121.427263333333","24.9887316666667","6500100","板橋區"
"220075","297-UM","2017/10/12 19:59:54","新北市板橋區金華街10巷48弄35-3號","121.458218333333","25.02011","6500100","板橋區"
"220103","299-UM","2017/10/12 19:59:44","新北市板橋區陽明街29巷3號","121.465213333333","25.0215666666667","6500100","板橋區"
"220062","303-R5","2017/10/12 19:59:48","新北市板橋區萬安街85巷1弄11號","121.484518333333","25.0250583333333","6500100","板橋區"
"220092","307-R5","2017/10/12 19:59:53","新北市板橋區四維路259巷87號","121.460105","25.0263316666667","6500100","板橋區"
"220098","317-R6","2017/10/12 19:59:50","新北市板橋區新海路72巷61號","121.461563333333","25.0236983333333","6500100","板橋區"
"220080","461-BY","2017/10/12 19:59:42","新北市板橋區大觀路二段79巷2弄16號","121.447353333333","25.001605","6500100","板橋區"
"220064","486-VK","2017/10/12 19:59:21","新北市板橋區實踐路38號","121.46355","25.0067933333333","6500100","板橋區"
"220089","487-VK","2017/10/12 19:59:56","新北市板橋區龍泉街80號","121.456288333333","25.025525","6500100","板橋區"
"242034","280-VK","2017/10/12 19:59:55","新北市新莊區建中街98號","121.446585","25.0365933333333","6500500","新莊區"
"220088","491-VK","2017/10/12 19:59:53","新北市板橋區懷德街191巷2號","121.480091666667","25.02944","6500100","板橋區"
"220035","560-BX","2017/10/12 19:59:47","新北市板橋區新生街89巷16號","121.457576666667","25.02251","6500100","板橋區"
"220103","561-BX","2017/10/12 19:17:44","新北市板橋區民生路二段120號","121.470388333333","25.0195966666667","6500100","板橋區"
"220063","609-BX","2017/10/12 19:59:53","新北市板橋區三民路一段76號","121.479611666667","25.0219833333333","6500100","板橋區"
"220054","630-UY","2017/10/12 19:59:39","新北市板橋區忠孝路忠義巷15弄26號","121.46573","25.0042483333333","6500100","板橋區"
"220057","686-BX","2017/10/12 19:59:52","新北市板橋區四川路二段2號","121.456638333333","24.996675","6500100","板橋區"
"220093","689-BX","2017/10/12 19:59:44","新北市板橋區文化路二段606號","121.477166666667","25.0350383333333","6500100","板橋區"
"220055","827-TW","2017/10/12 19:59:55","新北市板橋區國慶路167巷25-3號","121.461761666667","24.997745","6500100","板橋區"
"220067","829-TW","2017/10/12 19:59:54","新北市板橋區長安街255巷44號","121.472358333333","25.0112983333333","6500100","板橋區"
"220102","830-TW","2017/10/12 19:59:43","新北市板橋區懷德街66巷23號","121.47687","25.03184","6500100","板橋區"
"220074","895-R6","2017/10/12 19:59:51","新北市板橋區文化路一段52巷13號","121.460648333333","25.01169","6500100","板橋區"
"220073","985-R7","2017/10/12 19:59:44","新北市板橋區南雅西路二段188號","121.451581666667","25.0143133333333","6500100","板橋區"
"220097","AAC-210","2017/10/12 19:59:39","新北市板橋區光正街45巷25號","121.461645","25.01615","6500100","板橋區"
"220070","AAC-253","2017/10/12 19:59:44","新北市板橋區成都街69號","121.462163333333","25.0051083333333","6500100","板橋區"
