"lineid","car","time","location","longitude","latitude","cityid","cityname"
"234030","746-BX","2017/10/12 20:49:36","新北市板橋區文化路二段652號","121.479828333333","25.042365","6500400","永和區"
"249005","172-UM","2017/10/12 17:19:44","新北市五股區中直路崩山巷9-2號","121.417885","25.124515","6502300","八里區"
"249001","173-UM","2017/10/12 20:49:48","新北市八里區中山路三段387號","121.371575","25.1375083333333","6502300","八里區"
"234077","969-R7","2017/10/12 20:49:33","新北市林口區汕頭32號","121.366628333333","25.1350683333333","6500400","永和區"
"234074","AAC-211","2017/10/12 20:49:30","新北市永和區竹林路91巷55弄5-1號","121.521728333333","25.0139566666667","6500400","永和區"
"222003","436-BY","2017/10/12 20:49:42","新北市深坑區深坑街10號","121.615905","25.002835","6501800","深坑區"
"222001","628-TS","2017/10/12 20:49:44","新北市深坑區北深路三段165-1號","121.602133333333","25.0034766666667","6501800","深坑區"
"222002","659-BX","2017/10/12 20:49:44","新北市深坑區北深路三段93巷73號","121.603418333333","25.0011866666667","6501800","深坑區"
"231041","002-UM","2017/10/12 20:49:48","台北市文山區景文街146巷26號","121.532956666667","24.99161","6500600","新店區"
"231059","046-UY","2017/10/12 20:49:48","新北市新店區吉祥街9巷35號","121.498711666667","24.946935","6500600","新店區"
"231061","047-UY","2017/10/12 20:49:47","新北市新店區新和街122號","121.52137","24.9865833333333","6500600","新店區"
"231060","106-UY","2017/10/12 20:49:31","新北市新店區安康路三段738號","121.473878333333","24.94199","6500600","新店區"
"231047","108-UY","2017/10/12 20:49:35","新北市新店區文化路92號","121.544953333333","24.9825616666667","6500600","新店區"
"231051","110-UY","2017/10/12 20:49:42","新北市新店區中央五街1號","121.530181666667","24.9740983333333","6500600","新店區"
"231052","187-VK","2017/10/12 20:49:34","新北市新店區新烏路二段141號","121.549348333333","24.9221916666667","6500600","新店區"
"231007","189-VK","2017/10/12 12:02:17","新北市新店區安華路28-1號","121.519663333333","24.96105","6500600","新店區"
"231050","215-TC","2017/10/12 20:49:39","新北市新店區中正路265號","121.538178333333","24.9740066666667","6500600","新店區"
"231057","256-BX","2017/10/12 20:49:43","新北市新店區花園一路一段2號","121.552818333333","24.9324866666667","6500600","新店區"
"231054","AAD-862","2017/10/12 20:49:41","新北市新店區中正路75巷63號","121.54331","24.9692183333333","6500600","新店區"
"231058","3712-VJ","2017/10/12 20:49:32","新北市新店區平等街1號","121.537063333333","24.9743216666667","6500600","新店區"
"231065","513-UM","2017/10/12 20:49:33","新北市新店區安祥路69巷1號","121.482168333333","24.961985","6500600","新店區"
"231064","515-UM","2017/10/12 20:49:45","新北市新店區永平街16巷35號","121.517191666667","24.9844366666667","6500600","新店區"
"231040","619-UM","2017/10/12 20:49:44","新北市新店區中正路255號","121.538853333333","24.9735283333333","6500600","新店區"
"231042","641-BX","2017/10/12 20:49:42","新北市新店區寶高路120巷1號","121.55461","24.9761016666667","6500600","新店區"
"231063","645-TV","2017/10/12 20:49:31","新北市新店區如意街7-2號","121.49518","24.9486433333333","6500600","新店區"
"231068","718-UY","2017/10/12 20:49:37","新北市新店區寶元路一段102號","121.545003333333","24.9832666666667","6500600","新店區"
"231049","719-UM","2017/10/12 20:49:35","新北市新店區安康路一段323-3號","121.521438333333","24.963845","6500600","新店區"
"231062","720-UM","2017/10/12 20:49:46","新北市新店區和成街18巷41號","121.488646666667","24.9462416666667","6500600","新店區"
"231044","897-TW","2017/10/12 20:49:47","新北市新店區建國路143號","121.539013333333","24.97869","6500600","新店區"
"231043","899-TW","2017/10/12 20:49:38","新北市新店區建國路64號","121.540595","24.9758416666667","6500600","新店區"
"231066","AKT-0513","2017/10/12 20:49:31","新北市新店區安興路112號","121.514645","24.9776816666667","6500600","新店區"
"241011","013-R5","2017/10/12 20:49:37","新北市三重區龍濱路205巷4號","121.50221","25.0717566666667","6500200","三重區"
"241028","022-UY","2017/10/12 20:49:42","新北市三重區中正南路50號","121.493968333333","25.059905","6500200","三重區"
"241008","059-VK","2017/10/12 20:49:38","新北市三重區永福街72巷11號","121.479395","25.0767533333333","6500200","三重區"
"241031","061-VK","2017/10/12 20:49:41","新北市三重區重陽路一段113巷2弄2號","121.487486666667","25.0598633333333","6500200","三重區"
"241015","062-VK","2017/10/12 20:49:45","新北市三重區自強路一段8號","121.498936666667","25.0682416666667","6500200","三重區"
"241017","063-VK","2017/10/12 20:49:38","新北市三重區民生街30號","121.491745","25.0671183333333","6500200","三重區"
"241024","065-VK","2017/10/12 20:49:46","新北市三重區大勇街82巷15弄30號","121.481215","25.0719583333333","6500200","三重區"
"241026","066-VK","2017/10/12 20:49:45","新北市三重區文化南路7號","121.500026666667","25.06234","6500200","三重區"
"241002","090-VK","2017/10/12 20:49:31","新北市三重區仁義街159巷1號","121.497375","25.0811516666667","6500200","三重區"
"241009","156-TC","2017/10/12 20:49:41","新北市三重區三和路四段233號","121.481036666667","25.0799283333333","6500200","三重區"
"241005","262-UM","2017/10/12 20:49:44","新北市三重區五華街141巷43號","121.492786666667","25.0860133333333","6500200","三重區"
"241016","266-UM","2017/10/12 20:49:33","新北市三重區正義北路204號","121.496325","25.0672816666667","6500200","三重區"
"241022","267-UM","2017/10/12 20:49:32","新北市三重區過圳街27-5號","121.487935","25.0624233333333","6500200","三重區"
"241018","268-UM","2017/10/12 20:49:49","新北市三重區正義北路279號","121.495131666667","25.0701916666667","6500200","三重區"
"241013","270-UM","2017/10/12 20:49:34","新北市三重區仁賢街6號","121.495626666667","25.0748316666667","6500200","三重區"
"241025","271-UM","2017/10/12 20:49:43","新北市三重區貴陽街18-1號","121.484178333333","25.0618833333333","6500200","三重區"
"241007","398-BY","2017/10/12 20:49:43","新北市三重區三和路四段111號","121.486066666667","25.0770483333333","6500200","三重區"
"241030","KEA-2210","2017/10/12 20:49:43","新北市三重區環河南路221巷9號","121.491723333333","25.0524483333333","6500200","三重區"
"241020","413-TH","2017/10/12 20:49:35","新北市三重區忠孝路一段101號","121.489435","25.0721683333333","6500200","三重區"
"241035","462-BY","2017/10/12 20:49:34","新北市三重區自強路一段61-1號","121.497953333333","25.067355","6500200","三重區"
"241019","478-VK","2017/10/12 20:49:35","新北市三重區三張街59號","121.49104","25.0710416666667","6500200","三重區"
"241014","543-UM","2017/10/12 20:49:32","新北市三重區安和路107號","121.500711666667","25.070135","6500200","三重區"
"241023","545-UM","2017/10/12 20:49:37","新北市三重區忠孝路三段84巷1號","121.480191666667","25.0643783333333","6500200","三重區"
"241001","547-UM","2017/10/12 20:49:48","新北市三重區自強路三段76巷28弄2號","121.485085","25.0740866666667","6500200","三重區"
"241006","AAD-863","2017/10/12 20:49:41","新北市三重區車路頭街139巷14號","121.484356666667","25.076235","6500200","三重區"
"241004","887-TS","2017/10/12 20:49:33","新北市三重區仁愛街416號","121.490521666667","25.0813333333333","6500200","三重區"
"241012","941-UM","2017/10/12 20:49:40","新北市三重區龍門路274巷45號","121.501208333333","25.0755416666667","6500200","三重區"
"241029","942-UM","2017/10/12 20:49:31","新北市三重區重安街99-2號","121.493743333333","25.0553233333333","6500200","三重區"
"241033","AAC-255","2017/10/12 20:49:35","新北市三重區光復路二段1號","121.472293333333","25.05335","6500200","三重區"
"235069","4980-A6","2017/10/12 20:49:44","新北市中和區員山路345號","121.481071666667","25.00167","6500300","中和區"
"235062","800-TS","2017/10/12 20:49:42","新北市中和區員山路36巷16-2號","121.485106666667","24.9918816666667","6500300","中和區"
"247012","546-UM","2017/10/12 20:49:39","新北市蘆洲區復興路340巷32-4號","121.48367","25.0888016666667","6501400","蘆洲區"
"247010","339-TH","2017/10/12 20:49:41","新北市蘆洲區鷺江街76號","121.476998333333","25.083795","6501400","蘆洲區"
"247002","337-TH","2017/10/12 20:49:29","新北市蘆洲區長安街240號","121.457725","25.0856883333333","6501400","蘆洲區"
"247004","336-TH","2017/10/12 20:49:43","新北市蘆洲區長安街100號","121.461616666667","25.0808733333333","6501400","蘆洲區"
"247022","335-TH","2017/10/12 20:49:29","新北市蘆洲區中正路185巷46弄26號","121.466808333333","25.0857166666667","6501400","蘆洲區"
"247016","057-VK","2017/10/12 20:49:39","新北市蘆洲區中山二路205號","121.470605","25.08054","6501400","蘆洲區"
"247006","056-VK","2017/10/12 20:49:32","新北市蘆洲區和平路121巷8弄16號","121.466466666667","25.0802833333333","6501400","蘆洲區"
"247008","053-VK","2017/10/12 20:49:35","新北市蘆洲區集賢路269巷5號","121.481761666667","25.083605","6501400","蘆洲區"
"247014","007-UY","2017/10/12 20:49:48","新北市蘆洲區三民路33號","121.475431666667","25.0829916666667","6501400","蘆洲區"
"247024","002-UY","2017/10/12 20:49:34","新北市蘆洲區長樂路118號","121.462083333333","25.0900533333333","6501400","蘆洲區"
"247018","001-UY","2017/10/12 20:49:43","新北市蘆洲區民權路74號","121.474846666667","25.0874183333333","6501400","蘆洲區"
"251009","008-UM","2017/10/12 20:49:33","新北市淡水區淡金路一段102號","121.45768","25.1744783333333","6501000","淡水區"
"251001","011-UM","2017/10/12 20:49:30","新北市淡水區淡金路218號","121.460555","25.1671766666667","6501000","淡水區"
"251002","012-UM","2017/10/12 20:49:44","新北市淡水區英專路31號","121.445381666667","25.1699766666667","6501000","淡水區"
"251014","182-VK","2017/10/12 20:49:37","新北市淡水區公埔子32-8號","121.46183","25.232415","6501000","淡水區"
"251010","413-VK","2017/10/12 20:49:46","新北市淡水區沙崙路145號","121.423408333333","25.1829866666667","6501000","淡水區"
"251012","441-VK","2017/10/12 20:49:39","新北市淡水區興仁路162號","121.451611666667","25.22085","6501000","淡水區"
"251016","442-VK","2017/10/12 20:49:37","新北市淡水區興仁路165號","121.451508333333","25.2201066666667","6501000","淡水區"
"251005","443-VK","2017/10/12 20:49:48","新北市淡水區淡金路二段600號","121.446495","25.19253","6501000","淡水區"
"251007","577-R6","2017/10/12 20:49:39","新北市淡水區鄧公路29巷20號","121.452431666667","25.170155","6501000","淡水區"
"251011","650-BX","2017/10/12 20:49:48","新北市淡水區新民街一段13-1號","121.433001666667","25.18459","6501000","淡水區"
"251003","673-BX","2017/10/12 20:49:34","新北市淡水區中山北路一段247巷98號","121.442146666667","25.179485","6501000","淡水區"
"252002","178-VK","2017/10/12 20:49:46","新北市三芝區淡金路二段91號","121.504066666667","25.2608883333333","6502100","三芝區"
"207001","662-BX","2017/10/12 20:31:22","新北市萬里區萬里里成功新村67號","121.689671666667","25.1742416666667","6502800","萬里區"
"237004","078-UY","2017/10/12 20:49:34","新北市鶯歌區三鶯路29巷19號","121.354741666667","24.9403483333333","6500900","三峽區"
"242029","986-R7","2017/10/12 20:49:39","新北市新莊區昌隆街17號","121.454345","25.0509083333333","6500500","新莊區"
"242051","751-BX","2017/10/12 20:49:47","新北市新莊區民安西路137號","121.426451666667","25.0174583333333","6500500","新莊區"
"242023","613-BX","2017/10/12 20:49:47","新北市新莊區復興路三段52號","121.462498333333","25.0444366666667","6500500","新莊區"
"242027","612-BX","2017/10/12 20:49:45","新北市三重區中興南街37號","121.468943333333","25.0422733333333","6500500","新莊區"
"242039","566-BX","2017/10/12 20:49:28","新北市新莊區瓊林北路4號","121.440216666667","25.023005","6500500","新莊區"
"242002","442-UM","2017/10/12 20:49:38","新北市新莊區中港路五守新村10號","121.454683333333","25.0387533333333","6500500","新莊區"
"242048","441-UM","2017/10/12 20:49:44","新北市新莊區中正路596號","121.426886666667","25.0301683333333","6500500","新莊區"
"242061","362-BY","2017/10/12 20:49:33","新北市新莊區中正路457巷23號","121.4425","25.03318","6500500","新莊區"
"242007","132-UY","2017/10/12 20:49:38","新北市新莊區福樂街82號","121.457776666667","25.04692","6500500","新莊區"
"242036","133-UY","2017/10/12 20:49:34","新北市新莊區後港一路161號","121.431631666667","25.02793","6500500","新莊區"
"242009","173-VK","2017/10/12 20:49:44","新北市新莊區昌隆街118號","121.4572","25.0510116666667","6500500","新莊區"
"242042","176-VK","2017/10/12 20:49:35","新北市新莊區中正路700-26號","121.417771666667","25.0266466666667","6500500","新莊區"
"242017","350-TH","2017/10/12 20:49:47","新北市新莊區三和路12-21號","121.442168333333","25.0382983333333","6500500","新莊區"
"242011","351-TH","2017/10/12 20:49:39","新北市新莊區中榮街126號","121.44641","25.0527766666667","6500500","新莊區"
"221036","130-UY","2017/10/12 20:49:35","新北市汐止區新昌路88號","121.6638","25.0690366666667","6501100","汐止區"
"221015","131-UY","2017/10/12 20:49:43","新北市汐止區大同路二段599號","121.663983333333","25.07055","6501100","汐止區"
"221012","276-VK","2017/10/12 13:21:37","新北市汐止區汐萬路一段256巷3號","121.653455","25.07467","6501100","汐止區"
"221027","281-BY","2017/10/12 20:49:46","新北市汐止區水源路一段2號","121.656991666667","25.066995","6501100","汐止區"
"221029","298-VK","2017/10/12 20:49:45","新北市汐止區康寧街777-1號","121.644821666667","25.0754483333333","6501100","汐止區"
"221031","353-TW","2017/10/12 20:49:32","新北市汐止區汐萬路一段333巷23號","121.648605","25.07609","6501100","汐止區"
"221035","622-UM","2017/10/12 20:49:32","新北市汐止區康寧街901號","121.650795","25.07527","6501100","汐止區"
"221038","646-BX","2017/10/12 20:49:35","新北市汐止區汐萬路一段256巷3號","121.652683333333","25.074445","6501100","汐止區"
"221033","647-BX","2017/10/12 20:49:51","新北市汐止區合順街18巷8弄5號","121.620281666667","25.0418583333333","6501100","汐止區"
"221002","707-TV","2017/10/12 20:49:32","新北市汐止區福德二路136號","121.630816666667","25.0652566666667","6501100","汐止區"
"221018","753-BX","2017/10/12 20:49:45","新北市汐止區中華街83號","121.668501666667","25.0707716666667","6501100","汐止區"
"220062","303-R5","2017/10/12 20:49:48","新北市板橋區長江路二段311巷18-1號","121.47053","25.036175","6500100","板橋區"
"220064","486-VK","2017/10/12 20:49:41","新北市林口區汕頭32號","121.366323333333","25.1346866666667","6500100","板橋區"
"242034","280-VK","2017/10/12 20:49:35","新北市新莊區中正路289號","121.44869","25.0352616666667","6500500","新莊區"
"220103","561-BX","2017/10/12 19:17:44","新北市板橋區民生路二段120號","121.470388333333","25.0195966666667","6500100","板橋區"
"220070","AAC-253","2017/10/12 20:49:43","新北市八里區荖阡坑路4-28號","121.398345","25.1426116666667","6500100","板橋區"
