"lineid","car","time","location","longitude","latitude","cityid","cityname"
"232001","290-BY","2017/11/02 07:48:47","新北市坪林區坪雙路一段88號","121.719095","24.94519","6502000","坪林區"
"232014","291-BY","2017/11/02 07:48:54","新北市坪林區九芎根4號","121.666341666667","24.8852333333333","6502000","坪林區"
"232010","375-UM","2017/11/02 07:49:00","新北市坪林區磨壁潭4號","121.721338333333","24.9386133333333","6502000","坪林區"
"232018","705-BZ","2017/11/02 07:48:47","新北市坪林區坪雙路一段115號","121.728953333333","24.9480683333333","6502000","坪林區"
"232007","758-BX","2017/11/02 07:49:01","新北市坪林區魚堀49號","121.701018333333","24.93011","6502000","坪林區"
"244003","657-BX","2017/11/02 07:49:11","新北市林口區頂福79號","121.334561666667","25.094795","6501700","林口區"
"244021","838-TS","2017/11/02 07:48:05","新北市林口區粉寮69號","121.404836666667","25.0908416666667","6501700","林口區"
"222005","289-BY","2017/11/02 07:48:53","新北市深坑區文化街41號","121.618538333333","25.0011883333333","6501800","深坑區"
"231069","189-VK","2017/11/02 07:48:59","新北市新店區安華路28-1號","121.519538333333","24.9611266666667","6500600","新店區"
"231008","192-VK","2017/11/02 07:49:08","新北市新店區安華路28-1號","121.519296666667","24.9611233333333","6500600","新店區"
"235043","352-BY","2017/11/02 07:49:04","新北市中和區和平街29-1號","121.507458333333","24.9911233333333","6500300","中和區"
"226005","5620-A6","2017/11/02 07:48:53","新北市平溪區嶺腳里嶺腳寮74-1號","121.747671666667","25.0325083333333","6502400","平溪區"
"226002","7418-A5","2017/11/02 07:48:52","新北市平溪區十分里十分街16號","121.774008333333","25.0395866666667","6502400","平溪區"
"226003","AGD-0702","2017/11/02 07:49:09","新北市平溪區嶺腳里嶺腳寮74號","121.747601666667","25.0322683333333","6502400","平溪區"
"223006","022-BY","2017/11/02 07:49:01","新北市石碇區八分寮47-1號","121.643026666667","25.0139516666667","6501900","石碇區"
"223002","198-BX","2017/11/02 07:48:57","新北市石碇區北宜路五段濕水子巷3-1號","121.634151666667","24.9502116666667","6501900","石碇區"
"223003","205-TH","2017/11/02 07:48:57","新北市石碇區蛇舌子7-1號","121.663861666667","24.9658816666667","6501900","石碇區"
"223008","406-TH","2017/11/02 07:48:56","新北市石碇區靜安路一段337號","121.698871666667","25.01456","6501900","石碇區"
"223001","592-UM","2017/11/02 07:48:58","新北市石碇區蛇舌子7-1號","121.663995","24.96525","6501900","石碇區"
"223004","660-BX","2017/11/02 07:48:58","新北市石碇區楓子林36-3號","121.642348333333","25.0095733333333","6501900","石碇區"
"223007","661-BX","2017/11/02 07:49:07","新北市石碇區靜安路一段349號","121.698835","25.0155283333333","6501900","石碇區"
"223005","677-TV","2017/11/02 07:49:03","新北市石碇區楓子林34號","121.642153333333","25.0102733333333","6501900","石碇區"
"227007","282-VK","2017/11/02 07:48:54","新北市雙溪區雙溪里太平路43號","121.864756666667","25.0356333333333","6502500","雙溪區"
"252004","249-BX","2017/11/02 07:49:07","新北市三芝區店子里菜公坑81-3號","121.510888333333","25.202005","6502100","三芝區"
"252007","AAC-283","2017/11/02 07:48:57","新北市三芝區後厝里北勢子45-6號","121.470706666667","25.2505566666667","6502100","三芝區"
"237001","159-UY","2017/11/02 07:49:07","新北市三峽區學成路226號","121.374458333333","24.94154","6500900","三峽區"
"236009","165-UM","2017/11/02 07:49:05","新北市土城區清水路257號","121.462938333333","24.9841083333333","6501300","土城區"
"236003","339-SR","2017/11/02 07:49:00","新北市土城區龍泉路114號","121.447983333333","24.9431733333333","6501300","土城區"
"242030","AAC-296","2017/11/02 07:48:51","新北市新莊區新泰路357巷3弄57號","121.442256666667","25.0396666666667","6500500","新莊區"
"242028","986-R7","2017/11/02 07:48:56","新北市新莊區中環路二段392-1號","121.442375","25.0455216666667","6500500","新莊區"
"242049","751-BX","2017/11/02 07:48:59","新北市新莊區瓊林路190-2號","121.439385","25.0208483333333","6500500","新莊區"
"242024","615-BX","2017/11/02 07:48:58","新北市新莊區中環路二段392-1號","121.44239","25.045595","6500500","新莊區"
"242022","613-BX","2017/11/02 07:49:00","新北市新莊區中平路82巷36-2號","121.44663","25.0448766666667","6500500","新莊區"
"242026","612-BX","2017/11/02 07:49:11","新北市新莊區中和街2號","121.448443333333","25.0429116666667","6500500","新莊區"
"242038","566-BX","2017/11/02 07:49:08","新北市新莊區新樹路164號","121.435008333333","25.0225","6500500","新莊區"
"242043","497-BY","2017/11/02 07:48:58","新北市新莊區富國路107號","121.423376666667","25.0249766666667","6500500","新莊區"
"242047","442-UM","2017/11/02 07:48:55","新北市新莊區龍安路116號","121.418895","25.0204466666667","6500500","新莊區"
"242052","440-UM","2017/11/02 07:48:54","新北市新莊區瓊林路59-89號","121.442225","25.024325","6500500","新莊區"
"242033","415-TV","2017/11/02 07:48:51","新北市新莊區中正路473-1號","121.44205","25.0330333333333","6500500","新莊區"
"242003","413-TV","2017/11/02 07:48:54","新北市新莊區新泰路486號","121.442686666667","25.0457966666667","6500500","新莊區"
"242040","400-BY","2017/11/02 07:49:03","新北市新莊區新泰路357巷3弄57號","121.442028333333","25.039745","6500500","新莊區"
"242059","362-BY","2017/11/02 07:48:49","新北市新莊區新泰路357巷3弄37號","121.442036666667","25.040385","6500500","新莊區"
"242057","353-BY","2017/11/02 07:48:53","新北市泰山區磚雅厝3號","121.442008333333","25.0419783333333","6500500","新莊區"
"242006","132-UY","2017/11/02 07:49:06","新北市新莊區新泰路488號","121.442508333333","25.045905","6500500","新莊區"
"242035","133-UY","2017/11/02 07:49:08","新北市新莊區新樹路52號","121.437306666667","25.026645","6500500","新莊區"
"242020","135-UY","2017/11/02 07:48:51","新北市新莊區中港路312號","121.452441666667","25.04531","6500500","新莊區"
"242045","172-VK","2017/11/02 07:49:00","新北市新莊區新樹路65-7號","121.43937","25.0307016666667","6500500","新莊區"
"242008","173-VK","2017/11/02 00:40:37","新北市新莊區三和路12-21號","121.442056666667","25.03869","6500500","新莊區"
"242014","175-VK","2017/11/02 07:48:54","新北市新莊區新泰路488號","121.442528333333","25.045835","6500500","新莊區"
"242001","176-VK","2017/11/02 07:49:03","新北市新莊區新泰路357巷3弄51號","121.441963333333","25.0400433333333","6500500","新莊區"
"242012","347-TH","2017/11/02 07:49:08","新北市新莊區中平路110巷34號","121.446408333333","25.045975","6500500","新莊區"
"242055","349-TH","2017/11/02 07:48:54","新北市新莊區新泰路357巷1弄1號","121.442915","25.04115","6500500","新莊區"
"242016","350-TH","2017/11/02 07:48:50","新北市新莊區中華路一段103號","121.452696666667","25.04389","6500500","新莊區"
"242010","351-TH","2017/11/02 07:49:06","新北市新莊區中港一街161號","121.447338333333","25.0449816666667","6500500","新莊區"
"220064","282-UM","2017/11/02 07:49:00","新北市板橋區民權路89號","121.460593333333","25.0121916666667","6500100","板橋區"
"242018","280-VK","2017/11/02 07:48:58","新北市新莊區中港一街116號","121.448681666667","25.0452116666667","6500500","新莊區"
