"lineid","car","time","location","longitude","latitude","cityid","cityname"
"234012","149-BY","2017/07/29 12:09:36","新北市永和區福和路1號","121.526516666667","25.010225","6500400","永和區"
"231007","189-VK","2017/07/29 10:29:05","新北市新店區小坑二路136號","121.512911666667","24.910215","6500600","新店區"
"231008","192-VK","2017/07/29 12:09:50","新北市新店區屈尺路55-2號","121.545988333333","24.9225033333333","6500600","新店區"
"235031","255-BX","2017/07/29 11:43:01","新北市中和區和城路一段271巷1號","121.48562","24.9919216666667","6500300","中和區"
"228005","097-TW","2017/07/29 12:09:40","新北市貢寮區福隆里興隆街21-1號","121.9434","25.0164566666667","6502600","貢寮區"
"228004","212-TW","2017/07/29 12:09:49","新北市貢寮區貢寮里長泰路3號","121.907136666667","25.0205366666667","6502600","貢寮區"
