"lineid","car","time","location","longitude","latitude","cityid","cityname"
"234012","149-BY","2017/07/29 12:19:56","新北市永和區福和路1號","121.526315","25.009545","6500400","永和區"
"234040","862-TW","2017/07/29 12:19:48","新北市永和區福和路1號","121.526513333333","25.0096233333333","6500400","永和區"
"231007","189-VK","2017/07/29 10:29:05","新北市新店區小坑二路136號","121.512911666667","24.910215","6500600","新店區"
"231008","192-VK","2017/07/29 12:19:50","新北市新店區屈尺路190號","121.544901666667","24.92356","6500600","新店區"
"235031","255-BX","2017/07/29 11:43:01","新北市中和區和城路一段271巷1號","121.48562","24.9919216666667","6500300","中和區"
"228005","097-TW","2017/07/29 12:19:40","新北市貢寮區福連里福連街18號","121.98814","25.0123766666667","6502600","貢寮區"
"228004","212-TW","2017/07/29 12:19:49","新北市貢寮區貢寮里長泰路11號","121.89953","25.0204783333333","6502600","貢寮區"
