"lineid","car","time","location","longitude","latitude","cityid","cityname"
"234044","148-BY","2017/07/29 12:59:44","新北市永和區秀朗路二段148巷3弄11號","121.526096666667","25.0011983333333","6500400","永和區"
"234012","149-BY","2017/07/29 12:59:36","新北市永和區信義路19號","121.51421","25.0119816666667","6500400","永和區"
"234005","207-UY","2017/07/29 12:59:41","新北市永和區永和路二段70號","121.514891666667","25.0110433333333","6500400","永和區"
"234078","298-R6","2017/07/29 12:59:51","新北市永和區永亨路83號","121.521978333333","25.0056966666667","6500400","永和區"
"234036","336-UY","2017/07/29 12:59:43","新北市永和區民樂街73巷2號","121.527391666667","24.99709","6500400","永和區"
"234062","337-UY","2017/07/29 12:59:44","新北市永和區秀朗路一段211號","121.519405","25.0032816666667","6500400","永和區"
"234068","552-UM","2017/07/29 12:59:54","新北市永和區豫溪街57巷10弄12號","121.517688333333","25.0107283333333","6500400","永和區"
"234052","553-UM","2017/07/29 12:59:52","新北市永和區竹林路66巷15-7號","121.518343333333","25.0132416666667","6500400","永和區"
"234015","745-BX","2017/07/29 12:59:51","新北市永和區永和路二段299號","121.51605","25.0161366666667","6500400","永和區"
"234028","746-BX","2017/07/29 12:59:52","新北市永和區四維街56號","121.524675","24.9981966666667","6500400","永和區"
"234084","841-RS","2017/07/29 12:59:52","新北市永和區中正路169號","121.516586666667","24.99859","6500400","永和區"
"234060","AAD-866","2017/07/29 12:59:36","新北市永和區福和路309巷3號","121.516391666667","25.0070016666667","6500400","永和區"
"234040","862-TW","2017/07/29 12:59:48","新北市永和區永貞路306號","121.511888333333","25.0048666666667","6500400","永和區"
"234048","863-TW","2017/07/29 12:59:43","新北市永和區文化路194號","121.510701666667","25.0162433333333","6500400","永和區"
"234025","9371-KE","2017/07/29 12:59:52","新北市永和區水源街2巷8弄7號","121.512543333333","25.005575","6500400","永和區"
"234010","9373-KE","2017/07/29 12:59:46","新北市永和區文化路9巷22弄48號","121.514031666667","25.0145883333333","6500400","永和區"
"248013","025-BX","2017/07/29 12:59:49","新北市五股區中興路二段163號","121.457586666667","25.0776766666667","6501500","五股區"
"248015","026-BX","2017/07/29 12:59:44","新北市五股區中興路二段83巷26-6號","121.459993333333","25.0752316666667","6501500","五股區"
"248005","077-UY","2017/07/29 12:59:35","新北市五股區中興路二段83巷26-6號","121.460025","25.0751116666667","6501500","五股區"
"248007","095-VK","2017/07/29 12:59:37","新北市五股區更洲路30號","121.457856666667","25.0792516666667","6501500","五股區"
"248011","247-BX","2017/07/28 21:21:51","新北市五股區中興路二段37巷24號","121.460736666667","25.07472","6501500","五股區"
"248017","261-SL","2017/07/29 12:59:45","新北市五股區中興路二段83巷26-6號","121.46008","25.0752783333333","6501500","五股區"
"248009","272-BY","2017/07/29 12:59:50","新北市五股區中興路二段103巷14號","121.458486666667","25.0766066666667","6501500","五股區"
"248001","655-BX","2017/07/29 12:59:46","新北市五股區中興路二段83巷26-6號","121.459835","25.0752866666667","6501500","五股區"
"248003","677-BX","2017/07/29 12:59:50","新北市五股區中興路二段83巷26-6號","121.459983333333","25.0753083333333","6501500","五股區"
"234022","9380-KE","2017/07/29 12:59:46","新北市永和區竹林路75巷17號","121.52008","25.0140016666667","6500400","永和區"
"234076","969-R7","2017/07/29 12:59:44","新北市永和區民享街16號","121.515373333333","24.995155","6500400","永和區"
"234072","AAC-211","2017/07/29 12:59:40","新北市永和區環河東路二段98號","121.524233333333","25.0104216666667","6500400","永和區"
"234066","AAC-212","2017/07/29 12:59:51","新北市永和區中和路625號","121.51295","25.0049483333333","6500400","永和區"
"234001","AAC-295","2017/07/29 12:59:43","新北市永和區保福路一段25-1號","121.51275","25.0086166666667","6500400","永和區"
"244005","248-BX","2017/07/29 12:59:29","新北市林口區粉寮路一段77-1號","121.397","25.079165","6501700","林口區"
"231025","0291-UT","2017/07/29 12:59:52","新北市新店區安華路1-1號","121.519233333333","24.960545","6500600","新店區"
"231028","046-UY","2017/07/29 12:59:38","新北市新店區安華路28-1號","121.519568333333","24.9610216666667","6500600","新店區"
"231030","047-UY","2017/07/29 12:59:47","新北市新店區安華路28-1號","121.51925","24.9609116666667","6500600","新店區"
"231029","106-UY","2017/07/29 12:59:43","新北市新店區安華路28-1號","121.519566666667","24.9609083333333","6500600","新店區"
"231018","110-UY","2017/07/29 12:59:40","新北市新店區安華路28-1號","121.519355","24.9611633333333","6500600","新店區"
"231020","187-VK","2017/07/29 12:59:45","新北市新店區安華路28-1號","121.519606666667","24.9614266666667","6500600","新店區"
"231007","189-VK","2017/07/29 10:29:05","新北市新店區小坑二路136號","121.512911666667","24.910215","6500600","新店區"
"231034","268-BY","2017/07/29 12:59:37","新北市新店區安華路28-1號","121.519445","24.960555","6500600","新店區"
"231027","3712-VJ","2017/07/29 12:59:45","新北市新店區安華路28-1號","121.519291666667","24.9605683333333","6500600","新店區"
"231024","3713-VJ","2017/07/29 12:59:51","新北市新店區安華路28-1號","121.519256666667","24.9606116666667","6500600","新店區"
"231038","4715-K9","2017/07/29 12:59:36","新北市新店區安華路28-1號","121.519075","24.96061","6500600","新店區"
"231036","512-UM","2017/07/29 12:59:39","新北市新店區安華路28-1號","121.51932","24.961205","6500600","新店區"
"231023","513-UM","2017/07/29 12:59:45","新北市新店區安華路28-1號","121.519738333333","24.9611933333333","6500600","新店區"
"231035","515-UM","2017/07/29 00:54:48","新北市新店區安華路28-1號","121.519776666667","24.9611233333333","6500600","新店區"
"231006","617-UM","2017/07/29 12:59:35","新北市新店區安華路28-1號","121.519415","24.9610016666667","6500600","新店區"
"231001","619-UM","2017/07/29 12:59:46","新北市新店區安華路28-1號","121.519638333333","24.96088","6500600","新店區"
"231003","641-BX","2017/07/29 12:59:42","新北市新店區安華路1-1號","121.519565","24.960485","6500600","新店區"
"231013","719-UM","2017/07/29 12:59:54","新北市新店區安華路28-1號","121.51957","24.9614233333333","6500600","新店區"
"231033","720-UM","2017/07/29 12:59:45","新北市新店區安華路28-1號","121.519338333333","24.96115","6500600","新店區"
"231005","897-TW","2017/07/29 12:59:51","新北市新店區安華路28-1號","121.519595","24.9606583333333","6500600","新店區"
"231004","899-TW","2017/07/29 12:59:45","新北市新店區安華路28-1號","121.51938","24.9608633333333","6500600","新店區"
"231037","AKT-0513","2017/07/29 12:59:52","新北市新店區安華路1-1號","121.519063333333","24.960545","6500600","新店區"
"235029","098-UM","2017/07/29 12:59:39","新北市中和區和城路一段271巷1號","121.485458333333","24.992085","6500300","中和區"
"235004","150-BY","2017/07/29 12:59:41","新北市中和區和城路一段271巷1號","121.485438333333","24.991715","6500300","中和區"
"235022","151-BY","2017/07/29 12:59:36","新北市中和區中正路507號","121.488465","24.9935533333333","6500300","中和區"
"235002","185-VK","2017/07/29 12:59:42","新北市中和區秀朗路三段74-3號","121.526231666667","24.9940516666667","6500300","中和區"
"235031","255-BX","2017/07/29 12:59:48","新北市中和區新生街13巷2號","121.483393333333","25.00425","6500300","中和區"
"235015","376-QA","2017/07/29 12:59:48","新北市中和區中正路454號","121.490763333333","24.99379","6500300","中和區"
"235025","378-QA","2017/07/29 03:58:31","新北市中和區員山路36巷13號","121.484181666667","24.9911983333333","6500300","中和區"
"235006","551-UM","2017/07/29 12:59:48","新北市中和區圓通路208號","121.495941666667","24.9939","6500300","中和區"
"235024","647-TV","2017/07/29 12:59:40","新北市中和區員山路36巷16-3號","121.484841666667","24.9916483333333","6500300","中和區"
"235011","732-UM","2017/07/29 12:59:55","新北市中和區員山路36巷13號","121.484165","24.9912583333333","6500300","中和區"
"235035","783-BX","2017/07/29 12:59:49","新北市中和區中正路802號","121.48505","25.0017716666667","6500300","中和區"
"235005","802-TS","2017/07/29 12:59:53","新北市中和區員山路36巷16-2號","121.485201666667","24.9917","6500300","中和區"
"235016","805-TS","2017/07/29 12:59:47","新北市中和區建八路1號","121.485496666667","24.9986066666667","6500300","中和區"
"220013","072-UY","2017/07/29 12:59:43","新北市板橋區中山路二段89巷5弄12號","121.472751666667","25.0167633333333","6500100","板橋區"
"228005","097-TW","2017/07/29 12:59:40","新北市貢寮區福連里香蘭街3-3號","121.971991666667","25.02463","6502600","貢寮區"
"228004","212-TW","2017/07/29 12:59:49","新北市貢寮區吉林里內寮街10號","121.888196666667","24.990035","6502600","貢寮區"
"208004","AAC-292","2017/07/29 12:59:39","新北市金山區磺清路135號","121.639426666667","25.2275616666667","6502700","金山區"
"207002","749-BX","2017/07/29 12:59:21","新北市萬里區雙興里大坪路45-2號","121.627828333333","25.1692216666667","6502800","萬里區"
"207001","662-BX","2017/07/29 12:59:42","新北市萬里區萬里里獅頭路22-2號","121.692813333333","25.1781333333333","6502800","萬里區"
"236006","498-BY","2017/07/29 12:59:48","新北市土城區亞洲路48號","121.435703333333","24.9737616666667","6501300","土城區"
"238021","311-TH","2017/07/29 12:59:37","新北市樹林區佳園路一段94號","121.393628333333","24.968615","6500700","樹林區"
"221002","753-BX","2017/07/29 12:59:47","新北市汐止區康寧街399號","121.62977","25.0678433333333","6501100","汐止區"
"220014","829-TW","2017/07/29 12:59:42","新北市板橋區民生路二段22號","121.472778333333","25.0165233333333","6500100","板橋區"
