"lineid","car","time","location","longitude","latitude","cityid","cityname"
"234044","148-BY","2017/07/29 13:09:44","新北市永和區永元路52巷42號","121.524096666667","25.000865","6500400","永和區"
"234012","149-BY","2017/07/29 13:09:52","新北市永和區保福路二段48號","121.510965","25.0121633333333","6500400","永和區"
"234005","207-UY","2017/07/29 13:09:50","新北市永和區中山路一段133號","121.510591666667","25.0097566666667","6500400","永和區"
"234078","298-R6","2017/07/29 13:09:51","新北市永和區國中路150號","121.52272","25.006825","6500400","永和區"
"234036","336-UY","2017/07/29 13:09:46","新北市永和區民樂街59巷9號","121.52806","24.998285","6500400","永和區"
"234062","337-UY","2017/07/29 13:09:44","新北市永和區永元路95巷1號","121.522338333333","25.001925","6500400","永和區"
"234068","552-UM","2017/07/29 13:09:34","新北市永和區豫溪街100號","121.518915","25.0099983333333","6500400","永和區"
"234052","553-UM","2017/07/29 13:09:52","新北市永和區中興街133巷4號","121.51866","25.0125516666667","6500400","永和區"
"234015","745-BX","2017/07/29 13:09:51","新北市永和區文化路90巷15弄1號","121.513753333333","25.0159","6500400","永和區"
"234028","746-BX","2017/07/29 13:09:50","新北市永和區厚德街83號","121.524391666667","24.9987733333333","6500400","永和區"
"234084","841-RS","2017/07/29 13:09:52","新北市永和區永寧街131巷1號","121.518048333333","25.005185","6500400","永和區"
"234060","AAD-866","2017/07/29 13:09:36","新北市永和區安樂路304巷8號","121.514623333333","25.0050566666667","6500400","永和區"
"234040","862-TW","2017/07/29 13:09:51","新北市永和區永貞路330號","121.511263333333","25.0055233333333","6500400","永和區"
"234048","863-TW","2017/07/29 13:09:43","新北市永和區文化路135巷30號","121.5107","25.0141183333333","6500400","永和區"
"234025","9371-KE","2017/07/29 13:09:52","新北市永和區永和路一段72巷4號","121.513431666667","25.0061066666667","6500400","永和區"
"234010","9373-KE","2017/07/29 13:09:46","新北市永和區仁愛路31巷7弄1號","121.514243333333","25.012845","6500400","永和區"
"248013","025-BX","2017/07/29 13:09:49","新北市五股區成泰路一段189巷9弄2號","121.434153333333","25.076575","6501500","五股區"
"248015","026-BX","2017/07/29 13:09:44","新北市五股區成泰路三段216號","121.446103333333","25.0929116666667","6501500","五股區"
"248005","077-UY","2017/07/29 13:09:35","新北市五股區中興路二段82號","121.460836666667","25.0772933333333","6501500","五股區"
"248007","095-VK","2017/07/29 13:09:37","新北市五股區更洲路32巷8弄13-1號","121.459296666667","25.0794916666667","6501500","五股區"
"248011","247-BX","2017/07/28 21:21:51","新北市五股區中興路二段37巷24號","121.460736666667","25.07472","6501500","五股區"
"248017","261-SL","2017/07/29 13:09:45","新北市五股區新五路二段550號","121.442545","25.0850033333333","6501500","五股區"
"248009","272-BY","2017/07/29 13:09:50","新北市五股區成泰路一段229-1號","121.434235","25.0776283333333","6501500","五股區"
"248001","655-BX","2017/07/29 13:09:46","新北市五股區成泰路三段101-1號","121.44417","25.0900883333333","6501500","五股區"
"248003","677-BX","2017/07/29 13:09:50","新北市五股區中興路四段56號","121.437806666667","25.0831983333333","6501500","五股區"
"234022","9380-KE","2017/07/29 13:09:45","新北市永和區中興街23號","121.516038333333","25.0120316666667","6500400","永和區"
"234076","969-R7","2017/07/29 13:09:44","新北市永和區民光街1號","121.515245","24.99644","6500400","永和區"
"234072","AAC-211","2017/07/29 13:09:40","新北市永和區竹林路178號","121.520353333333","25.0099033333333","6500400","永和區"
"234066","AAC-212","2017/07/29 13:09:51","新北市永和區保平路9號","121.513016666667","25.00754","6500400","永和區"
"234001","AAC-295","2017/07/29 13:09:43","新北市永和區和平街30號","121.513326666667","25.0099966666667","6500400","永和區"
"244005","248-BX","2017/07/29 13:09:49","新北市林口區文化北路一段490號","121.36649","25.0784483333333","6501700","林口區"
"231002","002-UM","2017/07/29 13:09:55","新北市新店區安華路28-1號","121.519731666667","24.9608166666667","6500600","新店區"
"231025","0291-UT","2017/07/29 13:09:52","新北市新店區安華路1-1號","121.519236666667","24.96055","6500600","新店區"
"231028","046-UY","2017/07/29 13:09:38","新北市新店區安華路28-1號","121.519633333333","24.9609583333333","6500600","新店區"
"231030","047-UY","2017/07/29 13:09:47","新北市新店區安康路一段258號","121.520428333333","24.9639616666667","6500600","新店區"
"231029","106-UY","2017/07/29 13:09:44","新北市新店區安華路28-1號","121.519588333333","24.9609916666667","6500600","新店區"
"231012","108-UY","2017/07/29 13:09:48","新北市新店區安華路28-1號","121.51967","24.96102","6500600","新店區"
"231018","110-UY","2017/07/29 13:09:40","新北市新店區安華路28-1號","121.519388333333","24.9612383333333","6500600","新店區"
"231020","187-VK","2017/07/29 13:09:45","新北市新店區安華路28-1號","121.519506666667","24.9612283333333","6500600","新店區"
"231007","189-VK","2017/07/29 10:29:05","新北市新店區小坑二路136號","121.512911666667","24.910215","6500600","新店區"
"231026","256-BX","2017/07/29 13:09:35","新北市新店區安華路28-1號","121.519705","24.96118","6500600","新店區"
"231034","268-BY","2017/07/29 13:09:37","新北市新店區安華路28-1號","121.519391666667","24.960565","6500600","新店區"
"231017","AAD-862","2017/07/29 13:09:42","新北市新店區安華路28-1號","121.519921666667","24.96117","6500600","新店區"
"231027","3712-VJ","2017/07/29 13:09:45","新北市新店區安華路28-1號","121.519243333333","24.960595","6500600","新店區"
"231024","3713-VJ","2017/07/29 13:09:51","新北市新店區安華路28-1號","121.519248333333","24.9606","6500600","新店區"
"231038","4715-K9","2017/07/29 13:09:36","新北市新店區安華路3號","121.518895","24.960485","6500600","新店區"
"231036","512-UM","2017/07/29 13:09:39","新北市新店區安康路一段359-27號","121.518516666667","24.9613316666667","6500600","新店區"
"231023","513-UM","2017/07/29 13:09:45","新北市新店區安華路28-1號","121.519686666667","24.9611533333333","6500600","新店區"
"231035","515-UM","2017/07/29 13:09:54","新北市新店區安華路28-1號","121.51981","24.9611083333333","6500600","新店區"
"231006","617-UM","2017/07/29 13:09:35","新北市新店區安華路28-1號","121.519455","24.9609266666667","6500600","新店區"
"231001","619-UM","2017/07/29 13:09:46","新北市新店區安華路1-1號","121.519556666667","24.9605016666667","6500600","新店區"
"231003","641-BX","2017/07/29 13:09:42","新北市新店區安康路一段3-1號","121.53409","24.960635","6500600","新店區"
"231013","719-UM","2017/07/29 13:09:34","新北市新店區安華路28-1號","121.519616666667","24.961425","6500600","新店區"
"231033","720-UM","2017/07/29 13:09:45","新北市新店區安華路28-1號","121.519363333333","24.9611666666667","6500600","新店區"
"231005","897-TW","2017/07/29 13:09:51","新北市新店區安華路28-1號","121.519855","24.9606533333333","6500600","新店區"
"231004","899-TW","2017/07/29 13:09:45","新北市新店區安華路28-1號","121.519295","24.9608383333333","6500600","新店區"
"231037","AKT-0513","2017/07/29 13:09:53","新北市新店區安華路1-1號","121.519273333333","24.9604416666667","6500600","新店區"
"235028","005-UY","2017/07/29 13:09:40","新北市中和區中正路395號","121.489635","24.9940916666667","6500300","中和區"
"235029","098-UM","2017/07/29 13:09:39","新北市中和區景平路734號","121.496543333333","25.0040833333333","6500300","中和區"
"235004","150-BY","2017/07/29 13:09:41","新北市中和區和城路一段271巷1號","121.485478333333","24.9917383333333","6500300","中和區"
"235022","151-BY","2017/07/29 13:09:56","新北市中和區圓通路367巷33弄1號","121.494001666667","24.985435","6500300","中和區"
"235002","185-VK","2017/07/29 13:09:42","新北市中和區大仁街20巷25弄33號","121.519225","24.99384","6500300","中和區"
"235031","255-BX","2017/07/29 13:09:54","新北市中和區新生街179號","121.483745","25.0005983333333","6500300","中和區"
"235036","301-VK","2017/07/29 13:09:38","新北市中和區員山路36巷13號","121.483936666667","24.9911383333333","6500300","中和區"
"235007","352-BY","2017/07/29 13:09:54","新北市中和區錦和路350-1號","121.490001666667","24.9935483333333","6500300","中和區"
"235015","376-QA","2017/07/29 13:09:49","新北市中和區景新街132巷21號","121.504411666667","24.99757","6500300","中和區"
"235025","378-QA","2017/07/29 03:58:31","新北市中和區員山路36巷13號","121.484181666667","24.9911983333333","6500300","中和區"
"235014","4979-A6","2017/07/29 13:09:35","新北市中和區中正路458號","121.490591666667","24.9938233333333","6500300","中和區"
"235006","551-UM","2017/07/29 13:09:48","新北市中和區景平路159巷5號","121.512728333333","24.9920216666667","6500300","中和區"
"235034","558-UM","2017/07/29 13:09:42","新北市中和區和城路一段271巷1號","121.485373333333","24.9921116666667","6500300","中和區"
"235018","640-BX","2017/07/29 13:09:41","新北市中和區中正路637巷60弄61號","121.485725","24.9928333333333","6500300","中和區"
"235024","647-TV","2017/07/29 13:09:40","新北市中和區員山路36巷16-3號","121.484816666667","24.9917566666667","6500300","中和區"
"235011","732-UM","2017/07/29 13:09:35","新北市中和區中正路271-1號","121.495728333333","24.9936466666667","6500300","中和區"
"235035","783-BX","2017/07/29 13:09:49","新北市中和區立德街218號","121.483695","25.00992","6500300","中和區"
"235026","800-TS","2017/07/29 13:09:52","新北市中和區錦和路47號","121.488273333333","24.9998783333333","6500300","中和區"
"235021","801-TS","2017/07/29 13:09:42","新北市中和區員山路36巷16-3號","121.484963333333","24.9918366666667","6500300","中和區"
"235005","802-TS","2017/07/29 13:09:33","新北市中和區中正路637巷52弄1號","121.485486666667","24.99348","6500300","中和區"
"235016","805-TS","2017/07/29 13:09:46","新北市中和區南山路226號","121.50643","24.99022","6500300","中和區"
"235001","AAC-213","2017/07/29 13:09:47","新北市中和區中正路395號","121.48991","24.9935683333333","6500300","中和區"
"220016","013-TV","2017/07/29 13:09:37","新北市板橋區民生路二段36-1號","121.472568333333","25.01656","6500100","板橋區"
"220013","072-UY","2017/07/29 13:09:43","新北市板橋區中山路二段89巷7弄15號","121.472738333333","25.01684","6500100","板橋區"
"228005","097-TW","2017/07/29 13:09:40","新北市貢寮區仁理村研海街22號","121.927208333333","25.0387883333333","6502600","貢寮區"
"228004","212-TW","2017/07/29 13:09:49","新北市貢寮區吉林里內寮街71-1號","121.89291","24.973595","6502600","貢寮區"
"208004","AAC-292","2017/07/29 13:09:39","新北市金山區中正路145號","121.63203","25.2214383333333","6502700","金山區"
"207002","749-BX","2017/07/29 13:09:53","新北市萬里區崁腳里內崁路7號","121.640921666667","25.1596483333333","6502800","萬里區"
"252005","073-UM","2017/07/29 13:09:04","新北市三芝區八賢里八連溪1-7號","121.507665","25.2484166666667","6502100","三芝區"
"207001","662-BX","2017/07/29 13:09:42","新北市萬里區萬里里瑪鋉路121號","121.68901","25.1780716666667","6502800","萬里區"
"236006","498-BY","2017/07/29 13:09:48","新北市土城區亞洲路108巷1弄32號","121.433098333333","24.9718833333333","6501300","土城區"
"238021","311-TH","2017/07/29 13:09:37","新北市樹林區東豐街49巷22弄11號","121.414638333333","24.97472","6500700","樹林區"
"221002","753-BX","2017/07/29 13:09:47","新北市汐止區福德一路342巷1弄16號","121.628948333333","25.0634583333333","6501100","汐止區"
"220011","609-BX","2017/07/29 13:09:48","新北市板橋區民生路二段36-1號","121.472625","25.01661","6500100","板橋區"
"220014","829-TW","2017/07/29 13:09:42","新北市板橋區民生路二段22號","121.47278","25.0165183333333","6500100","板橋區"
