"lineid","car","time","location","longitude","latitude","cityid","cityname"
"234044","148-BY","2017/07/29 13:29:44","新北市永和區得和路332號","121.523391666667","24.9994516666667","6500400","永和區"
"234012","149-BY","2017/07/29 13:29:36","新北市永和區永和路二段103號","121.514965","25.0117616666667","6500400","永和區"
"234005","207-UY","2017/07/29 13:29:41","新北市永和區中山路一段295號","121.506703333333","25.006865","6500400","永和區"
"234078","298-R6","2017/07/29 13:29:51","新北市永和區環河東路三段52巷2弄2號","121.526471666667","25.0060666666667","6500400","永和區"
"234036","336-UY","2017/07/29 13:29:44","新北市永和區成功路一段140號","121.526761666667","25.001815","6500400","永和區"
"234062","337-UY","2017/07/29 13:29:44","新北市永和區中正路368巷1弄72號","121.519915","25.0008433333333","6500400","永和區"
"234068","552-UM","2017/07/29 13:29:54","新北市永和區中興街52巷1弄9號","121.517133333333","25.01143","6500400","永和區"
"234052","553-UM","2017/07/29 13:29:52","新北市永和區復興街19巷9號","121.51612","25.013185","6500400","永和區"
"234015","745-BX","2017/07/29 13:29:51","新北市永和區環河西路一段63號","121.513403333333","25.018115","6500400","永和區"
"234028","746-BX","2017/07/29 13:29:50","新北市永和區民權路33號","121.520018333333","24.9977316666667","6500400","永和區"
"234084","841-RS","2017/07/29 13:29:52","新北市永和區永利路46號","121.518801666667","25.005405","6500400","永和區"
"234060","AAD-866","2017/07/29 13:29:36","新北市永和區中正路570號","121.51717","25.0063416666667","6500400","永和區"
"234040","862-TW","2017/07/29 13:29:48","新北市永和區水源街39巷17號","121.510638333333","25.0036783333333","6500400","永和區"
"234048","863-TW","2017/07/29 13:29:43","新北市永和區保福路二段150巷2弄7號","121.509908333333","25.0144433333333","6500400","永和區"
"234025","9371-KE","2017/07/29 13:29:52","新北市永和區永和路二段8號","121.514465","25.0102783333333","6500400","永和區"
"234010","9373-KE","2017/07/29 13:29:46","新北市永和區仁愛路141巷3弄2號","121.51168","25.0122933333333","6500400","永和區"
"248013","025-BX","2017/07/29 13:29:49","新北市五股區明德路7巷37號","121.434651666667","25.07081","6501500","五股區"
"248015","026-BX","2017/07/29 13:29:44","新北市五股區凌雲路一段83巷22弄1號","121.44986","25.1007516666667","6501500","五股區"
"248005","077-UY","2017/07/29 13:29:35","新北市五股區四維路25號","121.467068333333","25.07064","6501500","五股區"
"248007","095-VK","2017/07/29 13:29:37","新北市五股區四維路185巷42弄1號","121.46334","25.0770016666667","6501500","五股區"
"248011","247-BX","2017/07/28 21:21:51","新北市五股區中興路二段37巷24號","121.460736666667","25.07472","6501500","五股區"
"248017","261-SL","2017/07/29 13:29:45","新北市五股區民義路二段52巷27號","121.410675","25.1129266666667","6501500","五股區"
"248009","272-BY","2017/07/29 13:29:50","新北市五股區水碓路16巷2號","121.433715","25.0725733333333","6501500","五股區"
"248001","655-BX","2017/07/29 13:29:46","新北市五股區西雲路167-1號","121.446885","25.0948283333333","6501500","五股區"
"248003","677-BX","2017/07/29 13:29:50","新北市五股區民義路一段152號","121.433055","25.087525","6501500","五股區"
"234022","9380-KE","2017/07/29 13:29:45","新北市永和區竹林路91巷21弄11號","121.520871666667","25.0125133333333","6500400","永和區"
"234076","969-R7","2017/07/29 13:29:44","新北市永和區中正路286巷7號","121.517713333333","24.9986316666667","6500400","永和區"
"234072","AAC-211","2017/07/29 13:29:40","新北市永和區永和路二段103號","121.514835","25.011825","6500400","永和區"
"234066","AAC-212","2017/07/29 13:29:51","新北市永和區永貞路408號","121.509036666667","25.0077516666667","6500400","永和區"
"234001","AAC-295","2017/07/29 13:29:43","新北市永和區永和路一段118號","121.514025","25.0078083333333","6500400","永和區"
"231002","002-UM","2017/07/29 13:29:54","新北市新店區環河路29巷1號","121.536715","24.9611283333333","6500600","新店區"
"231025","0291-UT","2017/07/29 13:29:52","新北市新店區中央五街46號","121.52811","24.97518","6500600","新店區"
"231028","046-UY","2017/07/29 13:29:38","新北市新店區安康路一段266巷4號","121.520005","24.9641083333333","6500600","新店區"
"231030","047-UY","2017/07/29 13:29:47","新北市新店區安康路一段355-4號","121.51733","24.963905","6500600","新店區"
"231029","106-UY","2017/07/29 13:29:43","新北市新店區車子路10-4號","121.504853333333","24.9545466666667","6500600","新店區"
"231012","108-UY","2017/07/29 13:29:48","新北市新店區德正街17巷1號","121.54362","24.972965","6500600","新店區"
"231018","110-UY","2017/07/29 13:29:40","新北市新店區中央路151號","121.529406666667","24.9719283333333","6500600","新店區"
"231020","187-VK","2017/07/29 13:29:45","新北市新店區新烏路一段9-1號","121.546981666667","24.9514783333333","6500600","新店區"
"231007","189-VK","2017/07/29 10:29:05","新北市新店區小坑二路136號","121.512911666667","24.910215","6500600","新店區"
"231026","256-BX","2017/07/29 13:29:35","新北市新店區安康路一段126號","121.526823333333","24.9628","6500600","新店區"
"231034","268-BY","2017/07/29 13:29:36","新北市新店區車子路109號","121.505206666667","24.952105","6500600","新店區"
"231010","278-BY","2017/07/29 13:29:55","新北市新店區中正路374號","121.534963333333","24.9765433333333","6500600","新店區"
"231017","AAD-862","2017/07/29 13:29:42","新北市新店區新烏路一段9號","121.547218333333","24.9517","6500600","新店區"
"231027","3712-VJ","2017/07/29 13:29:45","新北市新店區新店後街97號","121.537646666667","24.9557516666667","6500600","新店區"
"231024","3713-VJ","2017/07/29 13:29:51","新北市新店區北新路二段29巷3弄2號","121.542201666667","24.9731016666667","6500600","新店區"
"231038","4715-K9","2017/07/29 13:29:36","新北市新店區安華路1-1號","121.519441666667","24.9604916666667","6500600","新店區"
"231036","512-UM","2017/07/29 13:29:39","新北市新店區安康路三段349號","121.485126666667","24.9514","6500600","新店區"
"231023","513-UM","2017/07/29 13:29:45","新北市新店區新店路13號","121.540288333333","24.9529166666667","6500600","新店區"
"231035","515-UM","2017/07/29 13:29:54","新北市新店區安康路一段266巷4號","121.519818333333","24.964005","6500600","新店區"
"231006","617-UM","2017/07/29 13:29:55","新北市新店區安康路一段104號","121.52727","24.96249","6500600","新店區"
"231001","619-UM","2017/07/29 13:29:46","新北市新店區環河路29巷1號","121.536946666667","24.9613566666667","6500600","新店區"
"231003","641-BX","2017/07/29 13:29:21","新北市新店區北新路一段126巷23號","121.542695","24.96996","6500600","新店區"
"231013","719-UM","2017/07/29 13:29:54","新北市新店區中正路454-5號","121.534458333333","24.9790916666667","6500600","新店區"
"231033","720-UM","2017/07/29 13:29:45","新北市新店區安忠路57巷15號","121.513165","24.95711","6500600","新店區"
"231005","897-TW","2017/07/29 13:29:51","新北市新店區光明街215號","121.540073333333","24.9639733333333","6500600","新店區"
"231004","899-TW","2017/07/29 13:29:45","新北市新店區安康路一段24巷4號","121.532438333333","24.9605083333333","6500600","新店區"
"231037","AKT-0513","2017/07/29 13:29:33","新北市新店區薏仁坑路33號","121.493566666667","24.96296","6500600","新店區"
"235030","003-UY","2017/07/29 13:29:35","新北市中和區中山路二段120號","121.502743333333","25.0037133333333","6500300","中和區"
"235028","005-UY","2017/07/29 13:29:39","新北市中和區圓通路141巷17號","121.498945","24.9952483333333","6500300","中和區"
"235027","006-UY","2017/07/29 13:29:47","新北市中和區中正路565號","121.486858333333","24.99437","6500300","中和區"
"235020","096-UM","2017/07/29 13:29:45","新北市中和區員山路611巷1號","121.477848333333","25.0112683333333","6500300","中和區"
"235003","097-UM","2017/07/29 13:29:50","新北市中和區大勇街25巷2號","121.517251666667","24.9933683333333","6500300","中和區"
"235029","098-UM","2017/07/29 13:29:19","新北市中和區莊敬路49巷27號","121.501483333333","25.0060383333333","6500300","中和區"
"235004","150-BY","2017/07/29 13:29:41","新北市中和區安平路59號","121.509451666667","24.9951816666667","6500300","中和區"
"235022","151-BY","2017/07/29 13:29:56","新北市中和區圓通路369巷156弄32號","121.489038333333","24.9818466666667","6500300","中和區"
"235019","183-VK","2017/07/29 13:29:39","新北市中和區民享街283號","121.471365","24.996075","6500300","中和區"
"235002","185-VK","2017/07/29 13:29:42","新北市中和區秀朗路三段128巷2號","121.52462","24.9925483333333","6500300","中和區"
"235013","186-VK","2017/07/29 13:29:36","新北市中和區景安路96號","121.505476666667","24.9957183333333","6500300","中和區"
"235031","255-BX","2017/07/29 13:29:48","新北市中和區員山路148巷42號","121.4825","24.997085","6500300","中和區"
"235036","301-VK","2017/07/29 13:29:38","新北市中和區中正路432巷32號","121.491028333333","24.995795","6500300","中和區"
"235007","352-BY","2017/07/29 13:29:54","新北市中和區景平路444號","121.506651666667","24.9934916666667","6500300","中和區"
"235015","376-QA","2017/07/29 13:29:49","新北市中和區興南路二段242巷17號","121.502463333333","24.98286","6500300","中和區"
"235032","377-QA","2017/07/29 13:29:37","新北市中和區錦和路350-1號","121.490553333333","24.9936233333333","6500300","中和區"
"235025","378-QA","2017/07/29 13:29:41","新北市中和區民享街116巷16號","121.473833333333","24.998995","6500300","中和區"
"235014","4979-A6","2017/07/29 13:29:54","新北市中和區景新街410巷18弄10號","121.51213","24.9896","6500300","中和區"
"235033","4980-A6","2017/07/29 13:29:35","新北市中和區連城路127巷33號","121.497315","24.9973566666667","6500300","中和區"
"235006","551-UM","2017/07/29 13:29:48","新北市中和區秀朗路三段175巷23號","121.52569","24.990855","6500300","中和區"
"235034","558-UM","2017/07/29 13:29:42","新北市中和區圓通路145巷2號","121.498466666667","24.9955066666667","6500300","中和區"
"235001","565-BX","2017/07/29 13:29:53","新北市中和區復興路263巷9弄11-4號","121.503461666667","24.989815","6500300","中和區"
"235018","640-BX","2017/07/29 13:29:41","新北市中和區民享街119巷2號","121.474408333333","24.9986866666667","6500300","中和區"
"235024","647-TV","2017/07/29 13:29:20","新北市中和區員山路162號","121.481353333333","24.9997","6500300","中和區"
"235011","732-UM","2017/07/29 13:29:35","新北市中和區南山路294號","121.507741666667","24.987235","6500300","中和區"
"235010","733-UM","2017/07/29 13:29:43","新北市中和區圓通路205巷13號","121.497726666667","24.994225","6500300","中和區"
"235035","783-BX","2017/07/29 13:29:49","新北市中和區中山路二段486號","121.487665","25.0052716666667","6500300","中和區"
"235026","800-TS","2017/07/29 13:29:52","新北市中和區景平路726-2號","121.496646666667","25.0034416666667","6500300","中和區"
"235021","801-TS","2017/07/29 13:29:42","新北市中和區民享街97巷21號","121.475341666667","24.9995216666667","6500300","中和區"
"235005","802-TS","2017/07/29 13:29:53","新北市中和區中和路330號","121.5099","25.0012483333333","6500300","中和區"
"235016","805-TS","2017/07/29 13:29:55","新北市中和區興南路二段133號","121.505145","24.9840416666667","6500300","中和區"
"235012","896-TW","2017/07/29 13:29:48","新北市中和區中正路271-1號","121.495746666667","24.9936866666667","6500300","中和區"
"235017","900-TW","2017/07/29 13:29:42","新北市土城區金城路三段253號","121.47177","24.9899716666667","6500300","中和區"
"235001","AAC-213","2017/07/29 13:29:47","新北市中和區景德街75號","121.516571666667","24.99138","6500300","中和區"
"235023","AAC-215","2017/07/29 13:29:43","新北市中和區員山路36巷16-2號","121.485286666667","24.9914766666667","6500300","中和區"
"220016","013-TV","2017/07/29 13:29:37","新北市板橋區民生路二段36-1號","121.472558333333","25.01662","6500100","板橋區"
"220013","072-UY","2017/07/29 13:29:43","新北市板橋區民生路二段22號","121.472713333333","25.01667","6500100","板橋區"
"220034","073-UY","2017/07/29 13:29:52","新北市板橋區南雅西路一段39巷30號","121.45276","25.004645","6500100","板橋區"
"228005","097-TW","2017/07/29 13:29:39","新北市貢寮區美豐里文秀坑8號","121.90197","25.0504166666667","6502600","貢寮區"
"228004","212-TW","2017/07/29 13:29:49","新北市貢寮區龍崗里石壁坑街17號","121.910401666667","24.9894833333333","6502600","貢寮區"
"208004","AAC-292","2017/07/29 13:27:39","新北市金山區南勢湖66號","121.616491666667","25.214715","6502700","金山區"
"207002","749-BX","2017/07/29 13:29:41","新北市萬里區崁腳里崁腳路166號","121.64517","25.1559816666667","6502800","萬里區"
"252005","073-UM","2017/07/29 13:29:04","新北市三芝區福德里土地公埔69號","121.519696666667","25.2247733333333","6502100","三芝區"
"207001","662-BX","2017/07/29 13:29:42","新北市萬里區大鵬里萬里加投14號","121.6506","25.2092466666667","6502800","萬里區"
"236006","498-BY","2017/07/29 13:29:48","新北市土城區慶祥街1巷27號","121.437233333333","24.9738716666667","6501300","土城區"
"221002","753-BX","2017/07/29 13:29:47","新北市汐止區福德一路430巷2-1號","121.626086666667","25.060085","6501100","汐止區"
"220028","200-UY","2017/07/29 13:29:51","新北市板橋區華東街1-9號","121.448285","24.9948383333333","6500100","板橋區"
"220030","610-BX","2017/07/29 13:29:46","新北市板橋區華東街1-10號","121.448265","24.9950483333333","6500100","板橋區"
"220004","276-BY","2017/07/29 13:29:43","新北市板橋區中山路二段37號","121.472976666667","25.0153566666667","6500100","板橋區"
"220019","283-VK","2017/07/29 13:29:42","新北市板橋區民生路二段36-1號","121.472556666667","25.01686","6500100","板橋區"
"220009","295-UM","2017/07/29 13:29:41","新北市板橋區民生路二段36-1號","121.472546666667","25.0168866666667","6500100","板橋區"
"220023","297-UM","2017/07/29 13:29:52","新北市板橋區華東街1-9號","121.44817","24.994965","6500100","板橋區"
"220104","560-BX","2017/07/29 13:29:47","新北市板橋區南雅南路二段98號","121.453481666667","25.0012683333333","6500100","板橋區"
"220011","609-BX","2017/07/29 13:29:48","新北市板橋區民生路二段15-1號","121.47267","25.016445","6500100","板橋區"
"220005","686-BX","2017/07/29 13:29:52","新北市板橋區民生路二段36-1號","121.472586666667","25.016595","6500100","板橋區"
"220025","687-BX","2017/07/29 13:29:33","新北市板橋區大觀路二段435-10號","121.445663333333","24.994185","6500100","板橋區"
"220002","741-BX","2017/07/29 13:29:37","新北市板橋區中山路二段89巷5弄12號","121.472695","25.01672","6500100","板橋區"
"220014","829-TW","2017/07/29 13:29:42","新北市板橋區民生路二段16號","121.472883333333","25.0164566666667","6500100","板橋區"
"220022","895-R6","2017/07/29 13:29:53","新北市板橋區南雅南路二段11-5號","121.453901666667","25.002265","6500100","板橋區"
