"lineid","car","time","location","longitude","latitude","cityid","cityname"
"234044","148-BY","2017/07/29 14:39:44","新北市永和區永利路121號","121.524103333333","25.0026533333333","6500400","永和區"
"234005","207-UY","2017/07/29 14:39:41","新北市永和區安樂路168號","121.51476","25.0007916666667","6500400","永和區"
"234078","298-R6","2017/07/29 14:39:51","新北市永和區永貞路76號","121.520253333333","25.005165","6500400","永和區"
"234062","337-UY","2017/07/29 14:39:44","台北市文山區溪洲街10-24號","121.533965","25.00807","6500400","永和區"
"234052","553-UM","2017/07/29 14:39:52","新北市永和區環河東路一段82號","121.519716666667","25.01644","6500400","永和區"
"234028","746-BX","2017/07/29 14:39:50","新北市新店區安康路二段320巷15弄18號","121.502366666667","24.9589616666667","6500400","永和區"
"234084","841-RS","2017/07/29 14:39:43","新北市永和區永和路二段310號","121.516176666667","25.0160933333333","6500400","永和區"
"234060","AAD-866","2017/07/29 14:39:36","新北市永和區秀朗路一段175號","121.51707","25.0036716666667","6500400","永和區"
"234048","863-TW","2017/07/29 14:39:43","新北市永和區保安路86號","121.509741666667","25.0161933333333","6500400","永和區"
"234025","9371-KE","2017/07/29 14:39:51","新北市永和區中和路501巷9號","121.510458333333","25.00274","6500400","永和區"
"234010","9373-KE","2017/07/29 14:39:46","新北市永和區仁愛路352巷122弄7號","121.50049","25.0088633333333","6500400","永和區"
"248013","025-BX","2017/07/29 14:39:38","新北市五股區五福路42巷37號","121.434948333333","25.0901033333333","6501500","五股區"
"248015","026-BX","2017/07/29 14:39:44","新北市五股區成泰路三段577巷37號","121.451135","25.1030283333333","6501500","五股區"
"248007","095-VK","2017/07/29 14:39:37","新北市五股區四維路171巷13號","121.467168333333","25.0752316666667","6501500","五股區"
"248011","247-BX","2017/07/29 14:13:48","新北市五股區中興路四段48巷19號","121.43857","25.0838183333333","6501500","五股區"
"248017","261-SL","2017/07/29 14:28:05","新北市五股區外寮路13-1號","121.424801666667","25.0812416666667","6501500","五股區"
"248009","272-BY","2017/07/29 14:39:50","新北市五股區登林路74-2號","121.430846666667","25.0693183333333","6501500","五股區"
"248001","655-BX","2017/07/29 14:39:46","新北市五股區成泰路三段369-1號","121.4488","25.0958016666667","6501500","五股區"
"248003","677-BX","2017/07/29 14:39:50","新北市五股區工商路114號","121.437081666667","25.0855516666667","6501500","五股區"
"234072","AAC-211","2017/07/29 14:39:40","新北市永和區環河東路一段122號","121.520683333333","25.0155466666667","6500400","永和區"
"234066","AAC-212","2017/07/29 14:39:51","新北市中和區保平路231號","121.507936666667","25.0044266666667","6500400","永和區"
"234001","AAC-295","2017/07/29 14:39:44","新北市永和區中正路620號","121.516926666667","25.0078166666667","6500400","永和區"
"231002","002-UM","2017/07/29 14:39:34","新北市新店區中正路470號","121.533873333333","24.9806566666667","6500600","新店區"
"231025","0291-UT","2017/07/29 14:39:52","新北市新店區民族路161號","121.537645","24.97675","6500600","新店區"
"231028","046-UY","2017/07/29 14:39:38","新北市新店區安德街56-1號","121.511076666667","24.9623366666667","6500600","新店區"
"231030","047-UY","2017/07/29 14:39:47","新北市新店區安民街235號","121.517195","24.9719083333333","6500600","新店區"
"231029","106-UY","2017/07/29 14:39:43","新北市新店區安康路三段246號","121.487713333333","24.9518","6500600","新店區"
"231012","108-UY","2017/07/29 14:39:48","新北市新店區寶宏路4號","121.54899","24.97682","6500600","新店區"
"231018","110-UY","2017/07/29 14:39:40","新北市新店區中央三街23號","121.528801666667","24.973875","6500600","新店區"
"231020","187-VK","2017/07/29 14:39:44","新北市新店區新烏路二段432號","121.551963333333","24.9088416666667","6500600","新店區"
"231007","189-VK","2017/07/29 10:29:05","新北市新店區小坑二路136號","121.512911666667","24.910215","6500600","新店區"
"231034","268-BY","2017/07/29 14:39:36","新北市新店區黎明路54巷2號","121.50229","24.9483","6500600","新店區"
"231017","AAD-862","2017/07/29 14:39:42","新北市新店區北宜路三段221號","121.592376666667","24.9532683333333","6500600","新店區"
"231027","3712-VJ","2017/07/29 14:39:45","新北市新店區寶橋路61號","121.54524","24.974945","6500600","新店區"
"231038","4715-K9","2017/07/29 14:39:36","新北市新店區安康路一段355-3號","121.519826666667","24.9626216666667","6500600","新店區"
"231036","512-UM","2017/07/29 14:39:39","新北市新店區安祥路106巷2號","121.478925","24.9621016666667","6500600","新店區"
"231023","513-UM","2017/07/29 14:39:47","新北市新店區檳榔路39號","121.542626666667","24.963495","6500600","新店區"
"231035","515-UM","2017/07/29 14:39:54","新北市新店區安德街39號","121.511515","24.962445","6500600","新店區"
"231006","617-UM","2017/07/29 14:39:34","新北市新店區北宜路二段82-12號","121.55466","24.9535083333333","6500600","新店區"
"231001","619-UM","2017/07/29 14:39:46","新北市新店區中正路35號","121.545005","24.9696133333333","6500600","新店區"
"231003","641-BX","2017/07/29 14:39:42","新北市新店區中正路2號","121.545938333333","24.969335","6500600","新店區"
"231013","719-UM","2017/07/29 14:39:45","新北市新店區明德路14號","121.542333333333","24.976815","6500600","新店區"
"231033","720-UM","2017/07/29 14:39:45","新北市新店區安泰路7巷16號","121.485608333333","24.9508583333333","6500600","新店區"
"231005","897-TW","2017/07/29 14:39:51","新北市新店區順安街59號","121.54075","24.9863383333333","6500600","新店區"
"231004","899-TW","2017/07/29 14:39:45","新北市新店區中正路263-2號","121.538448333333","24.9738033333333","6500600","新店區"
"231037","AKT-0513","2017/07/29 14:39:52","新北市新店區安德街148巷31號","121.50598","24.9604233333333","6500600","新店區"
"235030","003-UY","2017/07/29 14:39:34","新北市中和區景新街137號","121.506091666667","24.9970516666667","6500300","中和區"
"235028","005-UY","2017/07/29 14:39:39","新北市中和區南華路15號","121.502485","24.9956016666667","6500300","中和區"
"235027","006-UY","2017/07/29 14:39:47","新北市中和區連勝街157號","121.494346666667","24.996525","6500300","中和區"
"235020","096-UM","2017/07/29 14:39:45","新北市中和區員山路518號","121.478916666667","25.00956","6500300","中和區"
"235003","097-UM","2017/07/29 14:39:50","新北市中和區景平路73號","121.519048333333","24.9916","6500300","中和區"
"235029","098-UM","2017/07/29 14:39:39","新北市中和區莊敬路1-6號","121.49949","25.0043683333333","6500300","中和區"
"235004","150-BY","2017/07/29 14:39:41","新北市中和區宜安路23巷21號","121.512286666667","24.9951283333333","6500300","中和區"
"235022","151-BY","2017/07/29 14:39:56","新北市中和區連城路374巷13號","121.481431666667","24.9959633333333","6500300","中和區"
"235019","183-VK","2017/07/29 14:39:39","新北市中和區德光路27巷2號","121.47078","25.0039716666667","6500300","中和區"
"235002","185-VK","2017/07/29 14:39:42","新北市中和區立人街9號","121.521681666667","24.9940533333333","6500300","中和區"
"235013","186-VK","2017/07/29 14:39:36","新北市中和區安平路15號","121.509131666667","24.994125","6500300","中和區"
"235031","255-BX","2017/07/29 14:39:48","新北市中和區新生街186巷5弄17號","121.482896666667","24.9990983333333","6500300","中和區"
"235008","293-VK","2017/07/29 14:39:41","新北市中和區景安路198號","121.504233333333","24.991415","6500300","中和區"
"235036","301-VK","2017/07/29 14:39:38","新北市中和區泰和街38巷22號","121.498678333333","25.0010033333333","6500300","中和區"
"235007","352-BY","2017/07/29 14:39:54","新北市中和區景新街129號","121.505696666667","24.997335","6500300","中和區"
"235015","376-QA","2017/07/29 14:39:49","新北市中和區捷運路8號","121.509795","24.98957","6500300","中和區"
"235032","377-QA","2017/07/29 14:39:45","新北市中和區廟美街16號","121.500921666667","25.001765","6500300","中和區"
"235025","378-QA","2017/07/29 14:39:41","新北市中和區民安街15號","121.480628333333","25.0007483333333","6500300","中和區"
"235014","4979-A6","2017/07/29 14:39:54","新北市中和區圓通路257巷1號","121.496151666667","24.9934033333333","6500300","中和區"
"235006","551-UM","2017/07/29 14:39:48","新北市中和區保健路42-1號","121.509301666667","24.99727","6500300","中和區"
"235034","558-UM","2017/07/29 14:39:41","新北市中和區中和路26巷1號","121.499676666667","25.0015816666667","6500300","中和區"
"235009","565-BX","2017/07/29 14:39:53","新北市中和區景新街383巷28號","121.513528333333","24.9906033333333","6500300","中和區"
"235018","640-BX","2017/07/29 14:39:41","新北市中和區國光街112巷22弄11號","121.470063333333","25.0024116666667","6500300","中和區"
"235024","647-TV","2017/07/29 14:39:39","新北市中和區新生街114巷37弄12號","121.482196666667","25.001855","6500300","中和區"
"235011","732-UM","2017/07/29 14:39:55","新北市中和區景平路329巷2弄12號","121.505265","24.9929666666667","6500300","中和區"
"235010","733-UM","2017/07/29 14:39:43","新北市中和區忠孝街88號","121.511605","24.9843816666667","6500300","中和區"
"235026","800-TS","2017/07/29 14:39:52","新北市中和區永和路103巷21號","121.494843333333","25.006805","6500300","中和區"
"235021","801-TS","2017/07/29 14:39:42","新北市中和區中山路三段13號","121.479665","25.00597","6500300","中和區"
"235005","802-TS","2017/07/29 14:39:52","新北市中和區中和路232號","121.50669","24.9996016666667","6500300","中和區"
"235016","805-TS","2017/07/29 14:39:46","新北市中和區華新街206巷21弄4號","121.505865","24.9827466666667","6500300","中和區"
"235012","896-TW","2017/07/29 14:39:52","新北市中和區忠孝街129號","121.512651666667","24.9880516666667","6500300","中和區"
"235017","900-TW","2017/07/29 14:39:42","新北市中和區民德路197-1號","121.468416666667","24.99896","6500300","中和區"
"235001","AAC-213","2017/07/29 14:39:47","新北市中和區秀朗路三段10巷14弄32號","121.524718333333","24.9965666666667","6500300","中和區"
"235023","AAC-215","2017/07/29 14:39:55","新北市中和區圓通路305巷7弄1號","121.493626666667","24.9900433333333","6500300","中和區"
"220016","013-TV","2017/07/29 14:39:51","新北市板橋區中山路二段412巷12號","121.483301666667","25.0202716666667","6500100","板橋區"
"220013","072-UY","2017/07/29 14:39:43","新北市板橋區實踐路93巷43弄1號","121.465815","25.0052883333333","6500100","板橋區"
"220034","073-UY","2017/07/29 14:39:32","新北市板橋區南雅西路二段293號","121.4521","25.0155216666667","6500100","板橋區"
"220105","075-UY","2017/07/29 14:39:51","新北市板橋區雙十路27號","121.470491666667","25.0313133333333","6500100","板橋區"
"220017","AAD-861","2017/07/29 14:39:54","新北市板橋區貴興路37號","121.457551666667","25.0037766666667","6500100","板橋區"
"247019","893-R6","2017/07/29 14:39:48","新北市蘆洲區民權路139號","121.471441666667","25.0906683333333","6501400","蘆洲區"
"247009","546-UM","2017/07/29 14:39:40","新北市蘆洲區信義路222巷36號","121.480865","25.0854533333333","6501400","蘆洲區"
"247017","500-BY","2017/07/29 14:39:38","新北市蘆洲區復興路181號","121.47895","25.08939","6501400","蘆洲區"
"247005","341-TH","2017/07/29 14:39:49","新北市蘆洲區長安街68巷19號","121.463408333333","25.0807783333333","6501400","蘆洲區"
"247007","339-TH","2017/07/29 14:39:38","新北市蘆洲區成功路52號","121.473011666667","25.0798233333333","6501400","蘆洲區"
"247023","337-TH","2017/07/29 14:39:38","新北市蘆洲區和平路94號","121.468903333333","25.079285","6501400","蘆洲區"
"247001","336-TH","2017/07/29 14:39:42","新北市蘆洲區永樂街38巷45弄9號","121.457851666667","25.089925","6501400","蘆洲區"
"247014","057-VK","2017/07/29 14:39:36","新北市蘆洲區成功路160號","121.47164","25.0834133333333","6501400","蘆洲區"
"247003","056-VK","2017/07/29 14:39:50","新北市蘆洲區長安街220巷23號","121.459653333333","25.0852283333333","6501400","蘆洲區"
"247011","007-UY","2017/07/29 14:39:34","新北市蘆洲區集賢路224巷37弄10-1號","121.480583333333","25.0880866666667","6501400","蘆洲區"
"247015","001-UY","2017/07/29 14:39:35","新北市蘆洲區正和街60號","121.468841666667","25.081495","6501400","蘆洲區"
"228005","097-TW","2017/07/29 14:39:39","新北市貢寮區美豐里雞母嶺街6-6號","121.902016666667","25.0642366666667","6502600","貢寮區"
"228004","212-TW","2017/07/29 14:39:53","新北市貢寮區福隆里龜壽谷街30號","121.946941666667","25.0131766666667","6502600","貢寮區"
"208004","AAC-292","2017/07/29 14:39:39","新北市金山區兩湖里倒照湖43號","121.589858333333","25.2352733333333","6502700","金山區"
"207002","749-BX","2017/07/29 14:39:41","新北市萬里區崁腳里崁腳路73號","121.647588333333","25.1595866666667","6502800","萬里區"
"252005","073-UM","2017/07/29 14:39:04","新北市三芝區茂長里陳厝坑61-4號","121.513453333333","25.2550183333333","6502100","三芝區"
"207001","662-BX","2017/07/29 14:37:02","新北市萬里區雙興里豐稟路21-1號","121.640588333333","25.1846766666667","6502800","萬里區"
"236068","105-UM","2017/07/29 14:39:43","新北市土城區永豐路302-1號","121.471743333333","24.9776466666667","6501300","土城區"
"236041","107-UM","2017/07/29 14:39:37","新北市土城區學成路108巷3號","121.450003333333","24.9894783333333","6501300","土城區"
"236075","166-UM","2017/07/29 14:39:35","新北市土城區頂埔街13號","121.416605","24.9583866666667","6501300","土城區"
"236029","253-BX","2017/07/29 14:39:53","新北市土城區中華路二段126號","121.437781666667","24.9736433333333","6501300","土城區"
"236025","269-VK","2017/07/29 14:39:40","新北市土城區忠義路47號","121.440506666667","24.96935","6501300","土城區"
"236013","270-VK","2017/07/29 14:39:41","新北市土城區清水路200號","121.460443333333","24.98189","6501300","土城區"
"236035","271-VK","2017/07/29 14:39:43","新北市土城區青山路12號","121.462293333333","24.9758116666667","6501300","土城區"
"236017","401-BY","2017/07/29 14:39:36","新北市土城區永豐路10號","121.465675","24.9846566666667","6501300","土城區"
"236057","912-UM","2017/07/29 14:39:48","新北市土城區中央路四段232號","121.415436666667","24.9571483333333","6501300","土城區"
"236045","913-UM","2017/07/29 14:39:51","新北市土城區青雲路72號","121.459511666667","24.9870666666667","6501300","土城區"
"236061","915-UM","2017/07/29 14:39:37","新北市土城區延和路125巷31號","121.469131666667","24.9911916666667","6501300","土城區"
"236054","AAC-216","2017/07/29 14:39:42","新北市土城區中華路一段27號","121.446395","24.9890783333333","6501300","土城區"
"220027","145-BY","2017/07/29 14:39:54","新北市板橋區建國街5號","121.457226666667","25.0168883333333","6500100","板橋區"
"220038","146-RM","2017/07/29 14:39:51","新北市板橋區文化路一段45巷11號","121.460146666667","25.0140166666667","6500100","板橋區"
"220028","200-UY","2017/07/29 14:39:50","新北市板橋區大觀路二段37巷180號","121.449546666667","25.0021733333333","6500100","板橋區"
"220030","610-BX","2017/07/29 14:39:52","新北市板橋區金門街273號","121.431448333333","24.9883933333333","6500100","板橋區"
"220050","245-BX","2017/07/29 14:39:46","新北市板橋區莊敬路220巷29弄9號","121.472628333333","25.0202866666667","6500100","板橋區"
"220004","276-BY","2017/07/29 14:39:43","新北市板橋區四川路二段47巷1弄1號","121.454058333333","24.9950083333333","6500100","板橋區"
"220043","283-UM","2017/07/29 14:39:52","新北市板橋區長江路二段248號","121.469058333333","25.0323983333333","6500100","板橋區"
"220019","283-VK","2017/07/29 14:39:42","新北市板橋區忠孝路2號","121.459438333333","25.0015866666667","6500100","板橋區"
"220001","285-VK","2017/07/29 14:39:44","新北市板橋區懷仁街93號","121.477566666667","25.018105","6500100","板橋區"
"220031","286-VK","2017/07/29 14:39:51","新北市板橋區龍興街71巷9號","121.443341666667","25.0019783333333","6500100","板橋區"
"220029","287-VK","2017/07/29 14:39:45","新北市板橋區大觀路一段75巷2號","121.44739","25.00446","6500100","板橋區"
"220039","288-VK","2017/07/29 14:39:41","新北市板橋區長江路一段48巷4弄1-3號","121.459073333333","25.0285216666667","6500100","板橋區"
"220009","295-UM","2017/07/29 14:39:41","新北市板橋區漢生東路113巷20號","121.4681","25.0154833333333","6500100","板橋區"
"220032","296-UM","2017/07/29 14:39:40","新北市板橋區滿平街84巷100弄3號","121.426313333333","24.98648","6500100","板橋區"
"220023","297-UM","2017/07/29 14:39:52","新北市板橋區中正路275巷50號","121.453636666667","25.018215","6500100","板橋區"
"220010","305-R5","2017/07/29 14:39:52","新北市板橋區三民路二段79號","121.479456666667","25.01671","6500100","板橋區"
"220041","307-R5","2017/07/29 14:39:42","新北市板橋區文化路一段387巷18號","121.466308333333","25.0221783333333","6500100","板橋區"
"220047","317-R6","2017/07/29 14:39:32","新北市板橋區四維路341號","121.462491666667","25.0297033333333","6500100","板橋區"
"220012","486-VK","2017/07/29 14:39:40","新北市板橋區民權路33號","121.462291666667","25.011055","6500100","板橋區"
"220037","491-VK","2017/07/29 14:39:35","新北市板橋區雙十路一段22號","121.477813333333","25.0242633333333","6500100","板橋區"
"220104","560-BX","2017/07/29 14:39:47","新北市板橋區新生街89巷6號","121.458055","25.0222633333333","6500100","板橋區"
"220052","561-BX","2017/07/29 14:39:38","新北市板橋區文化路一段286巷10-2號","121.468005","25.0214116666667","6500100","板橋區"
"220011","609-BX","2017/07/29 14:39:48","新北市板橋區林森街3巷2弄5號","121.482526666667","25.0235483333333","6500100","板橋區"
"220040","637-BX","2017/07/29 14:39:45","新北市板橋區懷德街201巷12號","121.48125","25.0294916666667","6500100","板橋區"
"220005","686-BX","2017/07/29 14:39:52","新北市板橋區和平路61號","121.461188333333","24.9945916666667","6500100","板橋區"
"220025","687-BX","2017/07/29 14:39:54","新北市板橋區僑中二街104巷3號","121.445746666667","25.00775","6500100","板橋區"
"220042","689-BX","2017/07/29 14:39:38","新北市板橋區新海路387號","121.458886666667","25.0261816666667","6500100","板橋區"
"220002","741-BX","2017/07/29 14:39:37","新北市板橋區忠孝路239巷59號","121.467896666667","25.0042666666667","6500100","板橋區"
"220003","827-TW","2017/07/29 14:39:40","新北市板橋區國慶路149巷1弄2號","121.461235","24.996585","6500100","板橋區"
"220014","829-TW","2017/07/29 14:39:42","新北市板橋區長安街138巷1弄37號","121.473903333333","25.010155","6500100","板橋區"
"220051","830-TW","2017/07/29 14:39:37","新北市板橋區雙十路二段46巷19號","121.476185","25.0282883333333","6500100","板橋區"
"220045","831-TW","2017/07/29 14:39:49","新北市板橋區莊敬路168號","121.471745","25.0224633333333","6500100","板橋區"
"220022","895-R6","2017/07/29 14:39:33","新北市板橋區北門街5號","121.457633333333","25.0104983333333","6500100","板橋區"
"220021","985-R7","2017/07/29 14:39:45","新北市板橋區瑞安街22號","121.45514","25.023065","6500100","板橋區"
"220046","AAC-210","2017/07/29 14:39:47","新北市板橋區漢生西路151巷1號","121.463048333333","25.022165","6500100","板橋區"
"220018","AAC-253","2017/07/29 14:39:40","新北市板橋區四川路一段16號","121.459475","25.00651","6500100","板橋區"
