"lineid","car","time","location","longitude","latitude","cityid","cityname"
"231018","188-VK","2017/07/29 16:29:50","新北市新店區中正路678號","121.53414","24.9898533333333","6500600","新店區"
"231007","189-VK","2017/07/29 10:29:05","新北市新店區小坑二路136號","121.512911666667","24.910215","6500600","新店區"
"231034","268-BY","2017/07/29 16:29:36","新北市新店區薏仁坑路自強巷6號","121.496445","24.9582083333333","6500600","新店區"
"235036","301-VK","2017/07/29 16:29:37","新北市中和區員山路36巷12號","121.483936666667","24.990955","6500300","中和區"
"235034","558-UM","2017/07/29 16:29:41","新北市五股區中直路11-15號","121.425861666667","25.1099583333333","6500300","中和區"
"235026","800-TS","2017/07/29 16:29:52","新北市五股區五工一路112號","121.456195","25.0712033333333","6500300","中和區"
"247005","341-TH","2017/07/29 15:49:17","新北市五股區中興路三段2巷10號","121.448648333333","25.0814216666667","6501400","蘆洲區"
"247008","339-TH","2017/07/29 16:05:08","新北市五股區中興路三段2巷10號","121.44886","25.0812683333333","6501400","蘆洲區"
"224006","676-BX","2017/07/29 16:21:39","新北市瑞芳區明燈路二段66號","121.809291666667","25.1075233333333","6501200","瑞芳區"
"224007","273-VK","2017/07/29 16:29:50","新北市瑞芳區中央路14號","121.76195","25.10363","6501200","瑞芳區"
"224005","271-BY","2017/07/29 16:29:50","新北市瑞芳區瑞濱路57號","121.82375","25.12082","6501200","瑞芳區"
"227010","642-TC","2017/07/29 16:29:53","新北市雙溪區三港里雙澳路35-1號","121.868295","25.0497983333333","6502500","雙溪區"
"227002","400-TW","2017/07/29 16:29:38","新北市雙溪區上林里內平林120-2號","121.824458333333","25.026235","6502500","雙溪區"
"220018","AAC-253","2017/07/29 16:29:40","新北市板橋區民生路二段36-1號","121.472605","25.0165933333333","6500100","板橋區"
