"lineid","car","time","location","longitude","latitude","cityid","cityname"
"231007","189-VK","2017/07/29 10:29:05","新北市新店區小坑二路136號","121.512911666667","24.910215","6500600","新店區"
"235026","800-TS","2017/07/29 16:48:08","新北市中和區員山路36巷16-3號","121.484788333333","24.9916116666667","6500300","中和區"
"247008","339-TH","2017/07/29 16:05:08","新北市五股區中興路三段2巷10號","121.44886","25.0812683333333","6501400","蘆洲區"
"228003","097-TW","2017/07/29 19:49:42","新北市貢寮區真理里延平街72-5號","121.925106666667","25.0584283333333","6502600","貢寮區"
"224010","AGQ-8101","2017/07/29 19:49:53","新北市瑞芳區輕便路202號","121.845138333333","25.11038","6501200","瑞芳區"
"224006","676-BX","2017/07/29 19:49:50","新北市瑞芳區大寮路356-1號","121.784675","25.10315","6501200","瑞芳區"
"224002","639-TC","2017/07/29 19:49:50","新北市瑞芳區民享新村21號","121.817015","25.1057416666667","6501200","瑞芳區"
"224011","420-VK","2017/07/29 19:49:51","新北市瑞芳區汽車路13-1號","121.845693333333","25.1108866666667","6501200","瑞芳區"
