"lineid","car","time","location","longitude","latitude","cityid","cityname"
"248005","653-BX","2017/06/29 09:39:43","新北市五股區成泰路一段7巷13號","121.432616666667","25.0669816666667","6501500","五股區"
"244012","069-UM","2017/06/29 09:39:52","新北市林口區麗園二街1巷7-3號","121.378256666667","25.0704016666667","6501700","林口區"
"244008","410-SL","2017/06/29 09:39:29","新北市林口區台電新村5號","121.388001666667","25.086215","6501700","林口區"
"244022","483-VK","2017/06/29 09:39:44","新北市林口區民權路24號","121.371626666667","25.0804983333333","6501700","林口區"
"222006","289-BY","2017/06/29 09:39:41","新北市深坑區昇高坑路42巷1-1號","121.627195","24.999055","6501800","深坑區"
"231008","188-VK","2017/06/29 09:39:50","新北市新店區平廣路一段125-1號","121.526703333333","24.8937","6500600","新店區"
"235043","352-BY","2017/06/29 09:39:40","新北市新店區安康路一段258-2號","121.520355","24.9657333333333","6500300","中和區"
"247002","402-BY","2017/06/29 09:39:38","新北市蘆洲區信義路329號","121.4782","25.08669","6501400","蘆洲區"
"223002","198-BX","2017/06/29 09:00:30","新北市石碇區烏塗窟1號","121.656281666667","24.9756983333333","6501900","石碇區"
"223008","406-TH","2017/06/29 09:39:40","新北市石碇區光明路22號","121.694615","25.02601","6501900","石碇區"
"223004","660-BX","2017/06/29 09:39:39","新北市石碇區小粗坑(潭邊里)1-6號","121.672408333333","24.9827616666667","6501900","石碇區"
"223007","661-BX","2017/06/29 09:33:51","新北市石碇區光明路耳空龜巷10-2號","121.690991666667","25.037985","6501900","石碇區"
"223005","677-TV","2017/06/29 09:39:42","新北市石碇區小粗坑(潭邊里)1-6號","121.67236","24.9827633333333","6501900","石碇區"
"253003","6232-TK","2017/06/29 09:39:34","新北市石門區尖子鹿47-2號","121.580648333333","25.2693666666667","6502200","石門區"
"253001","6251-TK","2017/06/29 09:39:48","新北市石門區八甲40號","121.531998333333","25.2689816666667","6502200","石門區"
"253002","637-UY","2017/06/29 09:29:51","新北市三芝區橫山里橫山39-9號","121.545268333333","25.2552633333333","6502200","石門區"
"253004","8270-PC","2017/06/29 09:39:33","新北市石門區阿里磅90號","121.58956","25.2598516666667","6502200","石門區"
"207002","749-BX","2017/06/29 09:39:51","基隆市安樂區基金一路346號","121.706026666667","25.1419783333333","6502800","萬里區"
"252004","249-BX","2017/06/29 09:39:10","新北市三芝區圓山里石曹子坑64-28號","121.524435","25.2108033333333","6502100","三芝區"
"252007","AAC-283","2017/06/29 01:03:22","新北市三芝區埔坪里埔頭坑41號","121.504511666667","25.2644333333333","6502100","三芝區"
"237001","159-UY","2017/06/29 09:39:37","新北市三峽區大觀路303號","121.373498333333","24.9469316666667","6500900","三峽區"
"236009","165-UM","2017/06/29 09:39:40","新北市土城區中央路四段10號","121.421503333333","24.9612316666667","6501300","土城區"
"236005","498-BY","2017/06/29 09:39:34","新北市土城區忠承路43號","121.4408","24.9663166666667","6501300","土城區"
"242020","AAC-296","2017/06/29 09:39:42","新北市新莊區中華路一段73號","121.452175","25.0400833333333","6500500","新莊區"
"242047","751-BX","2017/06/29 09:39:38","新北市新莊區中正路657號","121.428876666667","25.0307766666667","6500500","新莊區"
"242059","705-TV","2017/06/29 09:39:38","新北市新莊區新樹路246號","121.432791666667","25.0183916666667","6500500","新莊區"
"242022","613-BX","2017/06/29 09:39:39","新北市新莊區立信一街35號","121.44203","25.0491833333333","6500500","新莊區"
"242035","566-BX","2017/06/29 09:39:49","新北市新莊區建安街37號","121.428826666667","25.0257616666667","6500500","新莊區"
"242003","442-UM","2017/06/29 09:39:48","新北市新莊區化成路746巷41號","121.466781666667","25.05827","6500500","新莊區"
"242030","415-TV","2017/06/29 09:39:43","新北市新莊區三和路13-25號","121.44039","25.0368716666667","6500500","新莊區"
"242001","413-TV","2017/06/29 09:39:36","新北市新莊區瓊林路7-3號","121.449788333333","25.031825","6500500","新莊區"
"242057","353-BY","2017/06/29 09:39:41","新北市新莊區四維路12號","121.4237","25.0245433333333","6500500","新莊區"
"242043","172-VK","2017/06/29 09:39:32","新北市新莊區龍安路90號","121.417586666667","25.02084","6500500","新莊區"
"242055","176-VK","2017/06/29 09:39:42","新北市新莊區新莊路649巷26弄33號","121.444415","25.0320233333333","6500500","新莊區"
