"lineid","car","time","location","longitude","latitude","cityid","cityname"
"222006","289-BY","2017/06/29 10:09:41","新北市深坑區大崙尾1-1號","121.615663333333","24.9751533333333","6501800","深坑區"
"231008","188-VK","2017/06/29 10:19:30","新北市新店區平廣路一段9號","121.537855","24.90758","6500600","新店區"
"247002","402-BY","2017/06/29 10:19:38","新北市五股區中興路三段198號","121.441225","25.0819833333333","6501400","蘆洲區"
"253003","6232-TK","2017/06/29 10:19:34","新北市石門區小坑9號","121.594481666667","25.2892","6502200","石門區"
"253001","6251-TK","2017/06/29 10:18:08","新北市石門區崁子腳80號","121.531293333333","25.2781783333333","6502200","石門區"
"253002","637-UY","2017/06/29 10:19:32","新北市石門區崁子腳28-2號","121.540095","25.2889133333333","6502200","石門區"
"253004","8270-PC","2017/06/29 10:19:33","新北市石門區茂林社區86-1號","121.592768333333","25.2693283333333","6502200","石門區"
"252007","AAC-283","2017/06/29 01:03:22","新北市三芝區埔坪里埔頭坑41號","121.504511666667","25.2644333333333","6502100","三芝區"
"237001","159-UY","2017/06/29 10:19:37","新北市三峽區大德路182號","121.376035","24.9451066666667","6500900","三峽區"
