"lineid","car","time","location","longitude","latitude","cityid","cityname"
"244019","403-UM","2017/06/29 11:03:15","新北市林口區粉寮69號","121.405116666667","25.09078","6501700","林口區"
"222006","289-BY","2017/06/29 11:18:28","新北市深坑區深坑街75號","121.614641666667","25.0013016666667","6501800","深坑區"
"231008","188-VK","2017/06/29 11:11:50","新北市新店區成功路80巷1號","121.538591666667","24.8954716666667","6500600","新店區"
"247002","402-BY","2017/06/29 10:39:01","新北市五股區中興路三段3-6號","121.449796666667","25.0786883333333","6501400","蘆洲區"
"252007","AAC-283","2017/06/29 01:03:22","新北市三芝區埔坪里埔頭坑41號","121.504511666667","25.2644333333333","6502100","三芝區"
