"lineid","car","time","location","longitude","latitude","cityid","cityname"
"234040","862-TW","2017/06/29 12:09:45","新北市永和區福和路1號","121.5263","25.0096316666667","6500400","永和區"
"244019","403-UM","2017/06/29 11:03:15","新北市林口區粉寮69號","121.405116666667","25.09078","6501700","林口區"
"243007","380-SR","2017/06/29 12:08:42","新北市泰山區犁頭窠12鄰3號","121.422741666667","25.0603416666667","6501600","泰山區"
"222006","289-BY","2017/06/29 11:18:28","新北市深坑區深坑街75號","121.614641666667","25.0013016666667","6501800","深坑區"
"231008","188-VK","2017/06/29 11:39:50","新北市新店區成功路91-1號","121.537683333333","24.8951833333333","6500600","新店區"
"231007","189-VK","2017/06/29 12:08:33","新北市新店區安華路28-1號","121.519586666667","24.961205","6500600","新店區"
"235031","255-BX","2017/06/29 12:09:47","新北市中和區和城路一段271巷1號","121.485485","24.991915","6500300","中和區"
"247002","402-BY","2017/06/29 10:39:01","新北市五股區中興路三段3-6號","121.449796666667","25.0786883333333","6501400","蘆洲區"
"228005","097-TW","2017/06/29 12:09:34","新北市貢寮區福隆里東興街10-6號","121.95121","25.019415","6502600","貢寮區"
"228004","212-TW","2017/06/29 12:09:46","新北市貢寮區貢寮里貢寮街2-1號","121.907805","25.0188633333333","6502600","貢寮區"
"207002","749-BX","2017/06/29 12:09:44","新北市萬里區崁腳里內中福路1-1號","121.670851666667","25.1655116666667","6502800","萬里區"
"252007","AAC-283","2017/06/29 01:03:22","新北市三芝區埔坪里埔頭坑41號","121.504511666667","25.2644333333333","6502100","三芝區"
"221010","276-VK","2017/06/29 12:09:44","新北市汐止區康寧街901號","121.651041666667","25.075125","6501100","汐止區"
