"lineid","car","time","location","longitude","latitude","cityid","cityname"
"234044","148-BY","2017/06/29 12:49:39","新北市永和區永元路52巷52號","121.52452","25.000605","6500400","永和區"
"234012","149-BY","2017/06/29 12:49:46","新北市永和區保福路二段118號","121.509875","25.0139133333333","6500400","永和區"
"234005","207-UY","2017/06/29 12:49:44","新北市永和區環河東路一段124號","121.52084","25.015485","6500400","永和區"
"234078","298-R6","2017/06/29 12:49:39","新北市永和區永利路146號","121.52231","25.0027483333333","6500400","永和區"
"234036","336-UY","2017/06/29 12:49:42","新北市永和區成功路二段152-2號","121.526525","24.99659","6500400","永和區"
"234062","337-UY","2017/06/29 12:49:36","新北市永和區福和路8巷1號","121.525016666667","25.0090483333333","6500400","永和區"
"234084","338-UY","2017/06/29 12:49:33","新北市永和區中正路63號","121.514858333333","24.9965166666667","6500400","永和區"
"234068","552-UM","2017/06/29 12:49:39","新北市永和區竹林路161號","121.520521666667","25.0102016666667","6500400","永和區"
"234052","553-UM","2017/06/29 12:49:42","新北市永和區竹林路66巷2號","121.518225","25.013395","6500400","永和區"
"234015","745-BX","2017/06/29 12:49:37","新北市永和區永和路二段393號","121.515775","25.0167216666667","6500400","永和區"
"234028","746-BX","2017/06/29 12:49:50","新北市永和區得和路328號","121.523321666667","24.99954","6500400","永和區"
"234060","AAD-866","2017/06/29 12:49:47","新北市永和區福和路297號","121.516533333333","25.00719","6500400","永和區"
"234040","862-TW","2017/06/29 12:49:45","新北市永和區永貞路306號","121.511853333333","25.00482","6500400","永和區"
"234048","863-TW","2017/06/29 12:49:39","新北市永和區保安路6號","121.510475","25.0177666666667","6500400","永和區"
"234025","9371-KE","2017/06/29 12:49:38","新北市永和區永平路12巷14號","121.51388","25.0093816666667","6500400","永和區"
"234010","9373-KE","2017/06/29 12:49:39","新北市永和區保福路二段156號","121.50915","25.0149966666667","6500400","永和區"
"248013","025-BX","2017/06/29 12:49:40","新北市五股區中興路二段83巷26-3號","121.459928333333","25.075385","6501500","五股區"
"248005","077-UY","2017/06/29 12:49:41","新北市五股區中興路二段37巷28號","121.460246666667","25.0749233333333","6501500","五股區"
"248007","095-VK","2017/06/29 12:49:40","新北市五股區中興路二段83巷26-6號","121.46009","25.07504","6501500","五股區"
"248017","225-UY","2017/06/29 12:49:44","新北市五股區中興路二段83巷26-6號","121.459998333333","25.075285","6501500","五股區"
"248015","261-SL","2017/06/29 12:49:35","新北市五股區中興路二段83巷26-6號","121.460056666667","25.0752316666667","6501500","五股區"
"248009","272-BY","2017/06/29 02:56:06","新北市五股區中興路二段37巷28號","121.460236666667","25.07508","6501500","五股區"
"234022","9380-KE","2017/06/29 12:49:52","新北市永和區竹林路119巷28-3號","121.521833333333","25.0118116666667","6500400","永和區"
"234076","969-R7","2017/06/29 12:49:41","新北市中和區安樂路63號","121.512365","24.9937066666667","6500400","永和區"
"234072","AAC-211","2017/06/29 12:49:45","新北市永和區福和路1號","121.52648","25.0096866666667","6500400","永和區"
"234066","AAC-212","2017/06/29 12:49:36","新北市永和區永和路一段22號","121.51302","25.00479","6500400","永和區"
"234001","AAC-295","2017/06/29 12:47:35","新北市永和區中正路610號","121.517111666667","25.0072316666667","6500400","永和區"
"244003","248-BX","2017/06/29 12:49:24","新北市林口區粉寮69號","121.405115","25.0907966666667","6501700","林口區"
"244019","403-UM","2017/06/29 11:03:15","新北市林口區粉寮69號","121.405116666667","25.09078","6501700","林口區"
"243001","297-R6","2017/06/29 12:38:17","新北市泰山區黎明路31號","121.421653333333","25.060705","6501600","泰山區"
"243007","380-SR","2017/06/29 12:08:42","新北市泰山區犁頭窠12鄰3號","121.422741666667","25.0603416666667","6501600","泰山區"
"222006","289-BY","2017/06/29 11:18:28","新北市深坑區深坑街75號","121.614641666667","25.0013016666667","6501800","深坑區"
"231002","002-UM","2017/06/29 12:49:40","新北市新店區安華路28-1號","121.51952","24.9608316666667","6500600","新店區"
"231028","046-UY","2017/06/29 12:49:42","新北市新店區安華路28-1號","121.51957","24.960735","6500600","新店區"
"231030","047-UY","2017/06/29 12:49:46","新北市新店區安華路28-1號","121.519313333333","24.9608916666667","6500600","新店區"
"231018","107-UY","2017/06/29 12:49:49","新北市新店區安華路28-1號","121.519493333333","24.9612483333333","6500600","新店區"
"231011","108-UY","2017/06/29 12:49:39","新北市新店區安華路28-1號","121.519513333333","24.9611816666667","6500600","新店區"
"231017","187-VK","2017/06/29 12:49:47","新北市新店區安華路28-1號","121.519468333333","24.9613216666667","6500600","新店區"
"231007","189-VK","2017/06/29 12:08:33","新北市新店區安華路28-1號","121.519586666667","24.961205","6500600","新店區"
"231010","278-BY","2017/06/29 12:40:28","新北市新店區安華路28-1號","121.51931","24.9612333333333","6500600","新店區"
"231017","AAD-862","2017/06/29 12:49:44","新北市新店區安華路28-1號","121.51963","24.961275","6500600","新店區"
"231036","512-UM","2017/06/29 12:49:38","新北市新店區安康路一段355-3號","121.519416666667","24.96156","6500600","新店區"
"231023","513-UM","2017/06/29 12:49:50","新北市新店區安華路28-1號","121.519556666667","24.9611133333333","6500600","新店區"
"231006","617-UM","2017/06/29 12:49:38","新北市新店區安華路28-1號","121.519373333333","24.9608416666667","6500600","新店區"
"231001","619-UM","2017/06/29 12:49:30","新北市新店區安華路28-1號","121.519458333333","24.9608366666667","6500600","新店區"
"231034","645-TV","2017/06/29 12:49:34","新北市新店區安華路28-1號","121.519513333333","24.9607316666667","6500600","新店區"
"231013","719-UM","2017/06/29 12:49:45","新北市新店區安華路28-1號","121.519525","24.9612833333333","6500600","新店區"
"231031","720-UM","2017/06/29 12:49:45","新北市新店區安華路28-1號","121.519355","24.9612583333333","6500600","新店區"
"231005","897-TW","2017/06/29 12:49:35","新北市新店區安華路28-1號","121.519466666667","24.9607966666667","6500600","新店區"
"231037","AKT-0513","2017/06/29 12:49:48","新北市新店區安華路1-1號","121.519405","24.9605366666667","6500600","新店區"
"235028","005-UY","2017/06/29 12:49:42","新北市中和區員山路36巷16-2號","121.485168333333","24.99146","6500300","中和區"
"235022","151-BY","2017/06/29 12:49:45","新北市中和區員山路36巷16-2號","121.485218333333","24.991605","6500300","中和區"
"235019","183-VK","2017/06/29 12:49:32","新北市中和區員山路36巷16-2號","121.485216666667","24.9914966666667","6500300","中和區"
"235002","185-VK","2017/06/29 12:49:40","新北市中和區中正路637巷52弄1號","121.485466666667","24.9934266666667","6500300","中和區"
"235031","255-BX","2017/06/29 12:49:47","新北市中和區中正路1155號","121.481881666667","25.00823","6500300","中和區"
"235032","377-QA","2017/06/29 12:49:49","新北市中和區員山路36巷16-3號","121.485143333333","24.991225","6500300","中和區"
"235025","378-QA","2017/06/29 12:29:11","新北市中和區員山路36巷16-6號","121.485086666667","24.9921766666667","6500300","中和區"
"220013","072-UY","2017/06/29 12:49:29","新北市板橋區民生路二段36-1號","121.472496666667","25.0167933333333","6500100","板橋區"
"247002","402-BY","2017/06/29 10:39:01","新北市五股區中興路三段3-6號","121.449796666667","25.0786883333333","6501400","蘆洲區"
"228005","097-TW","2017/06/29 12:49:34","新北市貢寮區福連里福連街34-1號","121.988666666667","25.0112083333333","6502600","貢寮區"
"228004","212-TW","2017/06/29 12:49:46","新北市貢寮區吉林里內寮街20號","121.889721666667","24.9943716666667","6502600","貢寮區"
"208004","AAC-292","2017/06/29 12:49:45","新北市金山區磺清路135號","121.639305","25.2275683333333","6502700","金山區"
"207002","749-BX","2017/06/29 12:48:44","新北市萬里區雙興里二坪路6號","121.651343333333","25.174165","6502800","萬里區"
"207001","463-BY","2017/06/29 12:49:30","新北市萬里區萬里里瑪鋉頂街34-2號","121.689716666667","25.1794383333333","6502800","萬里區"
"252005","702-TV","2017/06/29 12:49:37","新北市三芝區育英街25號","121.50122","25.2580133333333","6502100","三芝區"
"252007","AAC-283","2017/06/29 01:03:22","新北市三芝區埔坪里埔頭坑41號","121.504511666667","25.2644333333333","6502100","三芝區"
"236005","498-BY","2017/06/29 12:49:38","新北市土城區永寧路32巷1號","121.429166666667","24.96022","6501300","土城區"
"221010","276-VK","2017/06/29 12:49:44","新北市汐止區民生街12號","121.660111666667","25.0690666666667","6501100","汐止區"
"221032","280-BY","2017/06/29 12:49:33","新北市汐止區汐萬路一段37號","121.65555","25.0682516666667","6501100","汐止區"
