"lineid","car","time","location","longitude","latitude","cityid","cityname"
"234044","148-BY","2017/06/29 13:39:37","新北市永和區秀朗路二段181巷8號","121.526161666667","25.0014066666667","6500400","永和區"
"234012","149-BY","2017/06/29 13:39:26","新北市永和區永平路238巷1弄1號","121.508876666667","25.0111766666667","6500400","永和區"
"234005","207-UY","2017/06/29 13:39:44","新北市永和區中山路一段144號","121.509938333333","25.0095666666667","6500400","永和區"
"234078","298-R6","2017/06/29 13:39:39","新北市永和區國中路104巷8弄7號","121.525123333333","25.0068266666667","6500400","永和區"
"234036","336-UY","2017/06/29 13:39:42","新北市永和區民樂街39巷18弄2號","121.528511666667","24.9995566666667","6500400","永和區"
"234062","337-UY","2017/06/29 13:39:35","新北市永和區秀朗路一段192巷6弄10號","121.519108333333","25.00234","6500400","永和區"
"234084","338-UY","2017/06/29 13:39:32","新北市永和區林森路65號","121.524146666667","25.0041583333333","6500400","永和區"
"234068","552-UM","2017/06/29 13:39:39","新北市永和區永和路二段234號","121.515795","25.0145783333333","6500400","永和區"
"234052","553-UM","2017/06/29 13:39:42","新北市永和區竹林路39巷26號","121.519056666667","25.0147733333333","6500400","永和區"
"234015","745-BX","2017/06/29 13:39:37","新北市永和區永和路二段299號","121.516005","25.0161283333333","6500400","永和區"
"234028","746-BX","2017/06/29 13:39:30","新北市永和區民生路35號","121.522765","24.9981666666667","6500400","永和區"
"234060","AAD-866","2017/06/29 13:39:28","新北市永和區永貞路230號","121.515043333333","25.0038966666667","6500400","永和區"
"234040","862-TW","2017/06/29 13:39:45","新北市中和區中和路262號","121.508531666667","24.9995116666667","6500400","永和區"
"234048","863-TW","2017/06/29 13:39:43","新北市永和區保安路29號","121.509966666667","25.0163716666667","6500400","永和區"
"234025","9371-KE","2017/06/29 13:39:37","新北市永和區中山路一段142號","121.509933333333","25.009725","6500400","永和區"
"234010","9373-KE","2017/06/29 13:39:39","新北市永和區保福路二段23巷21號","121.510088333333","25.0112183333333","6500400","永和區"
"248013","025-BX","2017/06/29 13:39:40","新北市五股區成泰路一段208號","121.436078333333","25.0789933333333","6501500","五股區"
"248005","077-UY","2017/06/29 13:39:41","新北市五股區中興路一段32號","121.468673333333","25.07245","6501500","五股區"
"248007","095-VK","2017/06/29 13:39:40","新北市五股區中興路一段150巷6號","121.464641666667","25.074215","6501500","五股區"
"248017","225-UY","2017/06/29 13:39:44","新北市五股區民義路二段78號","121.405945","25.1089833333333","6501500","五股區"
"248011","247-BX","2017/06/29 13:39:45","新北市五股區西雲路1號","121.442388333333","25.0900633333333","6501500","五股區"
"248015","261-SL","2017/06/29 13:39:35","新北市五股區凌雲路一段149巷13-1號","121.448573333333","25.1008516666667","6501500","五股區"
"248009","272-BY","2017/06/29 13:39:39","新北市五股區水碓五路172號","121.431635","25.0739166666667","6501500","五股區"
"248003","677-BX","2017/06/29 13:39:46","新北市五股區民義路一段277號","121.425941666667","25.0926766666667","6501500","五股區"
"248001","678-BX","2017/06/29 13:39:45","新北市五股區西雲路211號","121.448631666667","25.096725","6501500","五股區"
"234022","9380-KE","2017/06/29 13:39:32","新北市永和區中正路702巷18號","121.516478333333","25.0105333333333","6500400","永和區"
"234076","969-R7","2017/06/29 13:39:41","新北市永和區得和路107號","121.518355","25.0002633333333","6500400","永和區"
"234072","AAC-211","2017/06/29 13:39:25","新北市永和區福和路76巷6弄1號","121.522976666667","25.0084533333333","6500400","永和區"
"234066","AAC-212","2017/06/29 13:39:36","新北市永和區中山路一段207號","121.508765","25.008515","6500400","永和區"
"234001","AAC-295","2017/06/29 13:37:55","新北市永和區秀朗路一段28號","121.514098333333","25.00672","6500400","永和區"
"244003","248-BX","2017/06/29 13:39:44","新北市林口區瑞平里7鄰52號","121.34151","25.1243366666667","6501700","林口區"
"244019","403-UM","2017/06/29 11:03:15","新北市林口區粉寮69號","121.405116666667","25.09078","6501700","林口區"
"243005","AAD-798","2017/06/29 13:39:40","新北市泰山區明志路三段206巷3號","121.423298333333","25.0379216666667","6501600","泰山區"
"243001","297-R6","2017/06/29 12:38:17","新北市泰山區黎明路31號","121.421653333333","25.060705","6501600","泰山區"
"243007","380-SR","2017/06/29 13:39:36","新北市泰山區犁頭窠3-1號","121.422286666667","25.060485","6501600","泰山區"
"243004","646-TV","2017/06/29 13:32:21","新北市泰山區黎明路23-1號","121.421415","25.0611483333333","6501600","泰山區"
"243008","680-BX","2017/06/29 13:39:31","新北市泰山區明志路一段193號","121.432843333333","25.0617733333333","6501600","泰山區"
"231002","002-UM","2017/06/29 13:39:40","新北市新店區中央三街127號","121.524096666667","24.9768283333333","6500600","新店區"
"231025","0293-UT","2017/06/29 13:39:34","新北市新店區中央七街61巷10號","121.528606666667","24.9763616666667","6500600","新店區"
"231028","046-UY","2017/06/29 13:39:42","新北市新店區安和路二段181號","121.518406666667","24.9747933333333","6500600","新店區"
"231030","047-UY","2017/06/29 13:39:46","新北市新店區安康路一段90號","121.527896666667","24.96194","6500600","新店區"
"231018","107-UY","2017/06/29 13:39:29","新北市新店區百忍街14號","121.534668333333","24.9756266666667","6500600","新店區"
"231011","108-UY","2017/06/29 13:39:39","新北市新店區德正街27巷27號","121.545733333333","24.9716216666667","6500600","新店區"
"231021","187-VK","2017/06/29 13:39:27","新北市新店區永興路90-1號","121.544056666667","24.931635","6500600","新店區"
"231007","189-VK","2017/06/29 12:08:33","新北市新店區安華路28-1號","121.519586666667","24.961205","6500600","新店區"
"231026","256-BX","2017/06/29 13:39:36","新北市新店區北新路二段2號","121.542541666667","24.9706216666667","6500600","新店區"
"231010","278-BY","2017/06/29 13:39:41","新北市新店區中正路307巷11號","121.53606","24.9739233333333","6500600","新店區"
"231017","AAD-862","2017/06/29 13:39:44","新北市新店區竹林路2巷27弄1號","121.550186666667","24.950775","6500600","新店區"
"231029","355-BY","2017/06/29 13:39:36","新北市新店區安康路二段241號","121.508095","24.9585166666667","6500600","新店區"
"231027","3712-VJ","2017/06/29 13:39:40","新北市新店區北宜路一段121-9號","121.540958333333","24.95404","6500600","新店區"
"231024","3713-VJ","2017/06/29 13:39:43","新北市新店區華興街32號","121.537198333333","24.9689333333333","6500600","新店區"
"231038","4715-K9","2017/06/29 13:39:46","新北市新店區安華路30巷3號","121.519558333333","24.959235","6500600","新店區"
"231036","512-UM","2017/06/29 13:39:38","新北市新店區安祥路147巷33號","121.476635","24.9566383333333","6500600","新店區"
"231023","513-UM","2017/06/29 13:39:29","新北市新店區新店路132號","121.537111666667","24.9551033333333","6500600","新店區"
"231035","515-UM","2017/06/29 13:39:28","新北市新店區安忠路94-2號","121.511146666667","24.9572383333333","6500600","新店區"
"231003","616-UM","2017/06/29 13:39:38","新北市新店區中興路一段284號","121.54575","24.9689433333333","6500600","新店區"
"231006","617-UM","2017/06/29 13:39:38","新北市新店區北新路一段23號","121.537945","24.9590383333333","6500600","新店區"
"231001","619-UM","2017/06/29 13:39:30","新北市新店區中正路398號","121.534623333333","24.97742","6500600","新店區"
"231034","645-TV","2017/06/29 13:39:34","新北市新店區達觀路16號","121.503158333333","24.9407533333333","6500600","新店區"
"231013","719-UM","2017/06/29 13:39:46","新北市新店區二十張路143-1號","121.535125","24.9787866666667","6500600","新店區"
"231031","720-UM","2017/06/29 13:39:25","新北市新店區莒光路44巷21弄12-1號","121.521646666667","24.95616","6500600","新店區"
"231005","897-TW","2017/06/29 13:39:29","新北市新店區寶橋路205巷4號","121.54777","24.977915","6500600","新店區"
"231004","899-TW","2017/06/29 13:39:33","新北市新店區北新路二段7號","121.542728333333","24.971315","6500600","新店區"
"231037","AKT-0513","2017/06/29 13:39:28","新北市新店區安康路二段416號","121.496603333333","24.9552383333333","6500600","新店區"
"235030","003-UY","2017/06/29 13:39:34","新北市中和區水源路33號","121.504286666667","25.0035383333333","6500300","中和區"
"235028","005-UY","2017/06/29 13:39:42","新北市中和區連城路89巷7號","121.497201666667","24.9993216666667","6500300","中和區"
"235027","006-UY","2017/06/29 13:39:38","新北市中和區連城路347巷16弄31號","121.487435","24.9950583333333","6500300","中和區"
"235026","031-BX","2017/06/29 13:39:29","新北市中和區中山路二段312巷4號","121.495671666667","25.00271","6500300","中和區"
"235020","096-UM","2017/06/29 13:39:45","新北市中和區員山路466巷18號","121.48099","25.0065133333333","6500300","中和區"
"235003","097-UM","2017/06/29 13:39:37","新北市中和區大勇街25巷15弄21-3號","121.515081666667","24.9935816666667","6500300","中和區"
"235004","150-BY","2017/06/29 13:39:46","新北市中和區安平路59號","121.50944","24.99515","6500300","中和區"
"235022","151-BY","2017/06/29 13:39:45","新北市中和區圓通路369巷36弄8號","121.489918333333","24.98421","6500300","中和區"
"235019","183-VK","2017/06/29 13:39:31","新北市中和區莒光路84巷21號","121.471573333333","25.0020433333333","6500300","中和區"
"235002","185-VK","2017/06/29 13:39:40","新北市中和區立人街27號","121.52116","24.9940833333333","6500300","中和區"
"235013","186-VK","2017/06/29 13:39:39","新北市中和區景平路500巷7號","121.504401666667","24.9937716666667","6500300","中和區"
"235031","255-BX","2017/06/29 13:39:47","新北市中和區新生街242巷9號","121.482993333333","24.99783","6500300","中和區"
"235008","293-VK","2017/06/29 13:39:31","新北市中和區復興路301巷15號","121.501536666667","24.9898466666667","6500300","中和區"
"235036","301-VK","2017/06/29 13:39:41","新北市中和區安邦街8號","121.495591666667","24.9982033333333","6500300","中和區"
"235007","352-BY","2017/06/29 13:39:27","新北市中和區景平路171號","121.512186666667","24.9923966666667","6500300","中和區"
"235015","376-QA","2017/06/29 13:39:45","新北市中和區華新街143巷11弄8號","121.506901666667","24.9812033333333","6500300","中和區"
"235032","377-QA","2017/06/29 13:39:29","新北市中和區中正路271-4號","121.495916666667","24.9933483333333","6500300","中和區"
"235025","378-QA","2017/06/29 13:39:27","新北市中和區民享街114巷3號","121.474371666667","24.9992316666667","6500300","中和區"
"235014","4979-A6","2017/06/29 13:39:38","新北市中和區景新街496巷30弄30號","121.512668333333","24.9856916666667","6500300","中和區"
"235033","4980-A6","2017/06/29 13:39:34","新北市中和區泰和街4號","121.499991666667","25.00112","6500300","中和區"
"235006","551-UM","2017/06/29 13:39:42","新北市中和區成功路97巷2號","121.526665","24.9917516666667","6500300","中和區"
"235034","558-UM","2017/06/29 13:39:37","新北市中和區景平路576號","121.501611666667","24.9955066666667","6500300","中和區"
"235009","565-BX","2017/06/29 13:39:25","新北市中和區復興路49巷6號","121.504486666667","24.9896083333333","6500300","中和區"
"235018","640-BX","2017/06/29 13:39:30","新北市中和區民享街91巷8號","121.475211666667","25.0007733333333","6500300","中和區"
"235024","647-TV","2017/06/29 13:39:38","新北市中和區員山路457號","121.480558333333","25.00435","6500300","中和區"
"235011","732-UM","2017/06/29 13:39:45","新北市中和區南山路320巷10弄14號","121.506848333333","24.9867016666667","6500300","中和區"
"235035","783-BX","2017/06/29 13:39:47","新北市中和區永和路356巷51號","121.487398333333","25.0145883333333","6500300","中和區"
"235021","801-TS","2017/06/29 13:39:33","新北市中和區民安街45號","121.479843333333","25.0001916666667","6500300","中和區"
"235005","802-TS","2017/06/29 13:39:29","新北市中和區中和路402號","121.511343333333","25.0025483333333","6500300","中和區"
"235016","805-TS","2017/06/29 13:39:45","新北市中和區興南路三段52巷6號","121.493771666667","24.9761533333333","6500300","中和區"
"235012","896-TW","2017/06/29 13:39:46","新北市中和區中正路83號","121.500691666667","24.9934666666667","6500300","中和區"
"235017","900-TW","2017/06/29 13:39:24","新北市中和區民享街457號","121.470433333333","24.9931433333333","6500300","中和區"
"235003","157-BY","2017/06/29 13:39:27","新北市中和區捷運路129號","121.50716","24.9906766666667","6500300","中和區"
"235001","AAC-213","2017/06/29 13:39:41","新北市中和區景平路151巷59號","121.514778333333","24.9900266666667","6500300","中和區"
"235023","AAC-215","2017/06/29 13:39:27","新北市中和區員山路36巷16-3號","121.485063333333","24.9913216666667","6500300","中和區"
"220016","013-TV","2017/06/29 13:39:29","新北市板橋區民生路二段15-1號","121.472788333333","25.01644","6500100","板橋區"
"220013","072-UY","2017/06/29 13:39:29","新北市板橋區中山路二段89巷5弄12號","121.472756666667","25.0167383333333","6500100","板橋區"
"220034","073-UY","2017/06/29 13:39:36","新北市板橋區南雅西路二段175巷2號","121.451555","25.0125183333333","6500100","板橋區"
"247002","402-BY","2017/06/29 13:31:15","新北市蘆洲區民權路5號","121.476438333333","25.0857233333333","6501400","蘆洲區"
"247007","339-TH","2017/06/29 13:39:31","新北市蘆洲區復興路323巷168-12號","121.477858333333","25.0965333333333","6501400","蘆洲區"
"247001","336-TH","2017/06/29 13:39:32","新北市五股區中興路三段163號","121.449216666667","25.0807216666667","6501400","蘆洲區"
"247013","057-VK","2017/06/29 13:39:35","新北市蘆洲區中正路512-1號","121.461058333333","25.0977183333333","6501400","蘆洲區"
"247003","056-VK","2017/06/29 13:39:46","新北市五股區中興路二段182巷15弄13號","121.457111666667","25.08164","6501400","蘆洲區"
"247015","001-UY","2017/06/29 13:39:48","新北市五股區成泰路三段544-1號","121.454661666667","25.1014","6501400","蘆洲區"
"228005","097-TW","2017/06/29 13:39:34","新北市貢寮區美豐里文秀坑8號","121.902636666667","25.050455","6502600","貢寮區"
"228004","212-TW","2017/06/29 13:33:06","新北市貢寮區龍崗里石壁坑街23號","121.912151666667","24.996585","6502600","貢寮區"
"208004","AAC-292","2017/06/29 13:39:05","新北市金山區山城路10巷34弄19號","121.594626666667","25.19842","6502700","金山區"
"207002","749-BX","2017/06/29 13:39:44","新北市萬里區崁腳里崁腳路166號","121.645146666667","25.1559716666667","6502800","萬里區"
"207001","463-BY","2017/06/29 13:39:30","新北市萬里區磺潭里公館崙23-1號","121.636403333333","25.21381","6502800","萬里區"
"252005","702-TV","2017/06/29 13:39:37","新北市三芝區圓山里內柑宅25號","121.539208333333","25.2184483333333","6502100","三芝區"
"252007","AAC-283","2017/06/29 01:03:22","新北市三芝區埔坪里埔頭坑41號","121.504511666667","25.2644333333333","6502100","三芝區"
"236040","137-TH","2017/06/29 13:39:32","新北市土城區城林路6巷80號","121.43874","24.9796516666667","6501300","土城區"
"236012","270-VK","2017/06/29 13:39:29","新北市土城區城林路6巷80號","121.438578333333","24.9797","6501300","土城區"
"236033","271-VK","2017/06/29 13:39:33","新北市土城區城林路6巷80號","121.438668333333","24.9796366666667","6501300","土城區"
"236018","401-BY","2017/06/29 13:39:25","新北市土城區城林路6巷80號","121.438576666667","24.9797083333333","6501300","土城區"
"236005","498-BY","2017/06/29 13:39:38","新北市土城區慶祥街19號","121.43672","24.97412","6501300","土城區"
"236060","915-UM","2017/06/29 13:39:29","新北市土城區城林路6巷80號","121.438383333333","24.97979","6501300","土城區"
"236052","AAC-216","2017/06/29 13:39:26","新北市土城區城林路6巷80號","121.438363333333","24.9797716666667","6501300","土城區"
"221010","276-VK","2017/06/29 13:17:07","新北市汐止區汐萬路一段256巷3號","121.653438333333","25.07459","6501100","汐止區"
"221032","280-BY","2017/06/29 13:39:33","新北市汐止區秀峰路57號","121.659688333333","25.065075","6501100","汐止區"
"221038","297-VK","2017/06/29 13:39:35","新北市汐止區秀山路87-9號","121.670601666667","25.0589","6501100","汐止區"
"221002","753-BX","2017/06/29 13:39:42","新北市汐止區原興路60巷8-1號","121.63318","25.0658416666667","6501100","汐止區"
"220027","145-BY","2017/06/29 13:39:41","新北市板橋區南雅西路二段175巷5號","121.451505","25.0122133333333","6500100","板橋區"
"220030","610-BX","2017/06/29 13:39:16","新北市板橋區華東街1-9號","121.448248333333","24.9948916666667","6500100","板橋區"
"220050","245-BX","2017/06/29 02:44:34","新北市板橋區民生路二段120號","121.47088","25.0198283333333","6500100","板橋區"
"220004","276-BY","2017/06/29 13:39:37","新北市板橋區四川路二段245巷50號","121.451956666667","24.9924316666667","6500100","板橋區"
"220020","277-BY","2017/06/29 13:39:38","新北市板橋區華東街1-10號","121.448301666667","24.9950666666667","6500100","板橋區"
"220043","283-UM","2017/06/29 13:39:35","新北市板橋區民生路二段161巷1號","121.47012","25.0201066666667","6500100","板橋區"
"220019","283-VK","2017/06/29 13:39:26","新北市板橋區民生路二段15-1號","121.472718333333","25.0164583333333","6500100","板橋區"
"220031","286-VK","2017/06/29 13:39:26","新北市板橋區華東街1-9號","121.448261666667","24.994875","6500100","板橋區"
"220029","287-VK","2017/06/29 13:39:41","新北市板橋區華東街1-10號","121.448235","24.99498","6500100","板橋區"
"220039","288-VK","2017/06/29 13:39:28","新北市板橋區民生路二段120號","121.47044","25.019665","6500100","板橋區"
"220009","293-UM","2017/06/29 13:39:34","新北市板橋區民生路二段36-1號","121.472538333333","25.0166716666667","6500100","板橋區"
"220032","296-UM","2017/06/29 13:39:34","新北市板橋區華東街1-9號","121.448126666667","24.994945","6500100","板橋區"
"220023","297-UM","2017/06/29 13:39:43","新北市板橋區華東街1-9號","121.448165","24.994965","6500100","板橋區"
"220010","305-R5","2017/06/29 03:47:19","新北市板橋區民生路二段16號","121.472856666667","25.0164883333333","6500100","板橋區"
"220047","317-R6","2017/06/29 13:39:42","新北市板橋區民生路二段161巷1號","121.470115","25.0198166666667","6500100","板橋區"
"220012","486-VK","2017/06/29 02:26:50","新北市板橋區民生路二段36-1號","121.472656666667","25.016535","6500100","板橋區"
"220037","491-VK","2017/06/29 13:38:34","新北市板橋區民生路二段161巷3號","121.470125","25.0197466666667","6500100","板橋區"
"220104","560-BX","2017/06/29 13:39:39","新北市板橋區南雅西路二段2-1號","121.45334","25.0087966666667","6500100","板橋區"
"220011","609-BX","2017/06/29 13:39:29","新北市板橋區民生路二段36-1號","121.472573333333","25.01654","6500100","板橋區"
"220005","686-BX","2017/06/29 13:39:46","新北市板橋區民生路二段17號","121.472611666667","25.0164666666667","6500100","板橋區"
"220025","687-BX","2017/06/29 13:39:46","新北市板橋區大觀路三段263號","121.429188333333","24.9922416666667","6500100","板橋區"
"220002","741-BX","2017/06/29 13:39:43","新北市板橋區民生路二段17號","121.472615","25.01644","6500100","板橋區"
"220021","806-UM","2017/06/29 13:39:30","新北市板橋區華東街1-10號","121.448348333333","24.9949116666667","6500100","板橋區"
"220014","829-TW","2017/06/29 13:39:34","新北市板橋區民生路二段36-1號","121.47263","25.0166083333333","6500100","板橋區"
"220022","895-R6","2017/06/29 13:39:34","新北市板橋區南雅南路一段42號","121.455816666667","25.0060466666667","6500100","板橋區"
"220046","AAC-210","2017/06/29 13:39:32","新北市板橋區民生路二段120號","121.470545","25.0197583333333","6500100","板橋區"
"220018","AAC-253","2017/06/29 13:39:41","新北市板橋區民生路二段36-1號","121.472603333333","25.0166166666667","6500100","板橋區"
