"lineid","car","time","location","longitude","latitude","cityid","cityname"
"234044","148-BY","2017/06/29 13:49:37","新北市永和區成功路一段76號","121.526256666667","25.0033766666667","6500400","永和區"
"234012","149-BY","2017/06/29 13:49:46","新北市永和區仁愛路245號","121.508808333333","25.0118683333333","6500400","永和區"
"234005","207-UY","2017/06/29 13:49:44","新北市永和區永和路一段104號","121.51344","25.0071583333333","6500400","永和區"
"234078","298-R6","2017/06/29 13:49:39","新北市永和區林森路48巷1號","121.524598333333","25.0045133333333","6500400","永和區"
"234036","336-UY","2017/06/29 13:49:42","新北市永和區成功路二段153號","121.52668","24.9975466666667","6500400","永和區"
"234062","337-UY","2017/06/29 13:49:35","新北市永和區中正路368巷44號","121.519166666667","25.000645","6500400","永和區"
"234084","338-UY","2017/06/29 13:49:32","新北市永和區永亨路165巷1-4號","121.526146666667","25.004175","6500400","永和區"
"234068","552-UM","2017/06/29 13:49:48","新北市永和區竹林路227號","121.520805","25.0083766666667","6500400","永和區"
"234052","553-UM","2017/06/29 13:49:42","新北市永和區竹林路39巷28弄29號","121.519771666667","25.0144133333333","6500400","永和區"
"234015","745-BX","2017/06/29 13:49:37","新北市永和區文化路69號","121.513951666667","25.0151033333333","6500400","永和區"
"234028","746-BX","2017/06/29 13:49:30","新北市永和區四維街103巷16號","121.523763333333","24.9971616666667","6500400","永和區"
"234060","AAD-866","2017/06/29 13:49:28","新北市永和區中正路246號","121.516513333333","24.9983633333333","6500400","永和區"
"234040","862-TW","2017/06/29 13:49:45","新北市永和區中和路389巷2-1號","121.508355","25.0004533333333","6500400","永和區"
"234048","863-TW","2017/06/29 13:49:41","新北市永和區保安路85號","121.50848","25.01458","6500400","永和區"
"234025","9371-KE","2017/06/29 13:49:37","新北市永和區保生路55-1號","121.504541666667","25.0108916666667","6500400","永和區"
"234010","9373-KE","2017/06/29 13:49:39","新北市永和區保福路二段163巷13弄16號","121.509155","25.0142916666667","6500400","永和區"
"248013","025-BX","2017/06/29 13:49:40","新北市五股區民義路一段107巷23號","121.432083333333","25.084495","6501500","五股區"
"248005","077-UY","2017/06/29 13:49:41","新北市五股區四維路102號","121.467535","25.0735483333333","6501500","五股區"
"248007","095-VK","2017/06/29 13:49:40","新北市五股區中興路一段151巷1弄1號","121.465058333333","25.0732833333333","6501500","五股區"
"248017","225-UY","2017/06/29 13:49:24","新北市五股區民義路二段41號","121.414016666667","25.1012033333333","6501500","五股區"
"248011","247-BX","2017/06/29 13:49:25","新北市五股區成泰路二段195巷1號","121.440318333333","25.0873516666667","6501500","五股區"
"248015","261-SL","2017/06/29 13:49:35","新北市五股區凌雲路一段83巷44號","121.449061666667","25.10124","6501500","五股區"
"248009","272-BY","2017/06/29 13:49:34","新北市五股區水碓九路37號","121.428895","25.0720283333333","6501500","五股區"
"248003","677-BX","2017/06/29 13:49:39","新北市五股區民義路二段46號","121.413986666667","25.101365","6501500","五股區"
"248001","678-BX","2017/06/29 13:49:45","新北市五股區成泰路三段454號","121.45141","25.1003483333333","6501500","五股區"
"234022","9380-KE","2017/06/29 13:49:48","新北市永和區中正路654巷26號","121.517675","25.0085083333333","6500400","永和區"
"234076","969-R7","2017/06/29 13:49:41","新北市永和區民族街29號","121.518803333333","24.9995833333333","6500400","永和區"
"234072","AAC-211","2017/06/29 13:49:45","新北市永和區竹林路179巷35號","121.522188333333","25.0102733333333","6500400","永和區"
"234066","AAC-212","2017/06/29 13:49:36","新北市永和區永貞路408號","121.509081666667","25.00778","6500400","永和區"
"234001","AAC-295","2017/06/29 13:47:15","新北市永和區永和路一段13號","121.512875","25.0054816666667","6500400","永和區"
"244003","248-BX","2017/06/29 13:49:44","新北市林口區太平里15號","121.362193333333","25.1333033333333","6501700","林口區"
"244019","403-UM","2017/06/29 11:03:15","新北市林口區粉寮69號","121.405116666667","25.09078","6501700","林口區"
"243005","AAD-798","2017/06/29 13:49:40","新北市泰山區明志路三段206巷3號","121.42329","25.0379233333333","6501600","泰山區"
"243001","297-R6","2017/06/29 12:38:17","新北市泰山區黎明路31號","121.421653333333","25.060705","6501600","泰山區"
"243007","380-SR","2017/06/29 13:49:36","新北市泰山區美寧街54號","121.430501666667","25.0644783333333","6501600","泰山區"
"243006","421-VK","2017/06/29 13:49:35","新北市泰山區犁頭窠3-1號","121.422303333333","25.0606016666667","6501600","泰山區"
"243004","646-TV","2017/06/29 13:49:17","新北市泰山區泰林路二段73巷31號","121.434376666667","25.057815","6501600","泰山區"
"243008","680-BX","2017/06/29 13:49:31","新北市泰山區明志路二段135號","121.427763333333","25.0507283333333","6501600","泰山區"
"231002","002-UM","2017/06/29 13:49:39","新北市新店區溪園路245-6號","121.525213333333","24.983115","6500600","新店區"
"231025","0293-UT","2017/06/29 13:49:34","新北市新店區中央六街56號","121.527863333333","24.97568","6500600","新店區"
"231028","046-UY","2017/06/29 13:49:42","新北市新店區安和路三段46號","121.518008333333","24.9818166666667","6500600","新店區"
"231030","047-UY","2017/06/29 13:49:27","新北市新店區安康路一段122號","121.527026666667","24.9626966666667","6500600","新店區"
"231018","107-UY","2017/06/29 13:49:29","新北市新店區中正路400巷4號","121.534888333333","24.977655","6500600","新店區"
"231011","108-UY","2017/06/29 13:49:39","新北市新店區德正街31號","121.544688333333","24.9712516666667","6500600","新店區"
"231021","187-VK","2017/06/29 13:49:47","新北市新店區湖子內路1號","121.542398333333","24.9306416666667","6500600","新店區"
"231007","189-VK","2017/06/29 12:08:33","新北市新店區安華路28-1號","121.519586666667","24.961205","6500600","新店區"
"231026","256-BX","2017/06/29 13:49:36","新北市新店區三民路84巷12號","121.534915","24.9731583333333","6500600","新店區"
"231010","278-BY","2017/06/29 13:49:28","新北市新店區平等街81號","121.535596666667","24.9721616666667","6500600","新店區"
"231017","AAD-862","2017/06/29 13:49:44","新北市新店區竹林路72巷1號","121.553736666667","24.951065","6500600","新店區"
"231029","355-BY","2017/06/29 13:49:36","新北市新店區安康路二段156號","121.512306666667","24.9608616666667","6500600","新店區"
"231027","3712-VJ","2017/06/29 13:49:40","新北市新店區北宜路一段105巷2號","121.539578333333","24.95546","6500600","新店區"
"231024","3713-VJ","2017/06/29 13:49:34","新北市新店區北新路一段271巷34號","121.539908333333","24.967145","6500600","新店區"
"231038","4715-K9","2017/06/29 13:49:46","新北市新店區安華路15-2號","121.520205","24.9615566666667","6500600","新店區"
"231036","512-UM","2017/06/29 13:49:38","新北市新店區安祥路108巷53號","121.474258333333","24.957215","6500600","新店區"
"231023","513-UM","2017/06/29 13:49:29","新北市新店區國校路30號","121.538085","24.95458","6500600","新店區"
"231035","515-UM","2017/06/29 13:49:28","新北市新店區安忠路57巷9弄1號","121.513405","24.9582333333333","6500600","新店區"
"231003","616-UM","2017/06/29 13:49:38","新北市新店區中興路一段162號","121.542578333333","24.96402","6500600","新店區"
"231006","617-UM","2017/06/29 13:49:48","新北市新店區北宜路一段178號","121.540775","24.952905","6500600","新店區"
"231001","619-UM","2017/06/29 13:49:30","新北市新店區三民路84號","121.534436666667","24.97263","6500600","新店區"
"231034","645-TV","2017/06/29 13:49:34","新北市新店區達觀路16號","121.503121666667","24.9407466666667","6500600","新店區"
"231013","719-UM","2017/06/29 13:49:30","新北市新店區二十張路25巷18弄2號","121.539236666667","24.981815","6500600","新店區"
"231031","720-UM","2017/06/29 13:49:45","新北市新店區莒光路44巷21弄11-3號","121.518363333333","24.952185","6500600","新店區"
"231005","897-TW","2017/06/29 13:49:29","新北市新店區寶中路107號","121.548968333333","24.98014","6500600","新店區"
"231004","899-TW","2017/06/29 13:49:33","新北市新店區中興路三段1-20號","121.54658","24.9759683333333","6500600","新店區"
"231037","AKT-0513","2017/06/29 13:49:28","新北市新店區安康路三段466-2號","121.484076666667","24.9508866666667","6500600","新店區"
"235030","003-UY","2017/06/29 13:49:34","新北市中和區水源路7巷25號","121.504073333333","25.0038333333333","6500300","中和區"
"235028","005-UY","2017/06/29 13:49:42","新北市中和區連城路75巷1-2號","121.49764","24.99994","6500300","中和區"
"235027","006-UY","2017/06/29 13:49:38","新北市中和區連城路319巷11弄12號","121.489703333333","24.9949316666667","6500300","中和區"
"235026","031-BX","2017/06/29 13:49:29","新北市中和區景平路705號","121.496491666667","25.0035283333333","6500300","中和區"
"235020","096-UM","2017/06/29 13:49:45","新北市中和區新民街94巷18號","121.481436666667","25.0091083333333","6500300","中和區"
"235003","097-UM","2017/06/29 13:49:37","新北市中和區大勇街25巷13弄1號","121.516121666667","24.9935266666667","6500300","中和區"
"235004","150-BY","2017/06/29 13:49:26","新北市中和區保健路48巷5號","121.510005","24.996875","6500300","中和區"
"235022","151-BY","2017/06/29 13:49:45","新北市中和區連城路573-1號","121.478943333333","24.9943916666667","6500300","中和區"
"235019","183-VK","2017/06/29 13:49:31","新北市中和區民德路25巷1號","121.469136666667","25.002755","6500300","中和區"
"235002","185-VK","2017/06/29 13:49:40","新北市中和區立人街14巷69號","121.518501666667","24.9956233333333","6500300","中和區"
"235013","186-VK","2017/06/29 13:49:40","新北市中和區景安路177巷1號","121.505518333333","24.9941883333333","6500300","中和區"
"235031","255-BX","2017/06/29 13:49:47","新北市中和區新生街220巷13號","121.482925","24.9984416666667","6500300","中和區"
"235008","293-VK","2017/06/29 13:49:32","新北市中和區復興路280巷5號","121.502266666667","24.9909616666667","6500300","中和區"
"235036","301-VK","2017/06/29 13:49:41","新北市中和區中山路二段136號","121.502153333333","25.0031966666667","6500300","中和區"
"235007","352-BY","2017/06/29 13:49:27","新北市中和區景平路17號","121.523346666667","24.990355","6500300","中和區"
"235015","376-QA","2017/06/29 13:49:45","新北市中和區華新街109巷11弄3-9號","121.508975","24.97964","6500300","中和區"
"235032","377-QA","2017/06/29 13:49:29","新北市中和區中正路167巷15號","121.498498333333","24.9927866666667","6500300","中和區"
"235025","378-QA","2017/06/29 13:49:48","新北市中和區民治街132巷4號","121.475115","25.0023766666667","6500300","中和區"
"235014","4979-A6","2017/06/29 13:49:38","新北市中和區忠孝街58巷30弄1號","121.512316666667","24.9826916666667","6500300","中和區"
"235033","4980-A6","2017/06/29 13:49:34","新北市中和區景平路459巷2弄2號","121.500331666667","24.996425","6500300","中和區"
"235006","551-UM","2017/06/29 13:49:38","新北市中和區秀朗路三段70巷34號","121.525623333333","24.9944883333333","6500300","中和區"
"235034","558-UM","2017/06/29 13:49:37","新北市中和區安和路159號","121.50607","24.9972766666667","6500300","中和區"
"235009","565-BX","2017/06/29 13:49:37","新北市中和區南山路234號","121.506593333333","24.9899133333333","6500300","中和區"
"235018","640-BX","2017/06/29 13:49:30","新北市中和區民享街56號","121.473935","25.002445","6500300","中和區"
"235024","647-TV","2017/06/29 13:49:38","新北市中和區中山路三段34號","121.478928333333","25.0059716666667","6500300","中和區"
"235011","732-UM","2017/06/29 13:49:46","新北市中和區興南路二段94號","121.505495","24.984355","6500300","中和區"
"235035","783-BX","2017/06/29 13:49:27","新北市中和區中山路二段476-7號","121.488086666667","25.00586","6500300","中和區"
"235021","801-TS","2017/06/29 13:49:33","新北市中和區員山路327巷46號","121.480461666667","25.0016733333333","6500300","中和區"
"235005","802-TS","2017/06/29 13:49:42","新北市中和區中和路402-3號","121.511276666667","25.0028016666667","6500300","中和區"
"235016","805-TS","2017/06/29 13:49:25","新北市中和區興南路二段399巷58號","121.499588333333","24.9788933333333","6500300","中和區"
"235012","896-TW","2017/06/29 13:49:45","新北市中和區南山路373號","121.50617","24.99045","6500300","中和區"
"235017","900-TW","2017/06/29 13:49:45","新北市中和區華福街3號","121.465298333333","24.9970583333333","6500300","中和區"
"235003","157-BY","2017/06/29 13:49:27","新北市中和區忠孝街101巷1號","121.511815","24.986125","6500300","中和區"
"235001","AAC-213","2017/06/29 13:49:41","新北市中和區景平路111巷18號","121.51641","24.9909033333333","6500300","中和區"
"235023","AAC-215","2017/06/29 13:49:47","新北市中和區圓通路391-7號","121.489646666667","24.98903","6500300","中和區"
"220016","013-TV","2017/06/29 13:49:29","新北市板橋區民生路二段56-1號","121.472468333333","25.01713","6500100","板橋區"
"220013","072-UY","2017/06/29 13:49:29","新北市板橋區民生路二段36-1號","121.472543333333","25.0165816666667","6500100","板橋區"
"220034","073-UY","2017/06/29 13:49:36","新北市板橋區大智街71巷17號","121.45288","25.014235","6500100","板橋區"
"247002","402-BY","2017/06/29 13:31:15","新北市蘆洲區民權路5號","121.476438333333","25.0857233333333","6501400","蘆洲區"
"247005","341-TH","2017/06/29 13:49:35","新北市蘆洲區和平路77號","121.469318333333","25.0790033333333","6501400","蘆洲區"
"247007","339-TH","2017/06/29 13:49:39","新北市蘆洲區集賢路269巷13號","121.48193","25.0834516666667","6501400","蘆洲區"
"247001","336-TH","2017/06/29 13:49:32","新北市五股區成泰路三段544-1號","121.45432","25.1017166666667","6501400","蘆洲區"
"247013","057-VK","2017/06/29 13:49:35","新北市蘆洲區中正路102號","121.469761666667","25.0844266666667","6501400","蘆洲區"
"247003","056-VK","2017/06/29 13:49:26","新北市蘆洲區長安街102巷5弄12號","121.461511666667","25.08208","6501400","蘆洲區"
"247015","001-UY","2017/06/29 13:49:42","新北市蘆洲區光華路29號","121.469173333333","25.083175","6501400","蘆洲區"
"228005","097-TW","2017/06/29 13:49:34","新北市雙溪區三港里雙澳路100號","121.889043333333","25.0570516666667","6502600","貢寮區"
"228004","212-TW","2017/06/29 13:33:06","新北市貢寮區龍崗里石壁坑街23號","121.912151666667","24.996585","6502600","貢寮區"
"208004","AAC-292","2017/06/29 13:49:45","新北市金山區重和里三重橋13號","121.591376666667","25.1901483333333","6502700","金山區"
"207002","749-BX","2017/06/29 13:49:44","新北市萬里區崁腳里崁腳路173-1號","121.64661","25.1548516666667","6502800","萬里區"
"207001","463-BY","2017/06/29 13:49:30","新北市萬里區磺潭里清水17號","121.63616","25.20121","6502800","萬里區"
"252005","702-TV","2017/06/29 13:48:37","新北市三芝區圓山里二坪頂46號","121.540583333333","25.23033","6502100","三芝區"
"252007","AAC-283","2017/06/29 01:03:22","新北市三芝區埔坪里埔頭坑41號","121.504511666667","25.2644333333333","6502100","三芝區"
"236066","105-UM","2017/06/29 13:49:31","新北市土城區城林路6巷80號","121.438368333333","24.9796833333333","6501300","土城區"
"236040","137-TH","2017/06/29 13:49:32","新北市土城區中央路一段264-2號","121.443738333333","24.9836866666667","6501300","土城區"
"236076","166-UM","2017/06/29 13:49:40","新北市土城區中華路二段168-1號","121.437401666667","24.972145","6501300","土城區"
"236028","253-BX","2017/06/29 13:49:38","新北市土城區城林路6巷80號","121.43835","24.9797166666667","6501300","土城區"
"236024","269-VK","2017/06/29 13:49:39","新北市土城區中華路二段196號","121.437501666667","24.9707","6501300","土城區"
"236012","270-VK","2017/06/29 13:49:29","新北市土城區城林路6巷80號","121.438575","24.9797283333333","6501300","土城區"
"236033","271-VK","2017/06/29 13:49:33","新北市土城區城林路6巷80號","121.438656666667","24.9796266666667","6501300","土城區"
"236018","401-BY","2017/06/29 13:49:25","新北市土城區城林路6巷80號","121.438593333333","24.9797216666667","6501300","土城區"
"236005","498-BY","2017/06/29 13:49:38","新北市土城區中華路一段301號","121.43997","24.9793066666667","6501300","土城區"
"236056","912-UM","2017/06/29 13:49:30","新北市土城區中央路二段231號","121.440288333333","24.9724583333333","6501300","土城區"
"236047","913-UM","2017/06/29 13:49:37","新北市土城區城林路6巷80號","121.43838","24.97982","6501300","土城區"
"236060","915-UM","2017/06/29 13:49:29","新北市土城區城林路6巷80號","121.438395","24.97979","6501300","土城區"
"236047","970-R7","2017/06/29 13:49:35","新北市土城區城林路6巷80號","121.438703333333","24.9796533333333","6501300","土城區"
"236052","AAC-216","2017/06/29 13:49:26","新北市土城區城林路6巷80號","121.43836","24.9797666666667","6501300","土城區"
"221010","276-VK","2017/06/29 13:17:07","新北市汐止區汐萬路一段256巷3號","121.653438333333","25.07459","6501100","汐止區"
"221038","297-VK","2017/06/29 13:49:35","新北市汐止區秀山路87-9號","121.670381666667","25.0585066666667","6501100","汐止區"
"221002","753-BX","2017/06/29 13:49:42","新北市汐止區工建路216號","121.63671","25.0623716666667","6501100","汐止區"
"220027","145-BY","2017/06/29 13:49:33","新北市板橋區中正路170號","121.456458333333","25.0172283333333","6500100","板橋區"
"220030","610-BX","2017/06/29 13:49:36","新北市板橋區篤行路二段127-1號","121.431221666667","24.9906266666667","6500100","板橋區"
"220050","245-BX","2017/06/29 02:44:34","新北市板橋區民生路二段120號","121.47088","25.0198283333333","6500100","板橋區"
"220017","258-TC","2017/06/29 13:49:39","新北市板橋區觀光街2-2號","121.472303333333","25.01542","6500100","板橋區"
"220004","276-BY","2017/06/29 13:49:37","新北市板橋區信義路65號","121.457121666667","24.99555","6500100","板橋區"
"220020","277-BY","2017/06/29 13:49:38","新北市板橋區金門街31巷2號","121.433426666667","24.9939366666667","6500100","板橋區"
"220043","283-UM","2017/06/29 13:49:35","新北市板橋區民生路二段120號","121.470303333333","25.0200583333333","6500100","板橋區"
"220019","283-VK","2017/06/29 13:49:26","新北市板橋區中山路二段23號","121.47235","25.015335","6500100","板橋區"
"220001","285-VK","2017/06/29 13:49:40","新北市板橋區民生路二段46號","121.47235","25.0176333333333","6500100","板橋區"
"220031","286-VK","2017/06/29 13:49:37","新北市板橋區大觀路二段22巷16號","121.445793333333","25.0035083333333","6500100","板橋區"
"220029","287-VK","2017/06/29 13:49:41","新北市板橋區南雅西路二段122號","121.452101666667","25.0124533333333","6500100","板橋區"
"220039","288-VK","2017/06/29 13:49:28","新北市板橋區民生路二段120號","121.470515","25.0197133333333","6500100","板橋區"
"220009","293-UM","2017/06/29 13:49:33","新北市板橋區民生路二段70號","121.47195","25.0180866666667","6500100","板橋區"
"220032","296-UM","2017/06/29 13:49:38","新北市板橋區大觀路二段174巷102弄19號","121.44166","25.00122","6500100","板橋區"
"220023","297-UM","2017/06/29 13:49:43","新北市板橋區大觀路一段28巷104號","121.45007","25.011085","6500100","板橋區"
"220010","305-R5","2017/06/29 03:47:19","新北市板橋區民生路二段16號","121.472856666667","25.0164883333333","6500100","板橋區"
"220041","307-R5","2017/06/29 13:49:42","新北市板橋區民生路二段120號","121.47059","25.019695","6500100","板橋區"
"220047","317-R6","2017/06/29 13:49:42","新北市板橋區民生路二段161巷3號","121.470218333333","25.0197766666667","6500100","板橋區"
"220012","486-VK","2017/06/29 02:26:50","新北市板橋區民生路二段36-1號","121.472656666667","25.016535","6500100","板橋區"
"220038","487-VK","2017/06/29 13:49:34","新北市板橋區民生路二段120號","121.470486666667","25.0194916666667","6500100","板橋區"
"220037","491-VK","2017/06/29 13:49:15","新北市板橋區民生路二段161巷3號","121.470098333333","25.019735","6500100","板橋區"
"220104","560-BX","2017/06/29 13:49:39","新北市板橋區中正路275巷77號","121.452336666667","25.01808","6500100","板橋區"
"220052","561-BX","2017/06/29 13:49:38","新北市板橋區民生路二段120號","121.470388333333","25.0197333333333","6500100","板橋區"
"220011","609-BX","2017/06/29 13:49:29","新北市板橋區民生路二段36-1號","121.472441666667","25.0166383333333","6500100","板橋區"
"220040","637-BX","2017/06/29 13:49:44","新北市板橋區民生路二段161巷1號","121.47005","25.0201433333333","6500100","板橋區"
"220005","686-BX","2017/06/29 13:49:46","新北市板橋區民生路二段36-1號","121.472251666667","25.0166616666667","6500100","板橋區"
"220025","687-BX","2017/06/29 13:49:46","新北市板橋區金門街48號","121.433185","24.993125","6500100","板橋區"
"220042","689-BX","2017/06/29 13:49:30","新北市板橋區民生路二段120號","121.470513333333","25.0196766666667","6500100","板橋區"
"220002","741-BX","2017/06/29 13:49:43","新北市板橋區觀光街1巷1號","121.472256666667","25.01544","6500100","板橋區"
"220021","806-UM","2017/06/29 13:49:30","新北市板橋區南雅南路二段1-1號","121.454773333333","25.0037133333333","6500100","板橋區"
"220003","827-TW","2017/06/29 13:49:45","新北市板橋區民生路二段15-1號","121.472685","25.0164266666667","6500100","板橋區"
"220014","829-TW","2017/06/29 13:49:34","新北市板橋區民生路二段36-1號","121.472341666667","25.0165783333333","6500100","板橋區"
"220051","830-TW","2017/06/29 13:36:50","新北市板橋區民生路二段188號","121.470483333333","25.0203566666667","6500100","板橋區"
"220045","831-TW","2017/06/29 01:51:05","新北市板橋區民生路二段161巷3號","121.470211666667","25.0198166666667","6500100","板橋區"
"220022","895-R6","2017/06/29 13:49:34","新北市板橋區府中路57號","121.45826","25.0092116666667","6500100","板橋區"
"220046","AAC-210","2017/06/29 13:49:32","新北市板橋區民生路二段120號","121.470436666667","25.0198233333333","6500100","板橋區"
"220018","AAC-253","2017/06/29 13:49:41","新北市板橋區民生路二段17號","121.472416666667","25.0164383333333","6500100","板橋區"
