"lineid","car","time","location","longitude","latitude","cityid","cityname"
"234044","148-BY","2017/06/29 13:59:37","新北市永和區永利路248號","121.524181666667","25.0027966666667","6500400","永和區"
"234012","149-BY","2017/06/29 13:59:46","新北市永和區仁愛路287號","121.505538333333","25.0094883333333","6500400","永和區"
"234005","207-UY","2017/06/29 13:59:44","新北市中和區中和路458巷2號","121.512223333333","25.003725","6500400","永和區"
"234078","298-R6","2017/06/29 13:59:39","新北市永和區永利路81巷24號","121.522243333333","25.0037733333333","6500400","永和區"
"234036","336-UY","2017/06/29 13:59:42","新北市永和區成功路二段2號","121.526706666667","25.0011166666667","6500400","永和區"
"234062","337-UY","2017/06/29 13:59:35","新北市永和區秀朗路一段218-2號","121.520036666667","25.0029033333333","6500400","永和區"
"234084","338-UY","2017/06/29 13:59:32","新北市永和區永利路6號","121.51748","25.005965","6500400","永和區"
"234068","552-UM","2017/06/29 13:59:39","新北市永和區大新街85號","121.517991666667","25.0081066666667","6500400","永和區"
"234052","553-UM","2017/06/29 13:59:42","新北市永和區竹林路39巷34號","121.519793333333","25.0151333333333","6500400","永和區"
"234015","745-BX","2017/06/29 13:59:37","新北市永和區文化路128號","121.513003333333","25.0152666666667","6500400","永和區"
"234028","746-BX","2017/06/29 13:59:30","新北市永和區民生路67巷16號","121.523426666667","24.997125","6500400","永和區"
"234060","AAD-866","2017/06/29 13:59:47","新北市永和區中正路336號","121.517633333333","25.0000033333333","6500400","永和區"
"234040","862-TW","2017/06/29 13:59:45","新北市永和區雙和街14號","121.509558333333","25.0020216666667","6500400","永和區"
"234048","863-TW","2017/06/29 13:59:38","新北市永和區保安路264號","121.505855","25.0123166666667","6500400","永和區"
"234025","9371-KE","2017/06/29 13:59:37","新北市永和區安樂路453號","121.514306666667","25.0049933333333","6500400","永和區"
"234010","9373-KE","2017/06/29 13:59:39","新北市永和區仁愛路352巷90號","121.501248333333","25.0078183333333","6500400","永和區"
"248013","025-BX","2017/06/29 13:50:26","新北市五股區民義路一段107巷23號","121.432086666667","25.0844966666667","6501500","五股區"
"248007","095-VK","2017/06/29 13:59:40","新北市五股區中興路一段128巷2號","121.465686666667","25.0739083333333","6501500","五股區"
"248017","225-UY","2017/06/29 13:59:44","新北市五股區民義路二段17號","121.420785","25.0964166666667","6501500","五股區"
"248011","247-BX","2017/06/29 13:59:25","新北市五股區成泰路二段195巷1號","121.440281666667","25.08743","6501500","五股區"
"248015","261-SL","2017/06/29 13:59:35","新北市五股區成泰路三段543巷1號","121.45095","25.102145","6501500","五股區"
"248009","272-BY","2017/06/29 13:59:30","新北市五股區水碓一路23號","121.430631666667","25.071285","6501500","五股區"
"248003","677-BX","2017/06/29 13:59:39","新北市五股區民義路二段41-1號","121.411185","25.1036816666667","6501500","五股區"
"248001","678-BX","2017/06/29 13:59:45","新北市五股區凌雲路一段156巷1號","121.448881666667","25.10266","6501500","五股區"
"234022","9380-KE","2017/06/29 13:59:32","新北市永和區永和路二段278號","121.516001666667","25.0152483333333","6500400","永和區"
"234076","969-R7","2017/06/29 13:59:41","新北市永和區民治街59巷1號","121.518636666667","24.9978","6500400","永和區"
"234072","AAC-211","2017/06/29 13:59:45","新北市永和區豫溪街185號","121.522466666667","25.0103816666667","6500400","永和區"
"234066","AAC-212","2017/06/29 13:59:35","新北市永和區永貞路331號","121.509723333333","25.0069433333333","6500400","永和區"
"234001","AAC-295","2017/06/29 13:57:55","新北市永和區福和路328號","121.515515","25.00723","6500400","永和區"
"244019","403-UM","2017/06/29 11:03:15","新北市林口區粉寮69號","121.405116666667","25.09078","6501700","林口區"
"243005","AAD-798","2017/06/29 13:59:42","新北市泰山區明志路三段344號","121.421988333333","25.0353033333333","6501600","泰山區"
"243001","297-R6","2017/06/29 13:59:34","新北市泰山區泰林路二段385巷1號","121.42769","25.0641766666667","6501600","泰山區"
"243007","380-SR","2017/06/29 13:59:36","新北市泰山區明志路一段205號","121.432655","25.061295","6501600","泰山區"
"243006","421-VK","2017/06/29 13:59:35","新北市泰山區黎明路23號","121.420896666667","25.0626333333333","6501600","泰山區"
"243002","548-UM","2017/06/29 13:59:26","新北市泰山區辭修路26巷22號","121.429295","25.0586566666667","6501600","泰山區"
"243003","549-UM","2017/06/29 13:59:31","新北市泰山區明志路二段298巷30號","121.424688333333","25.04654","6501600","泰山區"
"243004","646-TV","2017/06/29 13:59:19","新北市泰山區福興三街162號","121.432806666667","25.0571266666667","6501600","泰山區"
"243008","680-BX","2017/06/29 13:59:31","新北市泰山區明志路二段211號","121.427455","25.0486983333333","6501600","泰山區"
"231002","002-UM","2017/06/29 13:59:39","新北市新店區中正路676號","121.533955","24.989795","6500600","新店區"
"231025","0293-UT","2017/06/29 13:59:34","新北市新店區中央路7號","121.533488333333","24.97856","6500600","新店區"
"231028","046-UY","2017/06/29 13:59:42","新北市新店區安和路三段83號","121.517923333333","24.9837966666667","6500600","新店區"
"231030","047-UY","2017/06/29 13:59:46","新北市新店區安康路一段302-2號","121.517385","24.964175","6500600","新店區"
"231018","107-UY","2017/06/29 13:59:29","新北市新店區中央路99號","121.531111666667","24.9750633333333","6500600","新店區"
"231011","108-UY","2017/06/29 13:59:39","新北市新店區中興路一段282號","121.545888333333","24.9683366666667","6500600","新店區"
"231021","187-VK","2017/06/29 13:59:27","新北市新店區自強路117號","121.546115","24.9231033333333","6500600","新店區"
"231007","189-VK","2017/06/29 12:08:33","新北市新店區安華路28-1號","121.519586666667","24.961205","6500600","新店區"
"231026","256-BX","2017/06/29 13:59:36","新北市新店區環河路29巷1號","121.536125","24.9612183333333","6500600","新店區"
"231017","AAD-862","2017/06/29 13:59:44","新北市新店區北宜路二段82巷9弄1號","121.553645","24.9524233333333","6500600","新店區"
"231029","355-BY","2017/06/29 13:59:36","新北市新店區安康路二段1-5號","121.517056666667","24.9638633333333","6500600","新店區"
"231027","3712-VJ","2017/06/29 13:59:40","新北市新店區中興路一段24-2號","121.53863","24.9582666666667","6500600","新店區"
"231024","3713-VJ","2017/06/29 13:59:34","新北市新店區新生街16號","121.54003","24.9662966666667","6500600","新店區"
"231038","4715-K9","2017/06/29 13:59:26","新北市新店區溪洲路121號","121.531158333333","24.9627783333333","6500600","新店區"
"231036","512-UM","2017/06/29 13:59:38","新北市新店區安祥路109巷3弄60號","121.477283333333","24.9609316666667","6500600","新店區"
"231023","513-UM","2017/06/29 13:59:29","新北市新店區文中路40-6號","121.5398","24.9564966666667","6500600","新店區"
"231035","515-UM","2017/06/29 13:59:43","新北市新店區安康路二段96號","121.513668333333","24.96306","6500600","新店區"
"231003","616-UM","2017/06/29 13:59:38","新北市新店區中興路一段59號","121.54003","24.9606416666667","6500600","新店區"
"231006","617-UM","2017/06/29 13:59:38","新北市新店區北宜路二段207號","121.553123333333","24.953285","6500600","新店區"
"231001","619-UM","2017/06/29 13:59:30","新北市新店區三民路24號","121.537118333333","24.9709933333333","6500600","新店區"
"231034","645-TV","2017/06/29 13:59:34","新北市新店區達觀路8巷5號","121.503766666667","24.9433616666667","6500600","新店區"
"231013","719-UM","2017/06/29 13:59:45","新北市新店區明德路64號","121.541553333333","24.9794766666667","6500600","新店區"
"231031","720-UM","2017/06/29 13:59:25","新北市新店區太平路30號","121.533353333333","24.95904","6500600","新店區"
"231005","897-TW","2017/06/29 13:59:29","新北市新店區寶中路51號","121.546725","24.9800916666667","6500600","新店區"
"231004","899-TW","2017/06/29 13:59:33","新北市新店區寶橋路13號","121.54372","24.9739083333333","6500600","新店區"
"231037","AKT-0513","2017/06/29 13:59:28","新北市新店區安康路三段207巷26弄1號","121.488241666667","24.95056","6500600","新店區"
"235030","003-UY","2017/06/29 13:59:49","新北市中和區中山路二段131巷5弄2號","121.502833333333","25.0027666666667","6500300","中和區"
"235028","005-UY","2017/06/29 13:59:42","新北市中和區泰和街12號","121.49993","25.0010516666667","6500300","中和區"
"235027","006-UY","2017/06/29 13:59:38","新北市中和區中正路542號","121.487388333333","24.9944233333333","6500300","中和區"
"235026","031-BX","2017/06/29 13:59:29","新北市中和區中山路二段340巷62號","121.49305","25.00474","6500300","中和區"
"235020","096-UM","2017/06/29 13:59:45","新北市中和區中正路1222號","121.479665","25.01081","6500300","中和區"
"235003","097-UM","2017/06/29 13:59:37","新北市中和區景平路64巷13弄1號","121.521911666667","24.9913266666667","6500300","中和區"
"235004","150-BY","2017/06/29 13:59:46","新北市中和區保健路46巷1號","121.509785","24.997","6500300","中和區"
"235022","151-BY","2017/06/29 13:59:45","新北市中和區連城路631-1號","121.476353333333","24.9916233333333","6500300","中和區"
"235019","183-VK","2017/06/29 13:59:31","新北市中和區民生街93-2號","121.46855","25.0047683333333","6500300","中和區"
"235002","185-VK","2017/06/29 13:59:40","新北市中和區大勇街43巷5號","121.517445","24.9947","6500300","中和區"
"235013","186-VK","2017/06/29 13:59:39","新北市中和區景安路167巷23號","121.50662","24.994965","6500300","中和區"
"235031","255-BX","2017/06/29 13:59:47","新北市中和區新生街268號","121.483475","24.99716","6500300","中和區"
"235008","293-VK","2017/06/29 13:59:32","新北市中和區中興街133號","121.500018333333","24.991445","6500300","中和區"
"235036","301-VK","2017/06/29 13:59:41","新北市中和區中山路二段63號","121.504183333333","25.0046766666667","6500300","中和區"
"235007","352-BY","2017/06/29 13:59:46","新北市中和區秀朗路三段52號","121.526458333333","24.995535","6500300","中和區"
"235015","376-QA","2017/06/29 13:59:25","新北市中和區忠孝街9號","121.509938333333","24.9827466666667","6500300","中和區"
"235032","377-QA","2017/06/29 13:59:29","新北市中和區圓通路265巷29號","121.496203333333","24.9925033333333","6500300","中和區"
"235025","378-QA","2017/06/29 13:59:27","新北市中和區中山路三段83號","121.475738333333","25.0058583333333","6500300","中和區"
"235014","4979-A6","2017/06/29 13:59:38","新北市中和區南山路421巷1弄1號","121.507453333333","24.9894683333333","6500300","中和區"
"235033","4980-A6","2017/06/29 13:59:34","新北市中和區中和路217巷10號","121.504383333333","25.0004566666667","6500300","中和區"
"235006","551-UM","2017/06/29 13:59:38","新北市中和區秀朗路三段22巷7號","121.525875","24.9962466666667","6500300","中和區"
"235034","558-UM","2017/06/29 13:59:37","新北市中和區圓通路46號","121.50078","24.9977266666667","6500300","中和區"
"235009","565-BX","2017/06/29 13:59:45","新北市中和區景新街469號","121.5135","24.9880233333333","6500300","中和區"
"235018","640-BX","2017/06/29 13:59:30","新北市中和區民享街35巷3號","121.474406666667","25.0039566666667","6500300","中和區"
"235024","647-TV","2017/06/29 13:59:38","新北市中和區中山路三段206號","121.471588333333","25.00646","6500300","中和區"
"235011","732-UM","2017/06/29 13:59:25","新北市中和區興南路二段36號","121.506923333333","24.98539","6500300","中和區"
"235035","783-BX","2017/06/29 13:59:27","新北市中和區立德街19號","121.48887","25.007155","6500300","中和區"
"235021","801-TS","2017/06/29 13:59:37","新北市中和區民安街25巷11號","121.480558333333","25.000295","6500300","中和區"
"235005","802-TS","2017/06/29 13:59:29","新北市中和區永貞路280號","121.513135","25.003995","6500300","中和區"
"235016","805-TS","2017/06/29 13:59:45","新北市中和區興南路二段131-6號","121.503783333333","24.9815616666667","6500300","中和區"
"235012","896-TW","2017/06/29 13:59:45","新北市中和區華新街45號","121.507798333333","24.9845883333333","6500300","中和區"
"235017","900-TW","2017/06/29 13:59:44","新北市中和區民德路290巷18號","121.467011666667","24.9958566666667","6500300","中和區"
"235003","157-BY","2017/06/29 13:59:27","新北市中和區興南路一段106號","121.509663333333","24.988915","6500300","中和區"
"235001","AAC-213","2017/06/29 13:59:41","新北市中和區大智街6號","121.520086666667","24.9919016666667","6500300","中和區"
"235023","AAC-215","2017/06/29 13:59:47","新北市中和區圓通路369巷33弄7號","121.491168333333","24.9879583333333","6500300","中和區"
"220016","013-TV","2017/06/29 13:59:49","新北市板橋區中山路二段465巷4號","121.481735","25.020775","6500100","板橋區"
"220013","072-UY","2017/06/29 13:59:33","新北市板橋區漢生東路328號","121.47161","25.00788","6500100","板橋區"
"220034","073-UY","2017/06/29 13:59:46","新北市板橋區大智街14號","121.455966666667","25.01483","6500100","板橋區"
"247019","893-R6","2017/06/29 13:59:37","新北市蘆洲區民族路422巷35號","121.473548333333","25.0935566666667","6501400","蘆洲區"
"247009","546-UM","2017/06/29 13:59:33","新北市蘆洲區集賢路224巷27號","121.481695","25.08711","6501400","蘆洲區"
"247017","500-BY","2017/06/29 13:59:45","新北市蘆洲區民族路327巷73號","121.475266666667","25.0898033333333","6501400","蘆洲區"
"247002","402-BY","2017/06/29 13:59:45","新北市蘆洲區三民路26巷31弄14號","121.47673","25.0835216666667","6501400","蘆洲區"
"247005","341-TH","2017/06/29 13:59:35","新北市蘆洲區中山一路308號","121.469728333333","25.0775083333333","6501400","蘆洲區"
"247007","339-TH","2017/06/29 13:59:30","新北市三重區三和路四段396巷43號","121.479738333333","25.0790083333333","6501400","蘆洲區"
"247001","336-TH","2017/06/29 13:59:32","新北市蘆洲區永平街32巷70號","121.460446666667","25.09346","6501400","蘆洲區"
"247013","057-VK","2017/06/29 13:59:35","新北市蘆洲區中正路168號","121.468585","25.086015","6501400","蘆洲區"
"247003","056-VK","2017/06/29 13:59:46","新北市蘆洲區長榮路20號","121.463833333333","25.082125","6501400","蘆洲區"
"247011","007-UY","2017/06/29 13:59:34","新北市蘆洲區民族路156號","121.479643333333","25.0861033333333","6501400","蘆洲區"
"247021","002-UY","2017/06/29 13:59:32","新北市蘆洲區中正路263巷2號","121.467333333333","25.0874066666667","6501400","蘆洲區"
"247015","001-UY","2017/06/29 13:59:28","新北市蘆洲區光華路18號","121.469591666667","25.0834883333333","6501400","蘆洲區"
"228005","097-TW","2017/06/29 13:50:14","新北市雙溪區三港里雙澳路91號","121.888908333333","25.0577933333333","6502600","貢寮區"
"228004","212-TW","2017/06/29 13:59:46","新北市貢寮區龍崗里嵩陽街35-1號","121.906663333333","25.0174783333333","6502600","貢寮區"
"208004","AAC-292","2017/06/29 13:59:45","新北市金山區名流路2號","121.596016666667","25.20278","6502700","金山區"
"207002","749-BX","2017/06/29 13:59:24","新北市萬里區溪底里富士坪路1-2號","121.630385","25.1498116666667","6502800","萬里區"
"207001","463-BY","2017/06/29 13:59:30","新北市萬里區磺潭里清水18號","121.637828333333","25.1977233333333","6502800","萬里區"
"252005","702-TV","2017/06/29 13:59:37","新北市三芝區橫山里橫山56-6號","121.536493333333","25.2519516666667","6502100","三芝區"
"252007","AAC-283","2017/06/29 01:03:22","新北市三芝區埔坪里埔頭坑41號","121.504511666667","25.2644333333333","6502100","三芝區"
"236066","105-UM","2017/06/29 13:59:31","新北市土城區城林路6巷80號","121.438373333333","24.9796916666667","6501300","土城區"
"236040","137-TH","2017/06/29 13:59:32","新北市土城區裕生路65-1號","121.447583333333","24.985905","6501300","土城區"
"236076","166-UM","2017/06/29 13:59:40","新北市土城區永寧路32巷10弄3號","121.428841666667","24.9610033333333","6501300","土城區"
"236028","253-BX","2017/06/29 13:59:38","新北市土城區城林路6巷80號","121.43835","24.9797166666667","6501300","土城區"
"236024","269-VK","2017/06/29 13:59:39","新北市土城區承天路20號","121.43955","24.963445","6501300","土城區"
"236012","270-VK","2017/06/29 13:59:28","新北市土城區城林路6巷80號","121.438573333333","24.979725","6501300","土城區"
"236033","271-VK","2017/06/29 13:59:33","新北市土城區城林路6巷80號","121.438676666667","24.979665","6501300","土城區"
"236018","401-BY","2017/06/29 13:59:25","新北市土城區城林路6巷80號","121.438603333333","24.9797383333333","6501300","土城區"
"236005","498-BY","2017/06/29 13:59:38","新北市土城區中央路一段365巷1弄1號","121.443421666667","24.98088","6501300","土城區"
"236056","912-UM","2017/06/29 13:59:30","新北市土城區中央路三段198號","121.430335","24.96481","6501300","土城區"
"236047","913-UM","2017/06/29 13:59:37","新北市土城區城林路6巷80號","121.438456666667","24.979775","6501300","土城區"
"236060","915-UM","2017/06/29 13:59:29","新北市土城區城林路6巷80號","121.438406666667","24.9797883333333","6501300","土城區"
"236047","970-R7","2017/06/29 13:59:35","新北市土城區中央路一段180號","121.445635","24.9865033333333","6501300","土城區"
"236052","AAC-216","2017/06/29 13:59:26","新北市土城區城林路6巷80號","121.438361666667","24.979765","6501300","土城區"
"221010","276-VK","2017/06/29 13:17:07","新北市汐止區汐萬路一段256巷3號","121.653438333333","25.07459","6501100","汐止區"
"221038","297-VK","2017/06/29 13:59:35","新北市汐止區仁愛路1-6號","121.659011666667","25.064805","6501100","汐止區"
"221002","753-BX","2017/06/29 13:59:42","台北市南港區研究院路四段21巷2號","121.60376","25.02554","6501100","汐止區"
"220027","145-BY","2017/06/29 13:59:33","新北市板橋區民權路202巷4弄2號","121.459708333333","25.0143133333333","6500100","板橋區"
"220030","610-BX","2017/06/29 13:59:36","新北市板橋區篤行路三段99號","121.426231666667","24.9846266666667","6500100","板橋區"
"220050","245-BX","2017/06/29 13:59:28","新北市板橋區文化路二段22號","121.468985","25.02436","6500100","板橋區"
"220017","258-TC","2017/06/29 13:59:39","新北市板橋區大華街15號","121.458963333333","25.0060683333333","6500100","板橋區"
"220004","276-BY","2017/06/29 13:59:39","新北市板橋區信義路148號","121.45876","24.9917216666667","6500100","板橋區"
"220020","277-BY","2017/06/29 13:59:38","新北市板橋區大觀路三段50巷79號","121.431668333333","24.99644","6500100","板橋區"
"220043","283-UM","2017/06/29 13:59:35","新北市板橋區文化路二段39號","121.468898333333","25.0250466666667","6500100","板橋區"
"220019","283-VK","2017/06/29 13:59:47","新北市板橋區忠孝路176巷13號","121.464826666667","25.0017016666667","6500100","板橋區"
"220001","285-VK","2017/06/29 13:59:40","新北市板橋區永豐街49巷5號","121.473971666667","25.01773","6500100","板橋區"
"220031","286-VK","2017/06/29 13:59:33","新北市板橋區大觀路一段38巷156弄59號","121.442801666667","25.0068266666667","6500100","板橋區"
"220029","287-VK","2017/06/29 13:59:41","新北市板橋區南雅西路二段96號","121.452411666667","25.011365","6500100","板橋區"
"220039","288-VK","2017/06/29 13:59:28","新北市板橋區民生路三段50號","121.467245","25.025085","6500100","板橋區"
"220009","293-UM","2017/06/29 13:59:34","新北市板橋區永豐街120巷5號","121.476608333333","25.0205316666667","6500100","板橋區"
"220032","296-UM","2017/06/29 13:59:34","新北市板橋區大觀路二段156巷99號","121.44111","25.0011683333333","6500100","板橋區"
"220023","297-UM","2017/06/29 13:59:43","新北市板橋區南興路20號","121.454935","25.0078233333333","6500100","板橋區"
"220010","305-R5","2017/06/29 13:59:40","新北市板橋區三民路二段245巷4弄8號","121.481003333333","25.0121133333333","6500100","板橋區"
"220041","307-R5","2017/06/29 13:59:42","新北市板橋區文化路一段90號","121.464263333333","25.0176483333333","6500100","板橋區"
"220047","317-R6","2017/06/29 13:59:42","新北市板橋區民有街18號","121.46619","25.0250383333333","6500100","板橋區"
"220012","486-VK","2017/06/29 02:26:50","新北市板橋區民生路二段36-1號","121.472656666667","25.016535","6500100","板橋區"
"220038","487-VK","2017/06/29 13:59:34","新北市板橋區文化路二段16-2號","121.46888","25.0243733333333","6500100","板橋區"
"220037","491-VK","2017/06/29 13:58:34","新北市板橋區民生路二段148號","121.471296666667","25.01989","6500100","板橋區"
"220104","560-BX","2017/06/29 13:59:19","新北市板橋區中正路325巷6號","121.454545","25.0199216666667","6500100","板橋區"
"220052","561-BX","2017/06/29 13:59:38","新北市板橋區介壽街120號","121.469833333333","25.0177233333333","6500100","板橋區"
"220011","609-BX","2017/06/29 13:59:29","新北市板橋區中山路二段135號","121.475205","25.016425","6500100","板橋區"
"220040","637-BX","2017/06/29 13:59:44","新北市板橋區萬板路165號","121.474001666667","25.0234083333333","6500100","板橋區"
"220005","686-BX","2017/06/29 13:59:43","新北市板橋區館前西路19號","121.458691666667","25.0069683333333","6500100","板橋區"
"220025","687-BX","2017/06/29 13:59:26","新北市板橋區大觀路二段431-1號","121.441183333333","24.9947133333333","6500100","板橋區"
"220042","689-BX","2017/06/29 13:59:30","新北市板橋區民生路三段20號","121.467585","25.0245116666667","6500100","板橋區"
"220002","741-BX","2017/06/29 13:59:43","新北市板橋區後埔街46號","121.460458333333","25.006075","6500100","板橋區"
"220021","806-UM","2017/06/29 13:59:30","新北市板橋區府中路32號","121.458251666667","25.0096516666667","6500100","板橋區"
"220003","827-TW","2017/06/29 13:59:45","新北市板橋區新站路3號","121.467106666667","25.011435","6500100","板橋區"
"220014","829-TW","2017/06/29 13:59:35","新北市板橋區三民路二段正隆巷12弄18號","121.477646666667","25.0135616666667","6500100","板橋區"
"220051","830-TW","2017/06/29 13:59:44","新北市板橋區懷德街233巷8號","121.480866666667","25.0288","6500100","板橋區"
"220045","831-TW","2017/06/29 13:59:32","新北市板橋區莒光路103號","121.472643333333","25.024055","6500100","板橋區"
"220022","895-R6","2017/06/29 13:59:34","新北市板橋區南雅南路一段51號","121.45588","25.0061433333333","6500100","板橋區"
"220046","AAC-210","2017/06/29 13:59:32","新北市板橋區陽明街162號","121.463481666667","25.0244683333333","6500100","板橋區"
"220018","AAC-253","2017/06/29 13:59:41","新北市板橋區四川路一段107-5號","121.459816666667","25.0050533333333","6500100","板橋區"
