"lineid","car","time","location","longitude","latitude","cityid","cityname"
"234005","207-UY","2017/06/29 14:39:44","新北市永和區中正路360號","121.51771","25.0007083333333","6500400","永和區"
"234062","337-UY","2017/06/29 14:39:35","新北市永和區中正路356號","121.51766","25.0005783333333","6500400","永和區"
"234084","338-UY","2017/06/29 14:39:32","新北市永和區光復街26-1號","121.516535","25.01738","6500400","永和區"
"234028","746-BX","2017/06/29 14:39:30","新北市中和區安樂路49號","121.512033333333","24.9933","6500400","永和區"
"234060","AAD-866","2017/06/29 14:39:28","新北市永和區秀安街19號","121.516183333333","25.0037216666667","6500400","永和區"
"234040","862-TW","2017/06/29 14:39:45","新北市永和區光復街42號","121.516713333333","25.01789","6500400","永和區"
"234048","863-TW","2017/06/29 14:39:38","新北市中和區勝利路2號","121.498763333333","25.0087666666667","6500400","永和區"
"234025","9371-KE","2017/06/29 14:39:37","新北市永和區雙和街3號","121.509773333333","25.0016933333333","6500400","永和區"
"248013","025-BX","2017/06/29 14:39:26","新北市五股區五福路52巷11弄4號","121.434021666667","25.0900733333333","6501500","五股區"
"248007","095-VK","2017/06/29 14:39:40","新北市五股區四維路153號","121.467643333333","25.0745316666667","6501500","五股區"
"248017","225-UY","2017/06/29 14:26:04","新北市五股區外寮路9-25號","121.415893333333","25.0791633333333","6501500","五股區"
"248011","247-BX","2017/06/29 14:39:45","新北市五股區民義路一段71-2號","121.435368333333","25.0851333333333","6501500","五股區"
"248009","272-BY","2017/06/29 14:39:30","新北市五股區登林路74-3號","121.431088333333","25.0693683333333","6501500","五股區"
"248003","677-BX","2017/06/29 14:39:39","新北市五股區成泰路二段7號","121.437036666667","25.0813266666667","6501500","五股區"
"248001","678-BX","2017/06/29 14:39:45","新北市五股區成泰路三段311-2號","121.447763333333","25.0949216666667","6501500","五股區"
"234072","AAC-211","2017/06/29 14:39:45","新北市永和區環河東路二段8號","121.522145","25.013385","6500400","永和區"
"234066","AAC-212","2017/06/29 14:39:35","新北市永和區保平路292巷4號","121.507938333333","25.0048066666667","6500400","永和區"
"234001","AAC-295","2017/06/29 14:37:55","新北市永和區大新街62號","121.516343333333","25.008265","6500400","永和區"
"244003","248-BX","2017/06/29 14:39:44","新北市林口區林口路76號","121.389665","25.080715","6501700","林口區"
"244019","403-UM","2017/06/29 11:03:15","新北市林口區粉寮69號","121.405116666667","25.09078","6501700","林口區"
"243005","AAD-798","2017/06/29 14:39:40","新北市泰山區應化街7號","121.423895","25.0437316666667","6501600","泰山區"
"243001","297-R6","2017/06/29 14:39:34","新北市泰山區泰林路二段142巷13弄7號","121.434636666667","25.06069","6501600","泰山區"
"243007","380-SR","2017/06/29 14:39:36","新北市泰山區明志路二段235號","121.427378333333","25.0482616666667","6501600","泰山區"
"243006","421-VK","2017/06/29 14:39:35","新北市泰山區明志路一段180號","121.432998333333","25.0623083333333","6501600","泰山區"
"243002","548-UM","2017/06/29 14:39:46","新北市泰山區明志路二段136巷3-1號","121.426971666667","25.05109","6501600","泰山區"
"243003","549-UM","2017/06/29 14:39:31","新北市泰山區明志路三段196巷21弄18號","121.422838333333","25.0389083333333","6501600","泰山區"
"243004","646-TV","2017/06/29 14:39:09","新北市泰山區楓江路17號","121.433905","25.062435","6501600","泰山區"
"243008","680-BX","2017/06/29 14:39:31","新北市泰山區新北大道六段369號","121.422565","25.0328016666667","6501600","泰山區"
"231002","002-UM","2017/06/29 14:39:40","新北市新店區中正路468號","121.533978333333","24.9796233333333","6500600","新店區"
"231025","0293-UT","2017/06/29 14:39:34","新北市新店區民族路161號","121.537743333333","24.97674","6500600","新店區"
"231028","046-UY","2017/06/29 14:39:42","新北市新店區安德街55號","121.510758333333","24.9620783333333","6500600","新店區"
"231030","047-UY","2017/06/29 14:39:26","新北市新店區安民街67-3號","121.516265","24.96671","6500600","新店區"
"231018","107-UY","2017/06/29 14:39:29","新北市新店區中央路216-1號","121.529868333333","24.9732716666667","6500600","新店區"
"231011","108-UY","2017/06/29 14:39:39","新北市新店區寶橋路76-1號","121.54678","24.97489","6500600","新店區"
"231021","187-VK","2017/06/29 14:39:27","新北市新店區新烏路二段50巷3號","121.5485","24.9281183333333","6500600","新店區"
"231007","189-VK","2017/06/29 12:08:33","新北市新店區安華路28-1號","121.519586666667","24.961205","6500600","新店區"
"231017","AAD-862","2017/06/29 14:39:44","新北市新店區北宜路三段83-1號","121.577056666667","24.9517483333333","6500600","新店區"
"231029","355-BY","2017/06/29 14:39:36","新北市新店區安康路三段312號","121.487168333333","24.9518116666667","6500600","新店區"
"231027","3712-VJ","2017/06/29 14:39:40","新北市新店區德正街19巷2號","121.543703333333","24.9724183333333","6500600","新店區"
"231038","4715-K9","2017/06/29 14:39:26","新北市新店區安康路一段76巷34-1號","121.528543333333","24.9634683333333","6500600","新店區"
"231036","512-UM","2017/06/29 14:39:38","新北市新店區安祥路106巷315號","121.472313333333","24.9582716666667","6500600","新店區"
"231023","513-UM","2017/06/29 14:39:43","新北市新店區檳榔路39號","121.542615","24.9634883333333","6500600","新店區"
"231035","515-UM","2017/06/29 14:39:31","新北市新店區安康路二段118-12號","121.513225","24.9634383333333","6500600","新店區"
"231003","616-UM","2017/06/29 14:39:37","新北市新店區中正路5號","121.54581","24.9691166666667","6500600","新店區"
"231006","617-UM","2017/06/29 14:39:38","新北市新店區北宜路二段271號","121.554815","24.953585","6500600","新店區"
"231001","619-UM","2017/06/29 14:39:30","新北市新店區中正路8號","121.545651666667","24.96946","6500600","新店區"
"231034","645-TV","2017/06/29 14:39:34","新北市新店區黎明路52巷7號","121.50207","24.9487116666667","6500600","新店區"
"231013","719-UM","2017/06/29 14:39:45","新北市新店區明德路15號","121.54217","24.9769333333333","6500600","新店區"
"231005","897-TW","2017/06/29 14:39:34","新北市新店區北新路三段59-1號","121.541778333333","24.980865","6500600","新店區"
"231004","899-TW","2017/06/29 14:39:33","新北市新店區中正路263-5號","121.538183333333","24.97389","6500600","新店區"
"231037","AKT-0513","2017/06/29 14:39:28","新北市新店區車子路30號","121.504256666667","24.952175","6500600","新店區"
"235030","003-UY","2017/06/29 14:39:34","新北市中和區景新街137號","121.50609","24.9969416666667","6500300","中和區"
"235028","005-UY","2017/06/29 14:39:42","新北市中和區南山路127巷8弄1號","121.502931666667","24.9972633333333","6500300","中和區"
"235027","006-UY","2017/06/29 14:39:38","新北市中和區連城路174號","121.493368333333","24.9971533333333","6500300","中和區"
"235026","031-BX","2017/06/29 14:39:29","新北市中和區中山路二段492號","121.486996666667","25.0049566666667","6500300","中和區"
"235020","096-UM","2017/06/29 14:39:45","新北市中和區員山路516號","121.479195","25.009455","6500300","中和區"
"235003","097-UM","2017/06/29 14:39:37","新北市中和區景平路274-1號","121.514245","24.99256","6500300","中和區"
"235004","150-BY","2017/06/29 14:39:26","新北市中和區宜安路20號","121.513236666667","24.995745","6500300","中和區"
"235022","151-BY","2017/06/29 14:39:45","新北市中和區員山路124巷10號","121.481888333333","24.9959516666667","6500300","中和區"
"235019","183-VK","2017/06/29 14:39:32","新北市中和區德光路23號","121.470805","25.0043","6500300","中和區"
"235002","185-VK","2017/06/29 14:39:40","新北市中和區立人街11號","121.521633333333","24.994065","6500300","中和區"
"235013","186-VK","2017/06/29 14:39:39","新北市中和區景新街273巷16號","121.510171666667","24.9938633333333","6500300","中和區"
"235031","255-BX","2017/06/29 14:39:47","新北市中和區新生街242巷11弄1號","121.482951666667","24.9975966666667","6500300","中和區"
"235008","293-VK","2017/06/29 14:39:41","新北市中和區南山路160號","121.504446666667","24.9917366666667","6500300","中和區"
"235036","301-VK","2017/06/29 14:39:41","新北市中和區廣福路30號","121.504705","25.00247","6500300","中和區"
"235007","352-BY","2017/06/29 14:39:46","新北市中和區景平路530號","121.502848333333","24.9945166666667","6500300","中和區"
"235015","376-QA","2017/06/29 14:39:45","新北市中和區板南路187號","121.500101666667","24.992835","6500300","中和區"
"235032","377-QA","2017/06/29 14:39:29","新北市中和區枋寮街55號","121.501313333333","25.0010283333333","6500300","中和區"
"235025","378-QA","2017/06/29 14:39:48","新北市中和區員山路263號","121.481276666667","24.9992366666667","6500300","中和區"
"235014","4979-A6","2017/06/29 14:39:37","新北市中和區景平路241巷82弄41號","121.506213333333","24.9924533333333","6500300","中和區"
"235006","551-UM","2017/06/29 14:39:38","新北市中和區中和路260-1號","121.50823","24.9994883333333","6500300","中和區"
"235034","558-UM","2017/06/29 14:39:37","新北市中和區中山路二段228-1號","121.498706666667","25.0028033333333","6500300","中和區"
"235009","565-BX","2017/06/29 14:39:45","新北市中和區景新街368號","121.512206666667","24.990375","6500300","中和區"
"235018","640-BX","2017/06/29 14:39:30","新北市中和區國光街112巷22弄20號","121.470488333333","25.0023766666667","6500300","中和區"
"235024","647-TV","2017/06/29 14:39:38","新北市中和區新生街45號","121.483348333333","25.002895","6500300","中和區"
"235011","732-UM","2017/06/29 14:39:45","新北市中和區景安路203巷1號","121.505173333333","24.9926983333333","6500300","中和區"
"235035","783-BX","2017/06/29 14:39:27","新北市中和區連城路270號","121.484693333333","24.9962383333333","6500300","中和區"
"235021","801-TS","2017/06/29 14:39:33","新北市中和區員山路376號","121.480705","25.0041666666667","6500300","中和區"
"235005","802-TS","2017/06/29 14:39:29","新北市中和區宜安路141號","121.509383333333","24.9985133333333","6500300","中和區"
"235016","805-TS","2017/06/29 14:39:45","新北市中和區華新街143巷72號","121.506378333333","24.9791066666667","6500300","中和區"
"235012","896-TW","2017/06/29 14:39:45","新北市中和區四維街21號","121.512946666667","24.9870433333333","6500300","中和區"
"235017","900-TW","2017/06/29 14:39:44","新北市中和區民德路197號","121.468996666667","24.998265","6500300","中和區"
"235003","157-BY","2017/06/29 14:39:27","新北市中和區忠孝街92號","121.511681666667","24.9844616666667","6500300","中和區"
"235001","AAC-213","2017/06/29 14:39:41","新北市中和區秀朗路三段60巷42號","121.5249","24.9951166666667","6500300","中和區"
"235023","AAC-215","2017/06/29 14:39:47","新北市中和區圓通路303號","121.493425","24.99083","6500300","中和區"
"220016","013-TV","2017/06/29 14:39:29","新北市板橋區中山路二段412巷7號","121.4833","25.0206733333333","6500100","板橋區"
"220013","072-UY","2017/06/29 14:39:29","新北市板橋區國泰街75巷2弄9號","121.4672","25.0059816666667","6500100","板橋區"
"220034","073-UY","2017/06/29 14:39:36","新北市板橋區國光路173巷3弄2號","121.460418333333","25.01887","6500100","板橋區"
"247019","893-R6","2017/06/29 14:39:37","新北市蘆洲區民義街37號","121.4719","25.0893166666667","6501400","蘆洲區"
"247009","546-UM","2017/06/29 14:39:33","新北市蘆洲區信義路222巷38號","121.480951666667","25.0854483333333","6501400","蘆洲區"
"247017","500-BY","2017/06/29 14:39:45","新北市蘆洲區民族路314巷7號","121.477695","25.0904616666667","6501400","蘆洲區"
"247002","402-BY","2017/06/29 14:39:45","新北市蘆洲區復興路58號","121.473786666667","25.0861533333333","6501400","蘆洲區"
"247005","341-TH","2017/06/29 14:39:39","新北市蘆洲區長安街22巷31弄23號","121.463971666667","25.0805866666667","6501400","蘆洲區"
"247007","339-TH","2017/06/29 14:39:31","新北市蘆洲區中山一路263號","121.472866666667","25.0799683333333","6501400","蘆洲區"
"247023","337-TH","2017/06/29 14:39:39","新北市蘆洲區中山二路220號","121.469796666667","25.0798516666667","6501400","蘆洲區"
"247001","336-TH","2017/06/29 14:39:32","新北市蘆洲區永樂街38巷45弄36號","121.456878333333","25.09051","6501400","蘆洲區"
"247013","057-VK","2017/06/29 14:39:35","新北市蘆洲區成功路164號","121.471411666667","25.083615","6501400","蘆洲區"
"247003","056-VK","2017/06/29 14:39:46","新北市蘆洲區長安街214號","121.458601666667","25.0843366666667","6501400","蘆洲區"
"247011","007-UY","2017/06/29 14:39:34","新北市蘆洲區集賢路224巷66號","121.48078","25.0881683333333","6501400","蘆洲區"
"247021","002-UY","2017/06/29 14:39:32","新北市蘆洲區三民路456號","121.467155","25.0903416666667","6501400","蘆洲區"
"247015","001-UY","2017/06/29 14:39:27","新北市蘆洲區正和街34號","121.469633333333","25.08196","6501400","蘆洲區"
"228005","097-TW","2017/06/29 14:39:34","新北市貢寮區美豐里雞母嶺街6-6號","121.902043333333","25.064235","6502600","貢寮區"
"228004","212-TW","2017/06/29 14:39:46","新北市貢寮區福隆里龜壽谷街40號","121.946761666667","25.0143016666667","6502600","貢寮區"
"208004","AAC-292","2017/06/29 14:39:43","新北市金山區兩湖里葵扇湖15號","121.593646666667","25.2343166666667","6502700","金山區"
"207002","749-BX","2017/06/29 14:38:44","新北市萬里區溪底里香員林路16號","121.634808333333","25.1600583333333","6502800","萬里區"
"207001","463-BY","2017/06/29 14:39:30","新北市萬里區雙興里豐稟路22號","121.640951666667","25.1868283333333","6502800","萬里區"
"252005","702-TV","2017/06/29 14:39:37","新北市三芝區埔坪里埔頭坑143號","121.51199","25.2483","6502100","三芝區"
"252007","AAC-283","2017/06/29 01:03:22","新北市三芝區埔坪里埔頭坑41號","121.504511666667","25.2644333333333","6502100","三芝區"
"237001","361-BY","2017/06/29 14:38:36","新北市三峽區中山路459巷137號","121.349378333333","24.9335316666667","6500900","三峽區"
"236066","105-UM","2017/06/29 14:39:31","新北市土城區永豐路211-2號","121.474663333333","24.97595","6501300","土城區"
"236040","137-TH","2017/06/29 14:39:32","新北市土城區學成路108巷11號","121.450186666667","24.9896516666667","6501300","土城區"
"236076","166-UM","2017/06/29 14:39:43","新北市土城區中央路四段52巷32號","121.419616666667","24.9608283333333","6501300","土城區"
"236028","253-BX","2017/06/29 14:39:38","新北市土城區中華路二段90號","121.438378333333","24.974825","6501300","土城區"
"236024","269-VK","2017/06/29 14:39:43","新北市土城區忠義路47號","121.440556666667","24.96934","6501300","土城區"
"236012","270-VK","2017/06/29 14:39:48","新北市土城區清水路230-6號","121.46141","24.9823066666667","6501300","土城區"
"236033","271-VK","2017/06/29 14:39:33","新北市土城區明德路一段291巷11弄20號","121.460915","24.97605","6501300","土城區"
"236018","401-BY","2017/06/29 14:39:45","新北市土城區延吉街256號","121.46629","24.9845816666667","6501300","土城區"
"236056","912-UM","2017/06/29 14:39:30","新北市土城區中央路四段35號","121.42321","24.96201","6501300","土城區"
"236047","913-UM","2017/06/29 14:39:37","新北市土城區明德路一段6-1號","121.46486","24.9856216666667","6501300","土城區"
"236060","915-UM","2017/06/29 14:39:39","新北市土城區延壽路75巷21弄1號","121.468718333333","24.99228","6501300","土城區"
"236047","970-R7","2017/06/29 14:39:35","新北市土城區學府路一段202號","121.452625","24.9856183333333","6501300","土城區"
"236052","AAC-216","2017/06/29 14:39:26","新北市土城區中華路一段51號","121.445653333333","24.988225","6501300","土城區"
"221010","276-VK","2017/06/29 13:17:07","新北市汐止區汐萬路一段256巷3號","121.653438333333","25.07459","6501100","汐止區"
"221032","280-BY","2017/06/29 14:39:33","台北市南港區南深路35-3號","121.620286666667","25.0353633333333","6501100","汐止區"
"221038","297-VK","2017/06/29 14:39:35","新北市汐止區中興路110巷3-1號","121.63347","25.06392","6501100","汐止區"
"220027","145-BY","2017/06/29 14:39:39","新北市板橋區民權路260巷1弄40號","121.458816666667","25.0162966666667","6500100","板橋區"
"220030","610-BX","2017/06/29 14:39:36","新北市板橋區金門街301號","121.429996666667","24.9865033333333","6500100","板橋區"
"220050","245-BX","2017/06/29 14:39:28","新北市板橋區莊敬路208巷8弄1號","121.471475","25.0206333333333","6500100","板橋區"
"220017","258-TC","2017/06/29 14:39:39","新北市板橋區華興街31巷12號","121.458335","25.004065","6500100","板橋區"
"220004","276-BY","2017/06/29 14:39:37","新北市板橋區四川路二段47巷1弄1號","121.45411","24.995055","6500100","板橋區"
"220020","277-BY","2017/06/29 14:39:38","新北市板橋區金門街253巷12號","121.432931666667","24.98828","6500100","板橋區"
"220043","283-UM","2017/06/29 14:39:44","新北市板橋區銘傳街51號","121.469786666667","25.031775","6500100","板橋區"
"220019","283-VK","2017/06/29 14:39:26","新北市板橋區四川路一段325巷3弄5號","121.459446666667","25.000535","6500100","板橋區"
"220001","285-VK","2017/06/29 14:39:44","新北市板橋區中山路二段148巷9號","121.476946666667","25.0166733333333","6500100","板橋區"
"220031","286-VK","2017/06/29 14:39:46","新北市板橋區大觀路二段174巷134號","121.441483333333","25.0023666666667","6500100","板橋區"
"220029","287-VK","2017/06/29 14:39:21","新北市板橋區大觀路一段75巷11號","121.447708333333","25.0044083333333","6500100","板橋區"
"220039","288-VK","2017/06/29 14:39:28","新北市板橋區長江路一段48巷9號","121.459218333333","25.02847","6500100","板橋區"
"220009","293-UM","2017/06/29 14:39:33","新北市板橋區板新路238號","121.46829","25.0160383333333","6500100","板橋區"
"220032","296-UM","2017/06/29 14:39:34","新北市板橋區滿平街84巷100弄5號","121.426275","24.9864066666667","6500100","板橋區"
"220023","297-UM","2017/06/29 14:39:43","新北市板橋區中正路289巷25號","121.454696666667","25.0189933333333","6500100","板橋區"
"220010","305-R5","2017/06/29 14:39:44","新北市板橋區三民路二段29巷13號","121.481903333333","25.018095","6500100","板橋區"
"220041","307-R5","2017/06/29 14:39:42","新北市板橋區文化路二段76號","121.46942","25.0251383333333","6500100","板橋區"
"220047","317-R6","2017/06/29 14:39:42","新北市板橋區四維路269巷55號","121.460938333333","25.0272283333333","6500100","板橋區"
"220012","486-VK","2017/06/29 14:39:47","新北市板橋區中山路一段139-5號","121.462413333333","25.0112816666667","6500100","板橋區"
"220038","487-VK","2017/06/29 14:39:34","新北市板橋區民權路178號","121.459498333333","25.0133633333333","6500100","板橋區"
"220037","491-VK","2017/06/29 14:39:14","新北市板橋區雙十路二段167號","121.474111666667","25.0283116666667","6500100","板橋區"
"220104","560-BX","2017/06/29 14:39:39","新北市板橋區新生街98巷14號","121.458858333333","25.0217716666667","6500100","板橋區"
"220052","561-BX","2017/06/29 14:39:38","新北市板橋區文化路一段288號","121.467448333333","25.0215266666667","6500100","板橋區"
"220011","609-BX","2017/06/29 14:39:29","新北市板橋區三民路二段140號","121.47915","25.0159483333333","6500100","板橋區"
"220040","637-BX","2017/06/29 14:39:44","新北市板橋區懷德街209巷16號","121.481948333333","25.0297266666667","6500100","板橋區"
"220005","686-BX","2017/06/29 14:39:46","新北市板橋區和平路153號","121.46337","24.9956016666667","6500100","板橋區"
"220025","687-BX","2017/06/29 14:39:45","新北市板橋區僑中二街8巷1號","121.447128333333","25.0111316666667","6500100","板橋區"
"220042","689-BX","2017/06/29 14:39:30","新北市板橋區英士路54號","121.46102","25.0247416666667","6500100","板橋區"
"220002","741-BX","2017/06/29 14:39:43","新北市板橋區忠孝路239巷20號","121.466886666667","25.0033866666667","6500100","板橋區"
"220021","806-UM","2017/06/29 14:39:30","新北市板橋區新生街92號","121.458235","25.0218133333333","6500100","板橋區"
"220003","827-TW","2017/06/29 14:39:45","新北市板橋區國慶路167巷2號","121.462128333333","24.9964116666667","6500100","板橋區"
"220014","829-TW","2017/06/29 14:39:39","新北市板橋區長安街255巷39號","121.472353333333","25.01117","6500100","板橋區"
"220051","830-TW","2017/06/29 14:39:29","新北市板橋區雙十路二段72號","121.475321666667","25.0279433333333","6500100","板橋區"
"220045","831-TW","2017/06/29 14:39:35","新北市板橋區民生路二段226巷15號","121.470515","25.0219733333333","6500100","板橋區"
"220022","895-R6","2017/06/29 14:39:34","新北市板橋區館前西路150-5號","121.455573333333","25.0085866666667","6500100","板橋區"
"220046","AAC-210","2017/06/29 14:39:32","新北市板橋區建國街127號","121.460958333333","25.017705","6500100","板橋區"
"220018","AAC-253","2017/06/29 14:39:41","新北市板橋區四川路一段30號","121.459508333333","25.00622","6500100","板橋區"
