"lineid","car","time","location","longitude","latitude","cityid","cityname"
"234062","337-UY","2017/06/29 14:59:35","新北市三重區大有街25號","121.467696666667","25.0645533333333","6500400","永和區"
"234028","746-BX","2017/06/29 14:59:30","新北市五股區新五路二段372巷20號","121.447735","25.0868583333333","6500400","永和區"
"248007","095-VK","2017/06/29 14:59:40","新北市五股區四維路155巷36弄16號","121.46688","25.07516","6501500","五股區"
"248017","225-UY","2017/06/29 14:26:04","新北市五股區外寮路9-25號","121.415893333333","25.0791633333333","6501500","五股區"
"248011","247-BX","2017/06/29 14:59:25","新北市五股區六合街107號","121.429783333333","25.0905333333333","6501500","五股區"
"248009","272-BY","2017/06/29 14:59:30","新北市五股區成泰路一段7巷16號","121.43315","25.0668383333333","6501500","五股區"
"248003","677-BX","2017/06/29 14:59:39","新北市五股區成泰路一段8巷2-3號","121.43487","25.0668666666667","6501500","五股區"
"244003","248-BX","2017/06/29 14:59:44","新北市林口區竹林路266號","121.38966","25.0807566666667","6501700","林口區"
"244019","403-UM","2017/06/29 11:03:15","新北市林口區粉寮69號","121.405116666667","25.09078","6501700","林口區"
"243005","AAD-798","2017/06/29 14:59:40","新北市泰山區中央路1巷10號","121.427305","25.0439666666667","6501600","泰山區"
"243001","297-R6","2017/06/29 14:59:34","新北市泰山區泰林路二段343號","121.429133333333","25.0635233333333","6501600","泰山區"
"243007","380-SR","2017/06/29 14:59:36","新北市泰山區仁愛路88號","121.432975","25.0553483333333","6501600","泰山區"
"243006","421-VK","2017/06/29 14:59:35","新北市泰山區泰林路三段102號","121.416758333333","25.0660716666667","6501600","泰山區"
"243002","548-UM","2017/06/29 14:59:26","新北市泰山區公園路4號","121.42996","25.05402","6501600","泰山區"
"243003","549-UM","2017/06/29 14:59:31","新北市新莊區壽山路160巷4號","121.41718","25.0315166666667","6501600","泰山區"
"243004","646-TV","2017/06/29 14:58:41","新北市泰山區文化街29號","121.435006666667","25.0635783333333","6501600","泰山區"
"243008","680-BX","2017/06/29 14:59:31","新北市泰山區新生路27號","121.42722","25.04551","6501600","泰山區"
"231002","002-UM","2017/06/29 14:59:45","新北市新店區民權路139號","121.534715","24.9826233333333","6500600","新店區"
"231025","0293-UT","2017/06/29 14:59:34","新北市新店區大同街25號","121.538783333333","24.9806783333333","6500600","新店區"
"231028","046-UY","2017/06/29 14:59:42","新北市新店區安豐路46號","121.500033333333","24.9549533333333","6500600","新店區"
"231018","107-UY","2017/06/29 14:59:29","新北市新店區中央路226號","121.529445","24.97286","6500600","新店區"
"231011","108-UY","2017/06/29 14:59:39","新北市新店區中興路三段205巷7弄1號","121.543203333333","24.981495","6500600","新店區"
"231021","187-VK","2017/06/29 14:59:47","新北市新店區永福路54號","121.558105","24.92871","6500600","新店區"
"231007","189-VK","2017/06/29 12:08:33","新北市新店區安華路28-1號","121.519586666667","24.961205","6500600","新店區"
"231026","256-BX","2017/06/29 14:59:38","新北市新店區博愛街9巷2號","121.540821666667","24.97301","6500600","新店區"
"231017","AAD-862","2017/06/29 14:59:44","新北市新店區銀河路66-6號","121.578863333333","24.9582666666667","6500600","新店區"
"231029","355-BY","2017/06/29 14:59:36","新北市新店區錦秀路55號","121.479073333333","24.9433183333333","6500600","新店區"
"231027","3712-VJ","2017/06/29 14:59:40","新北市新店區安民街133巷26號","121.515415","24.9694683333333","6500600","新店區"
"231024","3713-VJ","2017/06/29 14:59:41","新北市新店區力行路30號","121.53918","24.964695","6500600","新店區"
"231036","512-UM","2017/06/29 14:59:38","新北市新店區安祥路102巷46弄65號","121.486651666667","24.963445","6500600","新店區"
"231023","513-UM","2017/06/29 14:59:29","新北市新店區檳榔路109號","121.544471666667","24.9617116666667","6500600","新店區"
"231035","515-UM","2017/06/29 14:59:28","新北市新店區永安街74巷17號","121.519251666667","24.9858816666667","6500600","新店區"
"231003","616-UM","2017/06/29 14:59:38","新北市新店區中興路二段229號","121.547536666667","24.97483","6500600","新店區"
"231006","617-UM","2017/06/29 14:59:38","新北市新店區新坡一街102號","121.547728333333","24.963825","6500600","新店區"
"231001","619-UM","2017/06/29 14:59:30","新北市新店區中正路274號","121.538886666667","24.973675","6500600","新店區"
"231034","645-TV","2017/06/29 14:59:34","新北市新店區玫瑰路4-1號","121.493595","24.9513633333333","6500600","新店區"
"231039","718-UY","2017/06/29 14:59:43","新北市新店區寶安街30號","121.542075","24.9824366666667","6500600","新店區"
"231031","720-UM","2017/06/29 14:59:45","新北市新店區安泰路60巷96號","121.483998333333","24.9453083333333","6500600","新店區"
"231005","897-TW","2017/06/29 14:59:29","新北市新店區復興路2號","121.532335","24.9882566666667","6500600","新店區"
"231004","899-TW","2017/06/29 14:59:37","新北市新店區民族路41號","121.540648333333","24.9787","6500600","新店區"
"231037","AKT-0513","2017/06/29 14:59:28","新北市新店區安德街148巷31號","121.506713333333","24.9610083333333","6500600","新店區"
"235030","003-UY","2017/06/29 14:59:47","新北市中和區光華街32號","121.504853333333","25.00408","6500300","中和區"
"235026","031-BX","2017/06/29 14:59:29","新北市中和區中山路二段379號","121.487135","25.00483","6500300","中和區"
"235020","096-UM","2017/06/29 14:59:45","新北市中和區中山路三段130號","121.47407","25.006395","6500300","中和區"
"235003","097-UM","2017/06/29 14:59:37","新北市永和區中正路29號","121.514061666667","24.9959616666667","6500300","中和區"
"235004","150-BY","2017/06/29 14:59:46","新北市中和區景安路79巷23號","121.507098333333","24.99668","6500300","中和區"
"235022","151-BY","2017/06/29 14:59:25","新北市中和區員山路148巷19號","121.482063333333","24.99714","6500300","中和區"
"235002","185-VK","2017/06/29 14:59:40","新北市中和區自立路15巷1號","121.522505","24.9962716666667","6500300","中和區"
"235013","186-VK","2017/06/29 14:59:39","新北市中和區景平路385巷42-1號","121.501515","24.99439","6500300","中和區"
"235031","255-BX","2017/06/29 14:59:47","新北市中和區中正路751巷3弄14號","121.4843","24.9992716666667","6500300","中和區"
"235008","293-VK","2017/06/29 14:59:31","新北市中和區南山路176號","121.505496666667","24.9908516666667","6500300","中和區"
"235036","301-VK","2017/06/29 14:59:41","新北市中和區連城路227號","121.494105","24.9974833333333","6500300","中和區"
"235007","352-BY","2017/06/29 14:59:46","新北市中和區華新街232巷8號","121.505848333333","24.9820366666667","6500300","中和區"
"235015","376-QA","2017/06/29 14:59:45","新北市中和區中興街233巷8弄11號","121.500936666667","24.9891866666667","6500300","中和區"
"235032","377-QA","2017/06/29 14:59:29","新北市中和區中山路二段252號","121.497578333333","25.0027316666667","6500300","中和區"
"235014","4979-A6","2017/06/29 14:59:37","新北市中和區安樂路60巷2號","121.512288333333","24.99306","6500300","中和區"
"235033","4980-A6","2017/06/29 14:59:34","新北市中和區景新街34巷3-1號","121.503408333333","24.9988966666667","6500300","中和區"
"235034","558-UM","2017/06/29 14:59:37","新北市中和區連勝街21號","121.498603333333","24.9980816666667","6500300","中和區"
"235018","640-BX","2017/06/29 14:59:30","新北市中和區莒光路217號","121.467946666667","24.9938333333333","6500300","中和區"
"235011","732-UM","2017/06/29 14:59:25","新北市中和區和平街84號","121.507625","24.99123","6500300","中和區"
"235035","783-BX","2017/06/29 14:59:27","新北市中和區建八路1號","121.485683333333","24.9986283333333","6500300","中和區"
"235021","801-TS","2017/06/29 14:59:33","新北市中和區民樂路81號","121.48463","25.0012683333333","6500300","中和區"
"235005","802-TS","2017/06/29 14:59:29","新北市中和區宜安路66號","121.511426666667","24.997125","6500300","中和區"
"235016","805-TS","2017/06/29 14:59:24","新北市中和區華新街144巷9號","121.507466666667","24.98317","6500300","中和區"
"235012","896-TW","2017/06/29 14:59:25","新北市中和區忠孝街5巷9號","121.509221666667","24.9831366666667","6500300","中和區"
"235017","900-TW","2017/06/29 14:59:44","新北市中和區民德路146巷7弄1號","121.46771","25.0004833333333","6500300","中和區"
"235003","157-BY","2017/06/29 14:59:27","新北市中和區興南路一段93巷77號","121.510458333333","24.98652","6500300","中和區"
"235001","AAC-213","2017/06/29 14:59:41","新北市永和區成功路二段179-1號","121.526588333333","24.9966133333333","6500300","中和區"
"235023","AAC-215","2017/06/29 14:59:47","新北市中和區圓通路337號","121.491663333333","24.9905466666667","6500300","中和區"
"220016","013-TV","2017/06/29 14:59:29","新北市板橋區中山路二段412巷29弄17號","121.484313333333","25.0203033333333","6500100","板橋區"
"220013","072-UY","2017/06/29 14:59:48","新北市板橋區民族路276巷13號","121.469688333333","25.006075","6500100","板橋區"
"247002","402-BY","2017/06/29 14:59:45","新北市蘆洲區復興路58號","121.473773333333","25.0861166666667","6501400","蘆洲區"
"247005","341-TH","2017/06/29 14:59:35","新北市五股區新城六路237號","121.448523333333","25.0918116666667","6501400","蘆洲區"
"247013","057-VK","2017/06/29 14:59:35","新北市蘆洲區長榮路98號","121.462225","25.083755","6501400","蘆洲區"
"228004","212-TW","2017/06/29 14:59:26","新北市貢寮區雙玉里田寮洋街1號","121.928056666667","25.0182583333333","6502600","貢寮區"
"227010","400-TW","2017/06/29 14:55:07","新北市雙溪區三貂里政光路3-1號","121.850935","25.0630583333333","6502500","雙溪區"
"208004","AAC-292","2017/06/29 14:59:45","新北市金山區西湖里西勢湖6號","121.614295","25.2441","6502700","金山區"
"207002","749-BX","2017/06/29 14:59:44","新北市萬里區崁腳里內中福路103號","121.653243333333","25.162895","6502800","萬里區"
"207001","463-BY","2017/06/29 14:58:30","新北市萬里區雙興里豐稟路6-1號","121.648951666667","25.1851383333333","6502800","萬里區"
"252005","702-TV","2017/06/29 14:59:37","新北市三芝區古庄里山豬堀1-1號","121.5012","25.251195","6502100","三芝區"
"252007","AAC-283","2017/06/29 01:03:22","新北市三芝區埔坪里埔頭坑41號","121.504511666667","25.2644333333333","6502100","三芝區"
"237001","361-BY","2017/06/29 14:38:36","新北市三峽區中山路459巷137號","121.349378333333","24.9335316666667","6500900","三峽區"
"236066","105-UM","2017/06/29 14:59:31","新北市土城區中央路一段291巷14號","121.444995","24.9837083333333","6501300","土城區"
"236040","137-TH","2017/06/29 14:59:32","新北市土城區學府路一段254號","121.451415","24.9844466666667","6501300","土城區"
"236076","166-UM","2017/06/29 14:59:40","新北市土城區中央路四段55-12號","121.418756666667","24.95704","6501300","土城區"
"236028","253-BX","2017/06/29 14:59:38","新北市土城區福仁街65號","121.43955","24.9746483333333","6501300","土城區"
"236024","269-VK","2017/06/29 14:59:39","新北市土城區中央路二段246號","121.441826666667","24.97487","6501300","土城區"
"236012","270-VK","2017/06/29 14:59:28","新北市土城區立德路29巷15號","121.46343","24.9884933333333","6501300","土城區"
"236033","271-VK","2017/06/29 14:59:33","新北市土城區仁愛路18號","121.460716666667","24.98033","6501300","土城區"
"236018","401-BY","2017/06/29 14:59:45","新北市土城區延吉街170號","121.468386666667","24.9853466666667","6501300","土城區"
"236056","912-UM","2017/06/29 14:59:30","新北市土城區金城路一段112號","121.446786666667","24.9754933333333","6501300","土城區"
"236047","913-UM","2017/06/29 14:59:38","新北市土城區青雲路309號","121.459021666667","24.9791683333333","6501300","土城區"
"236060","915-UM","2017/06/29 14:59:29","新北市土城區金城路三段139巷8號","121.468038333333","24.9886783333333","6501300","土城區"
"236047","970-R7","2017/06/29 14:59:35","新北市土城區學府路一段237號","121.450926666667","24.9838166666667","6501300","土城區"
"236052","AAC-216","2017/06/29 14:59:35","新北市土城區裕民路75號","121.449663333333","24.9874483333333","6501300","土城區"
"238010","601-UM","2017/06/29 14:59:35","新北市樹林區育德街78-1號","121.387461666667","24.9682816666667","6500700","樹林區"
"238006","599-UM","2017/06/29 14:59:40","新北市樹林區育德街78-1號","121.38797","24.9680716666667","6500700","樹林區"
"238005","571-TV","2017/06/29 14:59:25","新北市樹林區中山路三段204號","121.387246666667","24.9681916666667","6500700","樹林區"
"238008","311-TH","2017/06/29 14:59:42","新北市樹林區育德街78號","121.387855","24.9683816666667","6500700","樹林區"
"238012","303-VK","2017/06/29 14:59:30","新北市樹林區中山路三段204號","121.387241666667","24.9683016666667","6500700","樹林區"
"238004","283-BY","2017/06/29 14:59:34","新北市樹林區中山路三段204號","121.387255","24.968125","6500700","樹林區"
"238001","282-BY","2017/06/29 14:59:41","新北市樹林區育德街78-1號","121.387836666667","24.9680516666667","6500700","樹林區"
"238007","268-VK","2017/06/29 14:59:33","新北市樹林區育德街78-1號","121.387635","24.96827","6500700","樹林區"
"221010","276-VK","2017/06/29 13:17:07","新北市汐止區汐萬路一段256巷3號","121.653438333333","25.07459","6501100","汐止區"
"221032","280-BY","2017/06/29 14:59:33","新北市汐止區中正路76號","121.66144","25.0697066666667","6501100","汐止區"
"221038","297-VK","2017/06/29 14:59:35","新北市汐止區福德一路238號","121.633868333333","25.064865","6501100","汐止區"
"220027","145-BY","2017/06/29 14:59:33","新北市板橋區大仁街49號","121.454696666667","25.0164583333333","6500100","板橋區"
"220030","610-BX","2017/06/29 14:59:37","新北市板橋區沙崙街2-5號","121.430978333333","24.99434","6500100","板橋區"
"220050","245-BX","2017/06/29 14:59:43","新北市板橋區萬板路172號","121.4757","25.0229216666667","6500100","板橋區"
"220017","258-TC","2017/06/29 14:59:39","新北市板橋區稚暉街2巷46號","121.45523","25.0029216666667","6500100","板橋區"
"220020","277-BY","2017/06/29 14:59:38","新北市板橋區篤行路二段1巷6-3號","121.432225","24.9929283333333","6500100","板橋區"
"220043","283-UM","2017/06/29 14:59:35","新北市板橋區雨農路13號","121.462191666667","25.0247266666667","6500100","板橋區"
"220019","283-VK","2017/06/29 14:59:26","新北市板橋區五權街30巷24弄15號","121.463821666667","24.99339","6500100","板橋區"
"220001","285-VK","2017/06/29 14:59:40","新北市板橋區永豐街30號","121.474573333333","25.017175","6500100","板橋區"
"220031","286-VK","2017/06/29 14:59:33","新北市板橋區僑中二街56號","121.445968333333","25.010215","6500100","板橋區"
"220029","287-VK","2017/06/29 14:59:41","新北市板橋區大觀路一段28巷101號","121.450038333333","25.0120333333333","6500100","板橋區"
"220039","288-VK","2017/06/29 14:59:28","新北市板橋區龍泉街90巷3號","121.456126666667","25.0247966666667","6500100","板橋區"
"220009","293-UM","2017/06/29 14:59:33","新北市板橋區民生路二段107號","121.471158333333","25.01784","6500100","板橋區"
"220032","296-UM","2017/06/29 14:59:44","新北市板橋區溪崑二街111巷17號","121.427056666667","24.9884383333333","6500100","板橋區"
"220023","297-UM","2017/06/29 14:59:43","新北市板橋區金華街10巷24號","121.456376666667","25.0200783333333","6500100","板橋區"
"220010","305-R5","2017/06/29 14:59:44","新北市板橋區萬安街20巷8弄18號","121.485115","25.0233866666667","6500100","板橋區"
"220041","307-R5","2017/06/29 14:59:42","新北市板橋區四維路259巷57號","121.46121","25.027","6500100","板橋區"
"220047","317-R6","2017/06/29 14:59:42","新北市板橋區漢生西路165巷7號","121.462646666667","25.02321","6500100","板橋區"
"220012","486-VK","2017/06/29 14:59:39","新北市板橋區實踐路106號","121.463993333333","25.0047216666667","6500100","板橋區"
"220038","487-VK","2017/06/29 14:59:34","新北市板橋區綠堤街47號","121.455311666667","25.02592","6500100","板橋區"
"220037","491-VK","2017/06/29 14:59:34","新北市板橋區文聖街89巷2號","121.477598333333","25.029975","6500100","板橋區"
"220104","560-BX","2017/06/29 14:59:39","新北市板橋區新生街23巷14號","121.456306666667","25.0218483333333","6500100","板橋區"
"220052","561-BX","2017/06/29 14:59:38","新北市板橋區自由路46號","121.465655","25.0233366666667","6500100","板橋區"
"220011","609-BX","2017/06/29 14:59:29","新北市板橋區林森街3巷1弄6號","121.48256","25.0235666666667","6500100","板橋區"
"220040","637-BX","2017/06/29 14:59:44","新北市板橋區懷德街174巷30號","121.478178333333","25.029225","6500100","板橋區"
"220005","686-BX","2017/06/29 14:59:26","新北市板橋區廣權路4號","121.460363333333","24.9909283333333","6500100","板橋區"
"220025","687-BX","2017/06/29 14:59:36","新北市板橋區僑中一街146號","121.44506","25.0117616666667","6500100","板橋區"
"220042","689-BX","2017/06/29 14:59:30","新北市板橋區長江路二段59號","121.464638333333","25.0314333333333","6500100","板橋區"
"220002","741-BX","2017/06/29 14:59:43","新北市板橋區實踐路93巷16號","121.464681666667","25.0052916666667","6500100","板橋區"
"220021","806-UM","2017/06/29 14:59:30","新北市板橋區大仁街71號","121.453981666667","25.0161966666667","6500100","板橋區"
"220003","827-TW","2017/06/29 14:59:45","新北市板橋區忠孝路48巷11弄6號","121.461691666667","24.999765","6500100","板橋區"
"220014","829-TW","2017/06/29 14:59:34","新北市板橋區中山路一段214號","121.470256666667","25.0139733333333","6500100","板橋區"
"220051","830-TW","2017/06/29 14:59:29","新北市板橋區文聖街56號","121.476701666667","25.0310566666667","6500100","板橋區"
"220045","831-TW","2017/06/29 14:59:36","新北市板橋區莒光路15巷34號","121.47058","25.0255533333333","6500100","板橋區"
"220022","895-R6","2017/06/29 14:59:34","新北市板橋區文化路一段52巷29號","121.46152","25.0110266666667","6500100","板橋區"
"220046","AAC-210","2017/06/29 14:59:31","新北市板橋區漢生西路89巷1弄1號","121.462108333333","25.019415","6500100","板橋區"
"220018","AAC-253","2017/06/29 14:59:41","新北市板橋區民族路135號","121.467701666667","25.0078866666667","6500100","板橋區"
