"lineid","car","time","location","longitude","latitude","cityid","cityname"
"234026","9371-KE","2017/06/29 17:49:31","新北市永和區永和路一段155號","121.5141","25.0093683333333","6500400","永和區"
"234011","9373-KE","2017/06/29 17:45:01","新北市永和區福和路1號","121.525813333333","25.0090533333333","6500400","永和區"
"249005","172-UM","2017/06/29 17:49:36","新北市八里區荖阡坑路26-12號","121.401628333333","25.137135","6502300","八里區"
"249001","173-UM","2017/06/29 17:49:37","新北市八里區龍米路二段137號","121.444563333333","25.148405","6502300","八里區"
"249004","303-UY","2017/06/29 17:49:35","新北市八里區中華路一段79巷11號","121.421015","25.1564083333333","6502300","八里區"
"249002","305-UY","2017/06/29 17:49:40","新北市八里區龍形五街37巷3-1號","121.44866","25.1325916666667","6502300","八里區"
"249003","593-UM","2017/06/29 17:49:41","新北市八里區中山路二段212號","121.405245","25.151745","6502300","八里區"
"248006","077-UY","2017/06/29 17:49:27","新北市五股區中興路二段37巷28號","121.460048333333","25.07494","6501500","五股區"
"248008","095-VK","2017/06/29 17:49:42","新北市五股區中興路二段83巷26-6號","121.460128333333","25.0750783333333","6501500","五股區"
"248020","225-UY","2017/06/29 17:49:36","新北市五股區中興路二段83巷26-6號","121.46","25.0751533333333","6501500","五股區"
"232011","375-UM","2017/06/29 17:49:35","新北市坪林區北宜路八段29號","121.703578333333","24.935945","6502000","坪林區"
"244013","069-UM","2017/06/29 17:49:40","新北市林口區中正路505巷5號","121.383443333333","25.077245","6501700","林口區"
"244007","080-UY","2017/06/29 17:49:42","新北市林口區林口路272巷21號","121.38686","25.08453","6501700","林口區"
"244019","403-UM","2017/06/29 17:49:28","新北市林口區文化一路一段97號","121.37206","25.07095","6501700","林口區"
"244009","410-SL","2017/06/29 17:49:36","新北市林口區民享路159號","121.382008333333","25.0833083333333","6501700","林口區"
"244023","483-VK","2017/06/29 17:49:25","新北市林口區興林路346號","121.388493333333","25.0699533333333","6501700","林口區"
"244017","485-VK","2017/06/29 17:49:40","新北市林口區忠孝路377號","121.369326666667","25.07156","6501700","林口區"
"244021","657-BX","2017/06/29 17:49:42","新北市林口區仁愛路一段145號","121.398646666667","25.0716916666667","6501700","林口區"
"244011","701-TV","2017/06/29 17:49:27","新北市林口區竹林路45號","121.38714","25.0777566666667","6501700","林口區"
"244025","837-TS","2017/06/29 17:49:39","新北市林口區文化三路一段249巷65號","121.362736666667","25.0721616666667","6501700","林口區"
"243013","AAD-798","2017/06/29 17:49:42","新北市泰山區錢厝坑5-2號","121.407056666667","25.0513633333333","6501600","泰山區"
"243009","297-R6","2017/06/29 15:55:08","新北市泰山區黎明路25號","121.421815","25.0611133333333","6501600","泰山區"
"243016","680-BX","2017/06/29 17:49:38","新北市泰山區黎明路25號","121.422348333333","25.06077","6501600","泰山區"
"222003","436-BY","2017/06/29 17:49:43","新北市深坑區阿柔洋60-1號","121.608608333333","24.9985066666667","6501800","深坑區"
"222002","659-BX","2017/06/29 17:49:28","新北市深坑區平埔街22巷17弄1號","121.6149","25.000805","6501800","深坑區"
"231007","189-VK","2017/06/29 12:08:33","新北市新店區安華路28-1號","121.519586666667","24.961205","6500600","新店區"
"231046","278-BY","2017/06/29 17:49:26","新北市新店區下石厝路21號","121.532436666667","24.9274316666667","6500600","新店區"
"231027","3712-VJ","2017/06/29 15:23:49","新北市新店區安華路28-1號","121.519245","24.9605866666667","6500600","新店區"
"241005","262-UM","2017/06/29 17:49:23","新北市三重區碧華街109號","121.485738333333","25.0817166666667","6500200","三重區"
"241016","266-UM","2017/06/29 17:49:37","新北市三重區重新路二段100號","121.496816666667","25.06161","6500200","三重區"
"241024","462-BY","2017/06/29 17:49:39","新北市三重區力行路二段9巷2號","121.482363333333","25.072175","6500200","三重區"
"241033","AAC-255","2017/06/29 17:49:34","新北市三重區重新路五段509-5號","121.472025","25.0467833333333","6500200","三重區"
"235064","005-UY","2017/06/29 17:49:33","新北市中和區員山路36巷16-3號","121.485105","24.9913483333333","6500300","中和區"
"235020","096-UM","2017/06/29 16:25:24","新北市中和區員山路36巷16-3號","121.484518333333","24.9911966666667","6500300","中和區"
"235058","151-BY","2017/06/29 17:49:39","新北市中和區員山路36巷16-2號","121.48511","24.9915883333333","6500300","中和區"
"235061","378-QA","2017/06/29 15:26:07","新北市中和區員山路36巷13號","121.484243333333","24.99132","6500300","中和區"
"235071","783-BX","2017/06/29 17:49:36","新北市中和區員山路36巷16-2號","121.485291666667","24.991145","6500300","中和區"
"247020","893-R6","2017/06/29 17:49:38","新北市蘆洲區民義街71巷14號","121.472823333333","25.090505","6501400","蘆洲區"
"247010","546-UM","2017/06/29 17:49:37","新北市蘆洲區民族路108號","121.47836","25.0852283333333","6501400","蘆洲區"
"247018","500-BY","2017/06/29 17:49:41","新北市蘆洲區復興路227巷2弄13號","121.480603333333","25.0903066666667","6501400","蘆洲區"
"247008","339-TH","2017/06/29 17:49:30","新北市蘆洲區中山一路262號","121.471933333333","25.0796216666667","6501400","蘆洲區"
"247024","337-TH","2017/06/29 17:49:39","新北市蘆洲區光榮路61巷20號","121.461123333333","25.0889683333333","6501400","蘆洲區"
"247002","336-TH","2017/06/29 17:49:37","新北市蘆洲區永平街32巷33弄22號","121.458538333333","25.092495","6501400","蘆洲區"
"247014","057-VK","2017/06/29 17:49:35","新北市蘆洲區永康街79號","121.455731666667","25.08532","6501400","蘆洲區"
"247006","053-VK","2017/06/29 17:48:39","新北市蘆洲區長安街22巷3弄2號","121.464428333333","25.0795833333333","6501400","蘆洲區"
"247012","007-UY","2017/06/29 17:49:29","新北市蘆洲區民族路181號","121.478903333333","25.0887183333333","6501400","蘆洲區"
"247022","002-UY","2017/06/29 17:49:28","新北市蘆洲區中正路351號","121.465443333333","25.0896566666667","6501400","蘆洲區"
"247016","001-UY","2017/06/29 17:49:37","新北市蘆洲區中正路185巷78弄40號","121.46568","25.084925","6501400","蘆洲區"
"228003","097-TW","2017/06/29 17:49:40","新北市貢寮區真理里延平街173號","121.92543","25.0589983333333","6502600","貢寮區"
"228001","212-TW","2017/06/29 17:49:28","新北市貢寮區仁理村仁愛路95-1號","121.927668333333","25.0554266666667","6502600","貢寮區"
"228002","585-TW","2017/06/29 17:49:34","新北市貢寮區福隆里外隆林街16-4號","121.95825","25.004695","6502600","貢寮區"
"224010","AGQ-8101","2017/06/29 17:49:18","新北市瑞芳區明燈路一段13號","121.826138333333","25.1092283333333","6501200","瑞芳區"
"224006","676-BX","2017/06/29 17:49:38","新北市瑞芳區傑魚坑路181號","121.788955","25.1088416666667","6501200","瑞芳區"
"224002","639-TC","2017/06/29 17:39:04","新北市瑞芳區明燈路二段46號","121.80943","25.1081283333333","6501200","瑞芳區"
"224009","285-BY","2017/06/29 17:49:44","新北市瑞芳區金光路372號","121.849756666667","25.1104983333333","6501200","瑞芳區"
"224008","275-VK","2017/06/29 17:49:25","新北市瑞芳區明燈路一段29號","121.82271","25.1073116666667","6501200","瑞芳區"
"224007","273-VK","2017/06/29 17:49:37","新北市瑞芳區靜安路四段28號","121.798326666667","25.09093","6501200","瑞芳區"
"224005","271-BY","2017/06/29 17:49:44","新北市瑞芳區豎崎路32-5號","121.823963333333","25.1209683333333","6501200","瑞芳區"
"253006","032-BX","2017/06/29 17:49:34","新北市石門區中央路5號","121.566368333333","25.291515","6502200","石門區"
"208003","665-BX","2017/06/29 17:49:31","新北市金山區磺清路135號","121.63948","25.2277816666667","6502700","金山區"
"208001","761-BX","2017/06/29 17:49:27","新北市金山區磺清路135號","121.639418333333","25.2278133333333","6502700","金山區"
"251009","008-UM","2017/06/29 17:39:58","新北市淡水區中正路11-3號","121.443216666667","25.1695583333333","6501000","淡水區"
"251004","009-UM","2017/06/29 17:49:38","新北市淡水區民權一街33-3號","121.459515","25.1362916666667","6501000","淡水區"
"251005","010-UM","2017/06/29 17:49:30","新北市淡水區學府路96號","121.449306666667","25.17115","6501000","淡水區"
"251001","011-UM","2017/06/29 17:49:39","新北市淡水區自強路201巷35號","121.462361666667","25.1267866666667","6501000","淡水區"
"251007","179-VK","2017/06/29 17:49:42","新北市淡水區民生路52巷10號","121.462243333333","25.13758","6501000","淡水區"
"251008","181-VK","2017/06/29 17:49:31","新北市淡水區八勢路一段123巷12號","121.467075","25.1574933333333","6501000","淡水區"
"251014","182-VK","2017/06/29 17:49:26","新北市淡水區公埔子16-6號","121.481051666667","25.2245733333333","6501000","淡水區"
"251010","413-VK","2017/06/29 17:49:28","新北市淡水區中正路二段53號","121.41834","25.1846566666667","6501000","淡水區"
"251012","441-VK","2017/06/29 17:49:32","新北市淡水區北新路一段268號","121.46263","25.1821233333333","6501000","淡水區"
"251016","442-VK","2017/06/29 17:49:32","新北市淡水區埤島39-15號","121.452698333333","25.1958783333333","6501000","淡水區"
"251006","561-UM","2017/06/29 17:49:39","新北市淡水區大信街1巷25號","121.440085","25.176695","6501000","淡水區"
"251011","650-BX","2017/06/29 17:44:55","新北市淡水區吳(仔)厝9-1號","121.480068333333","25.146835","6501000","淡水區"
"251002","672-BX","2017/06/29 17:49:36","新北市淡水區中山路96巷7號","121.442273333333","25.1707333333333","6501000","淡水區"
"251003","766-UM","2017/06/29 17:49:30","新北市淡水區大忠街21號","121.443806666667","25.1760816666667","6501000","淡水區"
"207003","550-UM","2017/06/29 17:49:28","新北市萬里區野柳里東澳路66號","121.692791666667","25.20097","6502800","萬里區"
"207004","225-TW","2017/06/29 17:49:27","新北市萬里區萬里里瑪鋉頂街98號","121.687735","25.1803866666667","6502800","萬里區"
"252002","178-VK","2017/06/29 17:49:36","新北市三芝區智成街73號","121.504491666667","25.2559466666667","6502100","三芝區"
"252001","702-TV","2017/06/29 17:49:25","新北市三芝區淡金路一段22號","121.499838333333","25.2593933333333","6502100","三芝區"
"208002","170-UY","2017/06/29 15:58:07","新北市金山區磺清路135號","121.639406666667","25.2276133333333","6502700","金山區"
"237001","361-BY","2017/06/29 15:27:57","新北市三峽區中山路459巷137號","121.349356666667","24.93355","6500900","三峽區"
"237009","210-TH","2017/06/29 17:49:32","新北市三峽區大勇路17號","121.367266666667","24.93671","6500900","三峽區"
"237013","252-BX","2017/06/29 17:49:34","新北市三峽區愛國路33-8號","121.37447","24.9332633333333","6500900","三峽區"
"237012","275-BY","2017/06/29 17:49:38","新北市三峽區文化路117號","121.370045","24.93609","6500900","三峽區"
"237008","302-VK","2017/06/29 17:49:35","新北市三峽區中園街237-1號","121.366835","24.91949","6500900","三峽區"
"237014","433-BY","2017/06/29 17:49:24","新北市三峽區文化路120巷7號","121.370971666667","24.9365416666667","6500900","三峽區"
"237006","5529-G3","2017/06/29 17:49:40","新北市三峽區介壽路二段38巷10-3號","121.391728333333","24.9349716666667","6500900","三峽區"
"237011","572-TV","2017/06/29 17:49:36","新北市三峽區光明路67號","121.375743333333","24.9286316666667","6500900","三峽區"
"237016","649-BX","2017/06/29 17:49:43","新北市三峽區白雞62號","121.386655","24.9122433333333","6500900","三峽區"
"237010","706-TV","2017/06/29 17:49:34","新北市三峽區文化路125號","121.36993","24.9360066666667","6500900","三峽區"
"237005","AKY-6261","2017/06/29 17:49:39","新北市三峽區中山路240號","121.362415","24.9373966666667","6500900","三峽區"
"236071","105-UM","2017/06/29 17:49:36","新北市土城區明德路二段8巷2號","121.452261666667","24.98031","6501300","土城區"
"236042","107-UM","2017/06/29 17:49:40","新北市土城區中央路二段163號","121.442116666667","24.9763316666667","6501300","土城區"
"236078","166-UM","2017/06/29 17:49:29","新北市土城區城林路6巷80號","121.438606666667","24.979645","6501300","土城區"
"236030","253-BX","2017/06/29 17:49:31","新北市土城區城林路6巷80號","121.438555","24.9799066666667","6501300","土城區"
"236026","269-VK","2017/06/29 17:49:28","新北市土城區承天路20號","121.439543333333","24.96344","6501300","土城區"
"236014","270-VK","2017/06/29 17:49:36","新北市土城區城林路6巷80號","121.438516666667","24.9794616666667","6501300","土城區"
"236037","271-VK","2017/06/29 17:49:36","新北市土城區城林路6巷80號","121.438513333333","24.9797583333333","6501300","土城區"
"236058","912-UM","2017/06/29 17:49:46","新北市土城區城林路6巷80號","121.43849","24.9797183333333","6501300","土城區"
"236051","913-UM","2017/06/29 17:49:36","新北市土城區城林路6巷80號","121.43847","24.9795633333333","6501300","土城區"
"236062","915-UM","2017/06/29 17:49:28","新北市土城區城林路6巷80號","121.438523333333","24.97977","6501300","土城區"
"236053","AAC-216","2017/06/29 17:49:26","新北市土城區城林路6巷80號","121.43865","24.9797366666667","6501300","土城區"
"242021","AAC-296","2017/06/29 17:49:36","新北市新莊區中港路281號","121.453215","25.043825","6500500","新莊區"
"242029","986-R7","2017/06/29 17:49:39","新北市新莊區復興路一段63號","121.447733333333","25.0423866666667","6500500","新莊區"
"242048","751-BX","2017/06/29 17:49:41","新北市新莊區萬安街148號","121.420103333333","25.02112","6500500","新莊區"
"242061","705-TV","2017/06/29 17:49:41","新北市新莊區新樹路605號","121.433416666667","25.0056383333333","6500500","新莊區"
"242025","615-BX","2017/06/29 17:49:26","新北市三重區新北大道二段27號","121.471116666667","25.0613166666667","6500500","新莊區"
"242023","613-BX","2017/06/29 17:49:42","新北市新莊區福樂街26號","121.457885","25.0452766666667","6500500","新莊區"
"242027","612-BX","2017/06/29 17:49:39","新北市新莊區昌明街2號","121.457843333333","25.052395","6500500","新莊區"
"242036","566-BX","2017/06/29 17:49:34","新北市新莊區建福路57號","121.426771666667","25.0273216666667","6500500","新莊區"
"242042","497-BY","2017/06/29 17:49:26","新北市新莊區中正路729號","121.422833333333","25.028975","6500500","新莊區"
"242004","442-UM","2017/06/29 17:49:27","新北市新莊區思源路177巷10號","121.459316666667","25.0455266666667","6500500","新莊區"
"242046","441-UM","2017/06/29 17:49:40","新北市新莊區福營路97巷16號","121.434468333333","25.0317533333333","6500500","新莊區"
"242051","440-UM","2017/06/29 17:49:27","新北市新莊區西盛街262號","121.428058333333","25.0157633333333","6500500","新莊區"
"242031","415-TV","2017/06/29 17:49:24","新北市新莊區新泰路321巷32號","121.443165","25.041285","6500500","新莊區"
"242002","413-TV","2017/06/29 17:49:43","新北市新莊區景德路174號","121.450233333333","25.0341283333333","6500500","新莊區"
"242039","400-BY","2017/06/29 17:49:29","新北市新莊區民安路138號","121.424246666667","25.0255183333333","6500500","新莊區"
"242058","353-BY","2017/06/29 17:49:26","新北市新莊區中正路730-5號","121.414788333333","25.0235733333333","6500500","新莊區"
"242011","132-UY","2017/06/29 17:49:32","新北市新莊區中港路679號","121.450601666667","25.05633","6500500","新莊區"
"242034","133-UY","2017/06/29 17:49:39","新北市新莊區新莊路626號","121.44313","25.03303","6500500","新莊區"
"242044","172-VK","2017/06/29 17:49:44","新北市新莊區中正路829巷22弄47號","121.420518333333","25.0265366666667","6500500","新莊區"
"242007","173-VK","2017/06/29 17:49:45","新北市新莊區福樂街108巷3號","121.457495","25.04791","6500500","新莊區"
"242013","175-VK","2017/06/29 17:49:46","新北市新莊區中誠街164號","121.44821","25.0474666666667","6500500","新莊區"
"242056","176-VK","2017/06/29 17:49:43","新北市新莊區瓊林路46-10號","121.44692","25.0291716666667","6500500","新莊區"
"242019","346-TH","2017/06/29 17:49:45","新北市新莊區民樂街83號","121.457886666667","25.04312","6500500","新莊區"
"242017","348-TH","2017/06/29 17:49:43","新北市新莊區永安街172號","121.448795","25.0444133333333","6500500","新莊區"
"242053","349-TH","2017/06/29 17:49:29","新北市新莊區民安西路468-1號","121.431668333333","25.007875","6500500","新莊區"
"242015","350-TH","2017/06/29 17:49:28","新北市新莊區新泰路462號","121.443178333333","25.0447816666667","6500500","新莊區"
"242009","351-TH","2017/06/29 17:49:46","新北市新莊區中華路二段258巷21號","121.453123333333","25.054055","6500500","新莊區"
"238015","755-BX","2017/06/29 17:49:26","新北市樹林區長壽街25巷8號","121.420428333333","24.9946733333333","6500700","樹林區"
"238023","601-UM","2017/06/29 17:49:35","新北市樹林區三福街70巷18號","121.404843333333","25.016785","6500700","樹林區"
"238019","599-UM","2017/06/29 17:49:40","新北市樹林區太順街14號","121.419956666667","24.9803233333333","6500700","樹林區"
"238018","571-TV","2017/06/29 17:49:37","新北市樹林區鎮前街18號","121.426175","24.9931416666667","6500700","樹林區"
"238022","312-TH","2017/06/29 17:49:42","新北市樹林區太順街62巷3弄2號","121.417441666667","24.9797433333333","6500700","樹林區"
"238021","311-TH","2017/06/29 15:41:21","新北市樹林區柑園街一段68號","121.402155","24.960255","6500700","樹林區"
"238025","303-VK","2017/06/29 17:49:26","新北市樹林區三俊街50號","121.412428333333","25.0155666666667","6500700","樹林區"
"238017","283-BY","2017/06/29 17:49:33","新北市樹林區俊德街13號","121.415121666667","25.014525","6500700","樹林區"
"238014","282-BY","2017/06/29 17:45:41","新北市樹林區保安街一段336巷14號","121.41801","24.9995083333333","6500700","樹林區"
"238020","268-VK","2017/06/29 17:49:33","新北市樹林區俊英街155巷167號","121.424406666667","25.0116616666667","6500700","樹林區"
"238026","172-UY","2017/06/29 17:49:22","新北市樹林區新興街19巷2弄26號","121.401505","24.9727216666667","6500700","樹林區"
"238016","169-UY","2017/06/29 17:49:27","新北市樹林區啟智街129-4號","121.417885","24.9891583333333","6500700","樹林區"
"239007","AAC-297","2017/06/29 17:49:29","新北市鶯歌區鶯桃路100號","121.33921","24.9542366666667","6500800","鶯歌區"
"239006","891-R6","2017/06/29 17:49:42","新北市鶯歌區鳳鳴路105號","121.334313333333","24.966255","6500800","鶯歌區"
"239008","527-UM","2017/06/29 17:49:37","新北市鶯歌區香賓街21號","121.337493333333","24.979675","6500800","鶯歌區"
"239005","526-UM","2017/06/29 17:49:33","新北市鶯歌區鳳吉五街7號","121.326568333333","24.9722366666667","6500800","鶯歌區"
"239001","417-VK","2017/06/29 17:49:39","新北市鶯歌區中正三路371號","121.327246666667","24.9345266666667","6500800","鶯歌區"
"239003","360-BY","2017/06/29 17:49:42","新北市鶯歌區永吉街46巷55號","121.3342","24.957745","6500800","鶯歌區"
"239002","359-BY","2017/06/29 17:49:46","新北市鶯歌區國華路100-1號","121.343288333333","24.953635","6500800","鶯歌區"
"239004","193-VK","2017/06/29 17:49:43","新北市鶯歌區尖山路38號","121.351026666667","24.9504633333333","6500800","鶯歌區"
"221008","489-VK","2017/06/29 17:49:31","新北市汐止區康寧街901號","121.651426666667","25.0749633333333","6501100","汐止區"
"221036","130-UY","2017/06/29 17:49:31","新北市汐止區長江街83號","121.657475","25.0723316666667","6501100","汐止區"
"221015","131-UY","2017/06/29 17:49:41","新北市汐止區汐萬路一段204號","121.652186666667","25.0721416666667","6501100","汐止區"
"221010","269-BY","2017/06/29 17:49:38","新北市汐止區汐萬路二段122巷9號","121.648425","25.0858083333333","6501100","汐止區"
"221010","276-VK","2017/06/29 13:17:07","新北市汐止區汐萬路一段256巷3號","121.653438333333","25.07459","6501100","汐止區"
"221031","277-VK","2017/06/29 00:28:13","新北市汐止區汐萬路一段256巷3號","121.652588333333","25.0745916666667","6501100","汐止區"
"221012","278-VK","2017/06/29 17:49:31","新北市汐止區汐萬路一段186號","121.652281666667","25.072","6501100","汐止區"
"221023","279-VK","2017/06/29 15:15:04","新北市汐止區康寧街901號","121.651776666667","25.07509","6501100","汐止區"
"221032","280-BY","2017/06/29 17:49:28","新北市汐止區大同路一段44號","121.62222","25.0549166666667","6501100","汐止區"
"221027","281-BY","2017/06/29 17:49:40","新北市汐止區汐萬路一段312號","121.650616666667","25.0753883333333","6501100","汐止區"
"221038","297-VK","2017/06/29 17:49:34","新北市汐止區汐萬路一段256巷3號","121.652133333333","25.0748416666667","6501100","汐止區"
"221029","298-VK","2017/06/29 17:49:34","新北市汐止區康寧街901號","121.651535","25.0749783333333","6501100","汐止區"
"221021","299-VK","2017/06/29 15:18:08","新北市汐止區汐萬路一段256巷3號","121.652121666667","25.0748566666667","6501100","汐止區"
"221035","622-UM","2017/06/29 17:49:36","新北市汐止區汐萬路一段210號","121.65212","25.072445","6501100","汐止區"
"221025","623-UM","2017/06/29 17:49:37","新北市汐止區大同路二段187巷53號","121.652145","25.0662583333333","6501100","汐止區"
"221033","647-BX","2017/06/29 17:49:32","新北市汐止區民權街一段211巷1-1號","121.619776666667","25.0514933333333","6501100","汐止區"
