"lineid","car","time","location","longitude","latitude","cityid","cityname"
"234046","148-BY","2017/06/29 18:39:36","新北市永和區林森路99號","121.523361666667","25.0036733333333","6500400","永和區"
"234013","149-BY","2017/06/29 18:39:43","新北市永和區仁愛路202巷26號","121.50899","25.0129816666667","6500400","永和區"
"234007","207-UY","2017/06/29 18:39:38","新北市永和區環河西路二段7-10號","121.509091666667","25.0168483333333","6500400","永和區"
"234038","336-UY","2017/06/29 18:39:29","新北市永和區環河東路二段92號","121.524386666667","25.0106333333333","6500400","永和區"
"234086","338-UY","2017/06/29 18:39:28","新北市中和區安平路116號","121.511763333333","24.9975766666667","6500400","永和區"
"234070","552-UM","2017/06/29 18:39:37","新北市永和區福和路1號","121.526465","25.0098933333333","6500400","永和區"
"234017","745-BX","2017/06/29 18:39:28","新北市永和區福和路1號","121.526481666667","25.009825","6500400","永和區"
"234030","746-BX","2017/06/29 18:39:28","新北市永和區成功路二段3號","121.52683","25.0014216666667","6500400","永和區"
"234061","AAD-866","2017/06/29 18:39:30","新北市永和區福和路1號","121.526011666667","25.0093633333333","6500400","永和區"
"234042","862-TW","2017/06/29 18:39:38","新北市永和區福和路247號","121.51804","25.0074266666667","6500400","永和區"
"234050","863-TW","2017/06/29 18:39:40","新北市永和區環河東路二段28號","121.522633333333","25.0128616666667","6500400","永和區"
"234026","9371-KE","2017/06/29 18:39:31","新北市永和區保生路22巷19弄26號","121.506998333333","25.0090116666667","6500400","永和區"
"234011","9373-KE","2017/06/29 18:39:28","新北市永和區文化路9巷22弄6號","121.515035","25.01459","6500400","永和區"
"249005","172-UM","2017/06/29 18:39:35","新北市八里區中華路三段232號","121.388303333333","25.1244133333333","6502300","八里區"
"249001","173-UM","2017/06/29 18:39:37","新北市八里區龍米路一段205號","121.451471666667","25.1313833333333","6502300","八里區"
"249004","303-UY","2017/06/29 18:39:35","新北市八里區觀海大道21號","121.429593333333","25.16008","6502300","八里區"
"249002","305-UY","2017/06/29 18:39:40","新北市八里區龍形一街33巷8-3號","121.449225","25.1298666666667","6502300","八里區"
"248014","025-BX","2017/06/29 18:39:44","新北市五股區自強路129號","121.432218333333","25.069845","6501500","五股區"
"248008","095-VK","2017/06/29 18:39:42","新北市五股區中興路一段148號","121.464683333333","25.0739466666667","6501500","五股區"
"248020","225-UY","2017/06/29 18:36:36","新北市五股區孝義路102號","121.445155","25.1197933333333","6501500","五股區"
"248012","247-BX","2017/06/29 18:37:57","新北市五股區御史路95號","121.440241666667","25.0948616666667","6501500","五股區"
"248016","261-SL","2017/06/29 18:39:28","新北市五股區凌雲路一段149巷5-1號","121.448905","25.10173","6501500","五股區"
"248010","272-BY","2017/06/29 18:39:35","新北市五股區自強路90巷10號","121.431968333333","25.0724116666667","6501500","五股區"
"248004","677-BX","2017/06/29 18:39:41","新北市五股區民義路一段215-2號","121.42972","25.0899266666667","6501500","五股區"
"248002","678-BX","2017/06/29 18:39:34","新北市五股區西雲路220號","121.448175","25.0961916666667","6501500","五股區"
"234023","9380-KE","2017/06/29 18:39:26","新北市永和區竹林路225巷42號","121.52219","25.0086783333333","6500400","永和區"
"234077","969-R7","2017/06/29 18:39:30","新北市永和區民有街1號","121.515775","24.99754","6500400","永和區"
"234074","AAC-211","2017/06/29 18:39:31","新北市永和區福和路1號","121.526535","25.0098533333333","6500400","永和區"
"234067","AAC-212","2017/06/29 18:39:36","新北市永和區環河東路二段92號","121.524466666667","25.0106066666667","6500400","永和區"
"232011","375-UM","2017/06/29 18:26:06","新北市坪林區坪雙路一段31號","121.71172","24.942415","6502000","坪林區"
"244013","069-UM","2017/06/29 18:39:40","新北市林口區信義路58-8號","121.382155","25.07892","6501700","林口區"
"244007","080-UY","2017/06/29 18:39:42","新北市林口區後湖19-2號","121.387905","25.0985716666667","6501700","林口區"
"244019","403-UM","2017/06/29 18:39:28","新北市林口區忠孝路606號","121.376498333333","25.0680233333333","6501700","林口區"
"244009","410-SL","2017/06/29 18:39:36","新北市林口區文林一街11巷68號","121.376951666667","25.086945","6501700","林口區"
"244023","483-VK","2017/06/29 18:39:45","新北市林口區文化二路二段107號","121.378255","25.0807566666667","6501700","林口區"
"244017","485-VK","2017/06/29 18:39:40","新北市林口區文化二路一段160號","121.368585","25.0715583333333","6501700","林口區"
"244021","657-BX","2017/06/29 18:39:42","新北市林口區工六路14號","121.398018333333","25.0790216666667","6501700","林口區"
"244011","701-TV","2017/06/29 18:39:27","新北市林口區興林路17巷5弄6號","121.390586666667","25.07719","6501700","林口區"
"244025","837-TS","2017/06/29 18:39:35","新北市林口區南勢四街329號","121.356655","25.0749016666667","6501700","林口區"
"243013","AAD-798","2017/06/29 18:39:42","新北市泰山區明志路三段206巷3號","121.423308333333","25.0379316666667","6501600","泰山區"
"243009","297-R6","2017/06/29 15:55:08","新北市泰山區黎明路25號","121.421815","25.0611133333333","6501600","泰山區"
"243010","548-UM","2017/06/29 18:39:41","新北市泰山區黎明路25號","121.42199","25.0606066666667","6501600","泰山區"
"243012","646-TV","2017/06/29 18:39:41","新北市泰山區福興三街13號","121.434431666667","25.05776","6501600","泰山區"
"243016","680-BX","2017/06/29 18:39:37","新北市泰山區泰林路二段328號","121.430138333333","25.0630216666667","6501600","泰山區"
"222003","436-BY","2017/06/29 18:39:43","新北市深坑區翠谷街37巷1號","121.626515","25.0093966666667","6501800","深坑區"
"222002","659-BX","2017/06/29 18:39:28","新北市深坑區雲鄉路27巷2號","121.622353333333","24.9997216666667","6501800","深坑區"
"222001","696-SL","2017/06/29 18:39:32","新北市深坑區北深路一段84號","121.636155","25.0106583333333","6501800","深坑區"
"231041","002-UM","2017/06/29 18:39:25","新北市新店區安華路28-1號","121.51977","24.9608183333333","6500600","新店區"
"231056","0293-UT","2017/06/29 18:39:31","新北市新店區二十張路129巷3弄1號","121.536191666667","24.9788683333333","6500600","新店區"
"231059","046-UY","2017/06/29 18:39:35","新北市新店區安華路28-1號","121.51962","24.9609166666667","6500600","新店區"
"231051","107-UY","2017/06/29 18:39:37","新北市新店區安康路一段111-1號","121.52862","24.9616816666667","6500600","新店區"
"231047","108-UY","2017/06/29 18:39:26","新北市新店區北新路一段89號","121.538523333333","24.9616766666667","6500600","新店區"
"231052","187-VK","2017/06/29 18:39:43","新北市新店區新烏路一段105巷6號","121.546041666667","24.9410016666667","6500600","新店區"
"231007","189-VK","2017/06/29 12:08:33","新北市新店區安華路28-1號","121.519586666667","24.961205","6500600","新店區"
"231057","256-BX","2017/06/29 18:39:36","新北市新店區新烏路一段215號","121.549286666667","24.93147","6500600","新店區"
"231063","268-BY","2017/06/29 18:39:45","新北市新店區安華路28-1號","121.519415","24.960555","6500600","新店區"
"231046","278-BY","2017/06/29 18:39:46","新北市新店區直潭一街18號","121.536066666667","24.9424683333333","6500600","新店區"
"231050","AAD-862","2017/06/29 18:39:25","新北市新店區安華路28-1號","121.519976666667","24.96123","6500600","新店區"
"231060","355-BY","2017/06/29 18:39:43","新北市新店區安華路28-1號","121.519061666667","24.9608733333333","6500600","新店區"
"231058","3712-VJ","2017/06/29 18:39:29","新北市新店區國校路76-1號","121.538623333333","24.953085","6500600","新店區"
"231055","3713-VJ","2017/06/29 18:39:31","新北市新店區華興街19號","121.537691666667","24.96929","6500600","新店區"
"231067","4772-VM","2017/06/29 18:39:36","新北市新店區安華路1-1號","121.51902","24.9605783333333","6500600","新店區"
"231065","512-UM","2017/06/29 16:01:19","新北市新店區安華路28-1號","121.519378333333","24.9611766666667","6500600","新店區"
"231054","513-UM","2017/06/29 18:39:41","新北市新店區安華路28-1號","121.519668333333","24.9611466666667","6500600","新店區"
"231064","515-UM","2017/06/29 18:39:33","新北市新店區安華路28-1號","121.519648333333","24.9609383333333","6500600","新店區"
"231042","616-UM","2017/06/29 18:39:26","新北市新店區安康路一段226號","121.523615","24.96355","6500600","新店區"
"231045","617-UM","2017/06/29 18:39:26","新北市新店區安華路28-1號","121.519381666667","24.9609583333333","6500600","新店區"
"231061","618-UM","2017/06/29 17:05:15","新北市新店區安華路1-1號","121.519453333333","24.960375","6500600","新店區"
"231040","619-UM","2017/06/29 18:39:44","新北市新店區安華路1-1號","121.519616666667","24.9605","6500600","新店區"
"231049","719-UM","2017/06/29 18:39:28","新北市新店區安康路一段75-1號","121.530093333333","24.9611016666667","6500600","新店區"
"231062","720-UM","2017/06/29 18:39:39","新北市新店區安華路28-1號","121.519186666667","24.9611433333333","6500600","新店區"
"231044","897-TW","2017/06/29 18:39:40","新北市新店區中正路111號","121.542481666667","24.9705183333333","6500600","新店區"
"231043","899-TW","2017/06/29 16:21:39","新北市新店區安華路28-1號","121.51918","24.9609233333333","6500600","新店區"
"231066","AKT-0513","2017/06/29 18:39:33","新北市新店區安豐路46號","121.500203333333","24.9550283333333","6500600","新店區"
"235066","003-UY","2017/06/29 18:39:41","新北市中和區水源路31號","121.50413","25.0035466666667","6500300","中和區"
"235064","005-UY","2017/06/29 18:39:33","新北市中和區連城路128號","121.49596","24.9991866666667","6500300","中和區"
"235063","006-UY","2017/06/29 18:39:33","新北市中和區連城路397號","121.48632","24.996255","6500300","中和區"
"235038","031-BX","2017/06/29 18:39:42","新北市中和區中山路二段312巷3弄2號","121.495583333333","25.0030516666667","6500300","中和區"
"235056","096-UM","2017/06/29 18:39:45","新北市中和區員山路611巷5弄3號","121.478033333333","25.0112983333333","6500300","中和區"
"235039","097-UM","2017/06/29 18:39:31","新北市永和區安樂路98號","121.514215","24.9992283333333","6500300","中和區"
"235040","150-BY","2017/06/29 18:39:43","新北市中和區保健路60號","121.510845","24.996535","6500300","中和區"
"235058","151-BY","2017/06/29 18:39:39","新北市中和區員山路7-6號","121.48227","24.9855316666667","6500300","中和區"
"235055","183-VK","2017/06/29 18:39:33","新北市中和區民生街93-2號","121.46857","25.0047766666667","6500300","中和區"
"235038","185-VK","2017/06/29 18:39:28","新北市永和區民有街75巷10弄20號","121.519108333333","24.9958433333333","6500300","中和區"
"235049","186-VK","2017/06/29 18:39:34","新北市中和區景平路480號","121.505115","24.9936016666667","6500300","中和區"
"235067","255-BX","2017/06/29 18:39:45","新北市中和區新生街42號","121.483208333333","25.003395","6500300","中和區"
"235008","293-VK","2017/06/29 18:39:36","新北市中和區復興路301巷2弄1號","121.50151","24.9899383333333","6500300","中和區"
"235072","301-VK","2017/06/29 18:39:41","新北市中和區中山路二段193號","121.499965","25.0027166666667","6500300","中和區"
"235043","352-BY","2017/06/29 18:39:27","新北市中和區景平路149號","121.513803333333","24.99225","6500300","中和區"
"235051","376-QA","2017/06/29 18:39:36","新北市中和區興南路二段114巷10弄8號","121.50416","24.9846983333333","6500300","中和區"
"235068","377-QA","2017/06/29 18:39:34","新北市中和區中正路194號","121.49728","24.9938383333333","6500300","中和區"
"235061","378-QA","2017/06/29 18:39:31","新北市中和區民享街88巷22號","121.473496666667","25.00035","6500300","中和區"
"235050","4979-A6","2017/06/29 18:39:41","新北市中和區景新街496巷28弄25號","121.512946666667","24.98583","6500300","中和區"
"235069","4980-A6","2017/06/29 18:39:36","新北市中和區連城路65巷12號","121.498008333333","25.0006516666667","6500300","中和區"
"235042","551-UM","2017/06/29 18:39:45","新北市中和區成功路101巷7號","121.52646","24.9916816666667","6500300","中和區"
"235070","558-UM","2017/06/29 18:39:29","新北市中和區南山路127巷18弄46號","121.503313333333","24.996405","6500300","中和區"
"235045","565-BX","2017/06/29 18:39:33","新北市中和區復興路51號","121.504661666667","24.9899166666667","6500300","中和區"
"235054","640-BX","2017/06/29 18:39:32","新北市中和區民治街29巷2弄1號","121.475275","25.00063","6500300","中和區"
"235060","647-TV","2017/06/29 18:39:37","新北市中和區員山路471號","121.480098333333","25.0049","6500300","中和區"
"235047","732-UM","2017/06/29 18:39:32","新北市中和區南山路320巷10弄11號","121.506903333333","24.9866483333333","6500300","中和區"
"235071","783-BX","2017/06/29 18:39:35","新北市中和區員山路36巷16-2號","121.48539","24.9911366666667","6500300","中和區"
"235057","801-TS","2017/06/29 18:39:25","新北市中和區民享街97巷19號","121.475363333333","24.99956","6500300","中和區"
"235041","802-TS","2017/06/29 18:39:37","新北市中和區中正路171號","121.497851666667","24.9935266666667","6500300","中和區"
"235052","805-TS","2017/06/29 18:39:38","新北市中和區興南路三段40號","121.496593333333","24.97794","6500300","中和區"
"235048","896-TW","2017/06/29 18:39:27","新北市中和區南山路231號","121.503481666667","24.993205","6500300","中和區"
"235053","900-TW","2017/06/29 18:39:27","新北市中和區連城路508號","121.476991666667","24.99204","6500300","中和區"
"235040","157-BY","2017/06/29 18:39:31","新北市中和區中興街126號","121.49961","24.9929033333333","6500300","中和區"
"235037","AAC-213","2017/06/29 18:39:35","新北市中和區景新街383巷62號","121.514691666667","24.9904416666667","6500300","中和區"
"235059","AAC-215","2017/06/29 18:39:34","新北市中和區錦和路350-1號","121.49044","24.9935","6500300","中和區"
"220068","013-TV","2017/06/29 18:39:33","新北市板橋區民生路二段17號","121.472648333333","25.0164066666667","6500100","板橋區"
"220065","072-UY","2017/06/29 18:39:43","新北市板橋區民生路二段17號","121.472626666667","25.0164333333333","6500100","板橋區"
"220086","073-UY","2017/06/29 18:39:36","新北市板橋區南雅西路一段39巷30號","121.45274","25.0046933333333","6500100","板橋區"
"247008","339-TH","2017/06/29 18:37:30","新北市八里區荖阡坑路34-2號","121.401193333333","25.1301866666667","6501400","蘆洲區"
"247024","337-TH","2017/06/29 18:37:59","新北市八里區荖阡坑路28-8號","121.402781666667","25.12807","6501400","蘆洲區"
"247002","336-TH","2017/06/29 18:39:32","新北市八里區中華路三段19號","121.396696666667","25.143245","6501400","蘆洲區"
"247014","057-VK","2017/06/29 18:37:44","新北市五股區中興路三段163號","121.44934","25.0809083333333","6501400","蘆洲區"
"247006","053-VK","2017/06/29 18:38:37","新北市八里區中華路三段7巷1號","121.397211666667","25.1437133333333","6501400","蘆洲區"
"247022","002-UY","2017/06/29 18:39:28","新北市五股區中直路11-15號","121.42575","25.10992","6501400","蘆洲區"
"226004","205-ST","2017/06/29 18:39:41","新北市平溪區平溪里三坑路38號","121.734025","25.0329566666667","6502400","平溪區"
"228003","097-TW","2017/06/29 18:39:45","新北市貢寮區和美里龍洞街40-1號","121.915471666667","25.1116616666667","6502600","貢寮區"
"228001","212-TW","2017/06/29 18:39:28","新北市貢寮區仁理村仁和路106巷14號","121.923955","25.0515766666667","6502600","貢寮區"
"228002","585-TW","2017/06/29 18:39:34","新北市貢寮區福隆里東興街6-11號","121.950755","25.021045","6502600","貢寮區"
"224006","676-BX","2017/06/29 18:39:38","新北市瑞芳區明燈路三段130號","121.80451","25.1084733333333","6501200","瑞芳區"
"224002","639-TC","2017/06/29 18:39:41","新北市瑞芳區中山路257號","121.797325","25.1098516666667","6501200","瑞芳區"
"224011","420-VK","2017/06/29 18:39:38","新北市瑞芳區崙頂路1-6號","121.847113333333","25.1047516666667","6501200","瑞芳區"
"224009","285-BY","2017/06/29 18:39:32","新北市瑞芳區五號路306-4號","121.857346666667","25.1116766666667","6501200","瑞芳區"
"224008","275-VK","2017/06/29 18:39:25","新北市瑞芳區岳王路162號","121.808001666667","25.1113483333333","6501200","瑞芳區"
"224007","273-VK","2017/06/29 18:39:37","新北市瑞芳區大埔路台北新城11號","121.764595","25.1006416666667","6501200","瑞芳區"
"224005","271-BY","2017/06/29 18:39:30","新北市瑞芳區瑞濱路147-15號","121.818176666667","25.1183666666667","6501200","瑞芳區"
"227004","642-TC","2017/06/29 18:39:39","新北市雙溪區魚行里坤溪3-5號","121.875901666667","25.0211166666667","6502500","雙溪區"
"227010","400-TW","2017/06/29 18:39:32","新北市雙溪區牡丹里下坑11號","121.851023333333","25.056185","6502500","雙溪區"
"253006","032-BX","2017/06/29 18:39:34","新北市石門區楓林28-2號","121.541921666667","25.28927","6502200","石門區"
"253005","295-VK","2017/06/29 18:39:31","新北市石門區石門街22號","121.566143333333","25.29059","6502200","石門區"
"208003","665-BX","2017/06/29 18:39:31","新北市金山區中山路276-3號","121.634996666667","25.22433","6502700","金山區"
"208001","761-BX","2017/06/29 18:39:36","新北市金山區文化三路1巷2號","121.635546666667","25.2246633333333","6502700","金山區"
"251004","009-UM","2017/06/29 18:39:38","新北市淡水區大同路2號","121.461598333333","25.1407733333333","6501000","淡水區"
"251001","011-UM","2017/06/29 18:39:39","新北市淡水區自強路415巷2號","121.465491666667","25.13426","6501000","淡水區"
"251008","181-VK","2017/06/29 18:39:31","新北市淡水區北投子73-1號","121.453416666667","25.1826633333333","6501000","淡水區"
"251014","182-VK","2017/06/29 18:39:46","新北市淡水區崙頂12-3號","121.497258333333","25.2165416666667","6501000","淡水區"
"251010","413-VK","2017/06/29 18:39:28","新北市淡水區沙崙路122號","121.423268333333","25.1828266666667","6501000","淡水區"
"251012","441-VK","2017/06/29 18:39:32","新北市淡水區北新路117號","121.448893333333","25.1786166666667","6501000","淡水區"
"251016","442-VK","2017/06/29 18:39:32","新北市淡水區下圭柔山84號","121.437833333333","25.205895","6501000","淡水區"
"251006","561-UM","2017/06/29 18:39:39","新北市淡水區崁頂57號","121.442731666667","25.1971816666667","6501000","淡水區"
"251011","650-BX","2017/06/29 18:39:35","新北市淡水區鄧公路30巷2弄20號","121.453105","25.1690766666667","6501000","淡水區"
"251002","672-BX","2017/06/29 18:39:36","新北市淡水區中正東路一段3巷2號","121.45053","25.1648316666667","6501000","淡水區"
"251003","766-UM","2017/06/29 18:39:30","新北市淡水區中山北路一段212巷38號","121.446168333333","25.1790183333333","6501000","淡水區"
"207003","550-UM","2017/06/29 18:39:28","新北市萬里區大鵬里頂社2-1號","121.66046","25.2072766666667","6502800","萬里區"
"207004","225-TW","2017/06/29 18:39:27","新北市萬里區萬里里獅頭路7號","121.692006666667","25.178335","6502800","萬里區"
"252002","178-VK","2017/06/29 18:39:36","新北市三芝區中正路二段31號","121.504178333333","25.254945","6502100","三芝區"
"252003","249-BX","2017/06/29 18:39:42","新北市三芝區後厝里土地公坑54-18號","121.465378333333","25.2494033333333","6502100","三芝區"
"252001","702-TV","2017/06/29 18:39:25","新北市三芝區中興街二段72號","121.499875","25.2548","6502100","三芝區"
"208002","170-UY","2017/06/29 18:39:35","新北市金山區忠孝一路19巷5號","121.638211666667","25.2181533333333","6502700","金山區"
"237001","361-BY","2017/06/29 15:27:57","新北市三峽區中山路459巷137號","121.349356666667","24.93355","6500900","三峽區"
"237004","078-UY","2017/06/29 18:39:40","新北市三峽區金敏3號","121.381531666667","24.8767866666667","6500900","三峽區"
"237007","153-BY","2017/06/29 18:39:36","新北市三峽區中正路二段540號","121.360338333333","24.9062483333333","6500900","三峽區"
"237009","210-TH","2017/06/29 18:39:32","新北市三峽區大同路240巷45弄2號","121.365475","24.9262733333333","6500900","三峽區"
"237013","252-BX","2017/06/29 18:39:33","新北市三峽區介壽路一段201號","121.37832","24.9306083333333","6500900","三峽區"
"237012","275-BY","2017/06/29 18:39:38","新北市三峽區三樹路214巷10號","121.379673333333","24.9419283333333","6500900","三峽區"
"237008","302-VK","2017/06/29 18:39:35","新北市三峽區白雞129-1號","121.397498333333","24.9071166666667","6500900","三峽區"
"237014","433-BY","2017/06/29 18:39:24","新北市三峽區和平街68號","121.370416666667","24.9380983333333","6500900","三峽區"
"237006","5529-G3","2017/06/29 18:39:40","新北市三峽區溪東路315巷90號","121.411921666667","24.9316433333333","6500900","三峽區"
"237011","572-TV","2017/06/29 18:39:36","新北市三峽區溪東路215號","121.406163333333","24.9328116666667","6500900","三峽區"
"237016","649-BX","2017/06/29 18:39:43","新北市三峽區竹崙路53號","121.430881666667","24.9220933333333","6500900","三峽區"
"237010","706-TV","2017/06/29 18:39:29","新北市三峽區復興路321號","121.364858333333","24.938785","6500900","三峽區"
"237005","AKY-6261","2017/06/29 18:39:39","新北市三峽區民生街104巷15號","121.373593333333","24.93604","6500900","三峽區"
"236071","105-UM","2017/06/29 18:39:36","新北市土城區永豐路157巷1號","121.467603333333","24.9817583333333","6501300","土城區"
"236042","107-UM","2017/06/29 18:39:40","新北市土城區學成路78巷9號","121.451231666667","24.989035","6501300","土城區"
"236078","166-UM","2017/06/29 18:39:29","新北市土城區中央路四段46巷3號","121.420406666667","24.961095","6501300","土城區"
"236030","253-BX","2017/06/29 18:39:31","新北市土城區福仁街65號","121.439543333333","24.9746666666667","6501300","土城區"
"236026","269-VK","2017/06/29 18:39:28","新北市土城區金城路一段42號","121.442001666667","24.97012","6501300","土城區"
"236014","270-VK","2017/06/29 18:39:36","新北市土城區清水路207巷11號","121.45989","24.982335","6501300","土城區"
"236037","271-VK","2017/06/29 18:39:36","新北市土城區青山路18號","121.463138333333","24.9753633333333","6501300","土城區"
"236021","401-BY","2017/06/29 18:39:34","新北市土城區延吉街309巷14號","121.466076666667","24.9842016666667","6501300","土城區"
"236058","912-UM","2017/06/29 18:39:26","新北市土城區中央路四段59號","121.417398333333","24.9583466666667","6501300","土城區"
"236051","913-UM","2017/06/29 18:39:36","新北市土城區明德路一段57號","121.46527","24.9845533333333","6501300","土城區"
"236062","915-UM","2017/06/29 18:39:28","新北市土城區延壽路55巷9弄1號","121.469806666667","24.991515","6501300","土城區"
"236053","AAC-216","2017/06/29 18:39:39","新北市土城區中華路一段181號","121.443526666667","24.9856866666667","6501300","土城區"
"242002","413-TV","2017/06/29 18:39:43","新北市新莊區瓊泰路77巷16號","121.442566666667","25.02937","6500500","新莊區"
"242058","353-BY","2017/06/29 18:39:26","新北市泰山區新北大道六段379號","121.422036666667","25.032605","6500500","新莊區"
"242044","172-VK","2017/06/29 18:39:44","新北市泰山區新生路160號","121.431746666667","25.042655","6500500","新莊區"
"238015","755-BX","2017/06/29 18:39:26","新北市樹林區備內街142-1號","121.408681666667","24.989465","6500700","樹林區"
"238023","601-UM","2017/06/29 18:39:35","新北市樹林區三福街114號","121.406426666667","25.01628","6500700","樹林區"
"238019","599-UM","2017/06/29 18:39:40","新北市樹林區中華路190-16號","121.41173","24.9806366666667","6500700","樹林區"
"238018","571-TV","2017/06/29 18:39:37","新北市樹林區樹新路151號","121.428745","24.9967566666667","6500700","樹林區"
"238024","5061-A6","2017/06/29 18:39:46","新北市樹林區中山路二段110-6號","121.413835","24.98322","6500700","樹林區"
"238025","303-VK","2017/06/29 18:39:45","新北市樹林區福德街3號","121.401546666667","24.97559","6500700","樹林區"
"238020","268-VK","2017/06/29 18:39:36","新北市樹林區俊安街66巷8號","121.418553333333","25.0136016666667","6500700","樹林區"
"238026","172-UY","2017/06/29 18:39:42","新北市樹林區中山路三段160-1號","121.389545","24.9704866666667","6500700","樹林區"
"238016","169-UY","2017/06/29 18:39:27","新北市樹林區文化街28號","121.419351666667","24.98772","6500700","樹林區"
"239007","AAC-297","2017/06/29 18:39:29","新北市鶯歌區中正一路建德巷28號","121.364595","24.9577316666667","6500800","鶯歌區"
"239008","527-UM","2017/06/29 18:39:37","新北市鶯歌區國際一路179號","121.336345","24.9764616666667","6500800","鶯歌區"
"239005","526-UM","2017/06/29 18:39:37","新北市鶯歌區鳳吉二街156號","121.328881666667","24.9751516666667","6500800","鶯歌區"
"239001","417-VK","2017/06/29 18:39:39","新北市鶯歌區中正三路193巷47號","121.336526666667","24.9383283333333","6500800","鶯歌區"
"239003","360-BY","2017/06/29 18:39:42","新北市鶯歌區鶯桃路510號","121.331781666667","24.9663666666667","6500800","鶯歌區"
"239004","193-VK","2017/06/29 18:39:36","新北市鶯歌區尖山路312號","121.340375","24.9432166666667","6500800","鶯歌區"
"221008","489-VK","2017/06/29 18:39:31","新北市汐止區康寧街901號","121.651365","25.0750283333333","6501100","汐止區"
"221036","130-UY","2017/06/29 18:39:31","新北市汐止區南昌街31號","121.663131666667","25.0691833333333","6501100","汐止區"
"221015","131-UY","2017/06/29 18:39:41","新北市汐止區吉祥街26號","121.667795","25.0810383333333","6501100","汐止區"
"221010","269-BY","2017/06/29 18:39:38","新北市汐止區汐萬路二段216巷1號","121.647166666667","25.08704","6501100","汐止區"
"221010","276-VK","2017/06/29 13:17:07","新北市汐止區汐萬路一段256巷3號","121.653438333333","25.07459","6501100","汐止區"
"221031","277-VK","2017/06/29 00:28:13","新北市汐止區汐萬路一段256巷3號","121.652588333333","25.0745916666667","6501100","汐止區"
"221012","278-VK","2017/06/29 18:39:31","新北市汐止區長興街一段46號","121.670488333333","25.0792","6501100","汐止區"
"221023","279-VK","2017/06/29 15:15:04","新北市汐止區康寧街901號","121.651776666667","25.07509","6501100","汐止區"
"221032","280-BY","2017/06/29 18:39:28","新北市汐止區民權街二段79號","121.61916","25.0480316666667","6501100","汐止區"
"221027","281-BY","2017/06/29 18:39:40","新北市汐止區大同路二段389號","121.65779","25.06725","6501100","汐止區"
"221038","297-VK","2017/06/29 18:39:34","新北市汐止區仁愛路322號","121.664548333333","25.0677833333333","6501100","汐止區"
"221029","298-VK","2017/06/29 18:39:34","新北市汐止區樟樹一路150號","121.642203333333","25.0651166666667","6501100","汐止區"
"221021","299-VK","2017/06/29 15:18:08","新北市汐止區汐萬路一段256巷3號","121.652121666667","25.0748566666667","6501100","汐止區"
"221035","622-UM","2017/06/29 18:39:28","新北市汐止區大同路二段33號","121.647808333333","25.0628283333333","6501100","汐止區"
"221025","623-UM","2017/06/29 18:39:37","新北市汐止區仁愛路119巷11號","121.662398333333","25.06399","6501100","汐止區"
"221033","647-BX","2017/06/29 18:39:32","新北市汐止區南勢街1巷1號","121.627018333333","25.0374883333333","6501100","汐止區"
"221002","707-TV","2017/06/29 18:39:41","新北市汐止區中興路25號","121.636866666667","25.0595966666667","6501100","汐止區"
"220079","145-BY","2017/06/29 18:39:44","新北市板橋區大觀路二段266號","121.449451666667","24.9967133333333","6500100","板橋區"
"220101","245-BX","2017/06/29 16:49:26","新北市板橋區民生路二段120號","121.470603333333","25.0196033333333","6500100","板橋區"
"220056","276-BY","2017/06/29 18:39:28","新北市板橋區四川路一段253號","121.459803333333","25.0024516666667","6500100","板橋區"
"220072","277-BY","2017/06/29 18:39:28","新北市板橋區華東街1-10號","121.448235","24.9950166666667","6500100","板橋區"
"220043","283-UM","2017/06/29 18:39:43","新北市板橋區民生路二段188號","121.470248333333","25.0203166666667","6500100","板橋區"
"220053","285-VK","2017/06/29 16:29:58","新北市板橋區民生路二段36-1號","121.472628333333","25.01655","6500100","板橋區"
"220083","286-VK","2017/06/29 18:39:44","新北市板橋區華東街1-9號","121.44825","24.9948666666667","6500100","板橋區"
"220081","287-VK","2017/06/29 18:39:32","新北市板橋區華東街1-10號","121.44825","24.9950133333333","6500100","板橋區"
"220090","288-VK","2017/06/29 18:39:29","新北市板橋區民生路二段89-6號","121.470361666667","25.0194283333333","6500100","板橋區"
"220061","293-UM","2017/06/29 18:39:30","新北市板橋區民生路二段17號","121.472525","25.0164566666667","6500100","板橋區"
"220084","296-UM","2017/06/29 18:39:39","新北市板橋區華東街1-9號","121.448128333333","24.9949516666667","6500100","板橋區"
"220075","297-UM","2017/06/29 18:39:27","新北市板橋區華東街1-9號","121.448163333333","24.9949766666667","6500100","板橋區"
"220064","486-VK","2017/06/29 16:26:07","新北市板橋區民生路二段36-1號","121.472173333333","25.01694","6500100","板橋區"
"220088","491-VK","2017/06/29 18:39:05","新北市板橋區民生路二段161巷9號","121.470236666667","25.0196516666667","6500100","板橋區"
"220035","560-BX","2017/06/29 18:39:29","新北市板橋區南雅西路二段145巷10號","121.451563333333","25.011915","6500100","板橋區"
"220057","686-BX","2017/06/29 18:39:44","新北市板橋區民生路二段17號","121.472616666667","25.0164666666667","6500100","板橋區"
"220077","687-BX","2017/06/29 18:39:24","新北市板橋區華東街1-10號","121.448296666667","24.99498","6500100","板橋區"
"220054","741-BX","2017/06/29 18:39:25","新北市板橋區民生路二段36-1號","121.472565","25.01652","6500100","板橋區"
"220073","806-UM","2017/06/29 18:39:35","新北市板橋區華東街1-10號","121.448358333333","24.9949716666667","6500100","板橋區"
"220102","830-TW","2017/06/29 16:47:56","新北市板橋區民生路二段161巷1號","121.470085","25.0197983333333","6500100","板橋區"
"220074","895-R6","2017/06/29 18:39:29","新北市板橋區華東街1-10號","121.448225","24.9950016666667","6500100","板橋區"
"220097","AAC-210","2017/06/29 18:39:28","新北市板橋區民生路二段161巷3號","121.470071666667","25.0197616666667","6500100","板橋區"
