"lineid","car","time","location","longitude","latitude","cityid","cityname"
"234046","148-BY","2017/06/29 18:59:36","新北市永和區得和路373巷16弄9號","121.525526666667","25.000125","6500400","永和區"
"234013","149-BY","2017/06/29 18:59:43","新北市永和區永和路二段105號","121.514973333333","25.011905","6500400","永和區"
"234007","207-UY","2017/06/29 18:59:38","新北市永和區中山路一段47號","121.513066666667","25.0105366666667","6500400","永和區"
"234081","298-R6","2017/06/29 18:59:43","新北市永和區永貞路39巷13號","121.522476666667","25.0064016666667","6500400","永和區"
"234038","336-UY","2017/06/29 18:59:29","新北市永和區民樂街75巷1號","121.527336666667","24.997015","6500400","永和區"
"234064","337-UY","2017/06/29 18:59:32","新北市永和區秀朗路一段180號","121.518948333333","25.003345","6500400","永和區"
"234086","338-UY","2017/06/29 18:59:28","新北市永和區永寧街127號","121.518068333333","25.0056383333333","6500400","永和區"
"234070","552-UM","2017/06/29 18:59:37","新北市永和區竹林路124巷32號","121.518131666667","25.0115983333333","6500400","永和區"
"234054","553-UM","2017/06/29 18:59:35","新北市永和區竹林路66巷5號","121.51818","25.0132866666667","6500400","永和區"
"234017","745-BX","2017/06/29 18:59:28","新北市永和區永和路二段297號","121.515981666667","25.0160716666667","6500400","永和區"
"234030","746-BX","2017/06/29 18:59:36","新北市永和區四維街69號","121.525548333333","24.9979533333333","6500400","永和區"
"234061","AAD-866","2017/06/29 18:59:30","新北市永和區福和路309巷1號","121.51632","25.00705","6500400","永和區"
"234042","862-TW","2017/06/29 18:59:38","新北市永和區永貞路306號","121.511868333333","25.0048266666667","6500400","永和區"
"234050","863-TW","2017/06/29 18:59:40","新北市永和區文化路145號","121.510813333333","25.016135","6500400","永和區"
"234026","9371-KE","2017/06/29 18:59:31","新北市永和區安樂路304巷2號","121.514436666667","25.0049733333333","6500400","永和區"
"234011","9373-KE","2017/06/29 18:59:28","新北市永和區永和路二段425巷35-2號","121.514286666667","25.017345","6500400","永和區"
"249005","172-UM","2017/06/29 18:59:35","新北市八里區長道坑15號","121.394585","25.1183583333333","6502300","八里區"
"249001","173-UM","2017/06/29 18:59:37","新北市八里區渡船頭街1號","121.434376666667","25.1583383333333","6502300","八里區"
"248014","025-BX","2017/06/29 18:59:44","新北市五股區民義路一段107巷23號","121.432138333333","25.0844766666667","6501500","五股區"
"248006","077-UY","2017/06/29 18:59:45","新北市五股區中興路一段68號","121.46734","25.0729616666667","6501500","五股區"
"248008","095-VK","2017/06/29 18:59:42","新北市五股區中興路一段118巷6弄36號","121.466435","25.075345","6501500","五股區"
"248020","225-UY","2017/06/29 18:59:36","新北市五股區凌雲路三段57號","121.42531","25.1250183333333","6501500","五股區"
"248012","247-BX","2017/06/29 18:59:37","新北市五股區工商路38號","121.439438333333","25.0837366666667","6501500","五股區"
"248016","261-SL","2017/06/29 18:59:27","新北市五股區成泰路三段543巷52-1號","121.44981","25.103","6501500","五股區"
"248010","272-BY","2017/06/29 18:59:35","新北市五股區水碓七路54號","121.429641666667","25.0719233333333","6501500","五股區"
"248004","677-BX","2017/06/29 18:59:41","新北市五股區民義路二段70號","121.405488333333","25.1086516666667","6501500","五股區"
"248002","678-BX","2017/06/29 18:59:34","新北市五股區凌雲路一段138號","121.449536666667","25.102225","6501500","五股區"
"234023","9380-KE","2017/06/29 18:59:46","新北市永和區竹林路39巷28弄39號","121.520045","25.014075","6500400","永和區"
"234077","969-R7","2017/06/29 18:59:30","新北市永和區智光街22號","121.517913333333","24.9993283333333","6500400","永和區"
"234074","AAC-211","2017/06/29 18:59:31","新北市永和區環河東路二段102號","121.524261666667","25.0102983333333","6500400","永和區"
"234067","AAC-212","2017/06/29 18:59:36","新北市永和區永和路一段22號","121.513036666667","25.0047816666667","6500400","永和區"
"234003","AAC-295","2017/06/29 18:56:55","新北市永和區永和路一段171號","121.513975","25.0098266666667","6500400","永和區"
"232011","375-UM","2017/06/29 18:59:26","新北市坪林區坪林街16-1號","121.712783333333","24.9358816666667","6502000","坪林區"
"244013","069-UM","2017/06/29 18:59:40","新北市林口區麗園一街6巷7-3號","121.375243333333","25.07086","6501700","林口區"
"244007","080-UY","2017/06/29 18:59:42","新北市林口區太平里23-3號","121.376306666667","25.11531","6501700","林口區"
"244019","403-UM","2017/06/29 18:59:28","新北市林口區麗園二街47巷31號","121.38202","25.0696883333333","6501700","林口區"
"244009","410-SL","2017/06/29 18:59:36","新北市林口區竹林路326巷66號","121.392556666667","25.08207","6501700","林口區"
"244023","483-VK","2017/06/29 18:59:44","新北市林口區文林六街60號","121.370831666667","25.0818166666667","6501700","林口區"
"244017","485-VK","2017/06/29 18:59:40","新北市林口區文化二路一段120巷3號","121.367923333333","25.0700516666667","6501700","林口區"
"244011","701-TV","2017/06/29 18:59:27","新北市林口區仁愛路一段285巷90號","121.394971666667","25.07501","6501700","林口區"
"244025","837-TS","2017/06/29 18:59:35","新北市林口區文化北路一段411-1號","121.364503333333","25.0764683333333","6501700","林口區"
"243013","AAD-798","2017/06/29 18:59:42","新北市泰山區明志路三段271號","121.423108333333","25.0370333333333","6501600","泰山區"
"243009","297-R6","2017/06/29 18:59:27","新北市泰山區泰林路二段360號","121.428933333333","25.0635716666667","6501600","泰山區"
"243015","380-SR","2017/06/29 18:59:32","新北市泰山區美寧街2號","121.430101666667","25.0632216666667","6501600","泰山區"
"243014","421-VK","2017/06/29 18:59:38","新北市泰山區泰林路二段598號","121.421703333333","25.0635616666667","6501600","泰山區"
"243010","548-UM","2017/06/29 18:59:41","新北市泰山區辭修路26巷22號","121.429296666667","25.058705","6501600","泰山區"
"243011","549-UM","2017/06/29 18:59:43","新北市泰山區明志路二段320巷6弄5號","121.425675","25.046685","6501600","泰山區"
"243012","646-TV","2017/06/29 18:59:41","新北市泰山區福興三街168號","121.432411666667","25.0571083333333","6501600","泰山區"
"243016","680-BX","2017/06/29 18:59:37","新北市泰山區明志路二段231號","121.427321666667","25.0484333333333","6501600","泰山區"
"222003","436-BY","2017/06/29 18:59:21","新北市深坑區深南路51-1號","121.621361666667","25.0101183333333","6501800","深坑區"
"222002","659-BX","2017/06/29 18:59:28","新北市深坑區文山路一段35號","121.627981666667","25.0026033333333","6501800","深坑區"
"222001","696-SL","2017/06/29 18:59:29","新北市深坑區北深路一段170號","121.634055","25.0107283333333","6501800","深坑區"
"231041","002-UM","2017/06/29 18:59:25","新北市新店區環河路29巷1號","121.537","24.9613166666667","6500600","新店區"
"231056","0293-UT","2017/06/29 18:59:31","新北市新店區建國路180號","121.537995","24.9799933333333","6500600","新店區"
"231059","046-UY","2017/06/29 18:59:35","新北市新店區安康路一段302-2號","121.517578333333","24.96411","6500600","新店區"
"231051","107-UY","2017/06/29 18:59:37","新北市新店區百忍街1-1號","121.535026666667","24.975485","6500600","新店區"
"231047","108-UY","2017/06/29 18:59:26","新北市新店區德正街27巷29弄14號","121.545785","24.9718983333333","6500600","新店區"
"231052","187-VK","2017/06/29 18:59:33","新北市新店區屈尺路12號","121.548891666667","24.9226183333333","6500600","新店區"
"231007","189-VK","2017/06/29 12:08:33","新北市新店區安華路28-1號","121.519586666667","24.961205","6500600","新店區"
"231063","268-BY","2017/06/29 18:59:25","新北市新店區車子路110號","121.505236666667","24.952055","6500600","新店區"
"231046","278-BY","2017/06/29 18:59:42","新北市新店區直潭四街46號","121.533126666667","24.94139","6500600","新店區"
"231050","AAD-862","2017/06/29 18:59:25","新北市新店區北宜路二段30巷5弄2號","121.54804","24.950815","6500600","新店區"
"231060","355-BY","2017/06/29 18:59:43","新北市新店區車子路10-4號","121.505018333333","24.954575","6500600","新店區"
"231058","3712-VJ","2017/06/29 18:59:29","新北市新店區中興路一段203號","121.543591666667","24.9655466666667","6500600","新店區"
"231055","3713-VJ","2017/06/29 18:59:42","新北市新店區新生街13巷16號","121.539251666667","24.9658833333333","6500600","新店區"
"231067","4772-VM","2017/06/29 18:59:36","新北市新店區安康路一段281巷12弄1號","121.52365","24.96169","6500600","新店區"
"231065","512-UM","2017/06/29 18:59:44","新北市新店區安祥路147巷84號","121.475718333333","24.9553783333333","6500600","新店區"
"231054","513-UM","2017/06/29 18:59:41","新北市新店區新店路13號","121.54032","24.9528833333333","6500600","新店區"
"231064","515-UM","2017/06/29 18:59:38","新北市新店區安康路一段266巷4號","121.52015","24.9639766666667","6500600","新店區"
"231042","616-UM","2017/06/29 18:59:26","新北市新店區中興路一段284號","121.545725","24.9688833333333","6500600","新店區"
"231045","617-UM","2017/06/29 18:59:26","新北市新店區北新路一段2-19號","121.538598333333","24.9600533333333","6500600","新店區"
"231061","618-UM","2017/06/29 18:59:36","新北市新店區安康路一段323-1號","121.521613333333","24.9638066666667","6500600","新店區"
"231040","619-UM","2017/06/29 18:59:44","新北市新店區自由街2-1號","121.535505","24.9754816666667","6500600","新店區"
"231049","719-UM","2017/06/29 18:59:44","新北市新店區二十張路143-2號","121.534981666667","24.97879","6500600","新店區"
"231062","720-UM","2017/06/29 18:59:39","新北市新店區吉安街41號","121.515418333333","24.9661016666667","6500600","新店區"
"231044","897-TW","2017/06/29 18:59:40","新北市新店區寶中路94-1號","121.549015","24.9799766666667","6500600","新店區"
"231043","899-TW","2017/06/29 18:59:40","新北市新店區北新路二段1號","121.542705","24.971205","6500600","新店區"
"231066","AKT-0513","2017/06/29 18:59:33","新北市新店區安祥路22號","121.493201666667","24.9555033333333","6500600","新店區"
"241020","413-TH","2017/06/29 18:59:28","新北市三重區忠孝路二段34號","121.485746666667","25.071015","6500200","三重區"
"241029","942-UM","2017/06/29 18:59:36","新北市三重區重安街14號","121.490311666667","25.0581733333333","6500200","三重區"
"235066","003-UY","2017/06/29 18:59:41","新北市中和區中山路二段131巷5弄5號","121.502903333333","25.002875","6500300","中和區"
"235064","005-UY","2017/06/29 18:59:38","新北市中和區泰和街2號","121.500013333333","25.001135","6500300","中和區"
"235063","006-UY","2017/06/29 18:59:32","新北市中和區中正路464號","121.49014","24.99425","6500300","中和區"
"235038","031-BX","2017/06/29 18:59:42","新北市中和區中山路二段356號","121.492856666667","25.003045","6500300","中和區"
"235056","096-UM","2017/06/29 18:59:25","新北市中和區員山路466巷34號","121.482038333333","25.0062766666667","6500300","中和區"
"235039","097-UM","2017/06/29 18:59:31","新北市中和區安樂路217巷56號","121.513025","24.99761","6500300","中和區"
"235040","150-BY","2017/06/29 18:59:43","新北市中和區安樂路87號","121.512921666667","24.9946616666667","6500300","中和區"
"235058","151-BY","2017/06/29 18:59:39","新北市中和區連城路569巷9弄9號","121.479663333333","24.9941266666667","6500300","中和區"
"235055","183-VK","2017/06/29 18:59:30","新北市中和區民生街85巷5弄2號","121.469321666667","25.0039566666667","6500300","中和區"
"235038","185-VK","2017/06/29 18:59:32","新北市中和區大勇街43巷9號","121.517278333333","24.994685","6500300","中和區"
"235049","186-VK","2017/06/29 18:59:34","新北市中和區景新街210巷2弄4號","121.507008333333","24.9941783333333","6500300","中和區"
"235067","255-BX","2017/06/29 18:59:25","新北市中和區中正路839巷3號","121.484573333333","25.0024216666667","6500300","中和區"
"235044","293-VK","2017/06/29 18:59:36","新北市中和區中興街152號","121.49988","24.9919383333333","6500300","中和區"
"235072","301-VK","2017/06/29 18:59:41","新北市中和區中山路二段259號","121.497175","25.0023316666667","6500300","中和區"
"235043","352-BY","2017/06/29 18:59:27","新北市中和區秀朗路三段101號","121.52653","24.9948583333333","6500300","中和區"
"235051","376-QA","2017/06/29 18:59:36","新北市中和區忠孝街106巷9弄1號","121.512408333333","24.9845616666667","6500300","中和區"
"235068","377-QA","2017/06/29 18:59:34","新北市中和區圓通路265巷30號","121.495751666667","24.9925116666667","6500300","中和區"
"235061","378-QA","2017/06/29 18:59:31","新北市中和區民享街79巷1號","121.474505","25.001955","6500300","中和區"
"235050","4979-A6","2017/06/29 18:59:41","新北市中和區華新街50巷1號","121.507838333333","24.983945","6500300","中和區"
"235069","4980-A6","2017/06/29 18:59:36","新北市中和區中和路219-1號","121.504176666667","24.999905","6500300","中和區"
"235042","551-UM","2017/06/29 18:59:45","新北市中和區秀朗路三段78巷1弄28號","121.525358333333","24.9933716666667","6500300","中和區"
"235070","558-UM","2017/06/29 18:59:09","新北市中和區南山路37巷6號","121.502418333333","24.9987516666667","6500300","中和區"
"235045","565-BX","2017/06/29 18:59:33","新北市中和區景新街467巷6號","121.513726666667","24.9881266666667","6500300","中和區"
"235054","640-BX","2017/06/29 18:59:32","新北市中和區民享街35巷18號","121.474923333333","25.0040016666667","6500300","中和區"
"235060","647-TV","2017/06/29 18:59:37","新北市中和區中山路三段214號","121.471413333333","25.00653","6500300","中和區"
"235047","732-UM","2017/06/29 18:59:42","新北市中和區興南路二段54巷2-4號","121.506168333333","24.9854616666667","6500300","中和區"
"235071","783-BX","2017/06/29 18:59:35","新北市中和區員山路36巷16-2號","121.485445","24.99118","6500300","中和區"
"235057","801-TS","2017/06/29 18:59:46","新北市中和區民安街23號","121.480408333333","25.0004516666667","6500300","中和區"
"235041","802-TS","2017/06/29 18:59:37","新北市中和區中安街178巷13弄1號","121.510248333333","24.9987133333333","6500300","中和區"
"235052","805-TS","2017/06/29 18:59:38","新北市中和區興南路二段301-1號","121.502213333333","24.9812933333333","6500300","中和區"
"235048","896-TW","2017/06/29 18:59:27","新北市中和區華新街65號","121.508038333333","24.9840583333333","6500300","中和區"
"235053","900-TW","2017/06/29 18:59:27","新北市中和區民德路290巷1號","121.467193333333","24.9957216666667","6500300","中和區"
"235040","157-BY","2017/06/29 18:59:31","新北市中和區興南路一段160號","121.508231666667","24.986675","6500300","中和區"
"235037","AAC-213","2017/06/29 18:59:35","新北市中和區秀朗路三段175巷10號","121.524796666667","24.9913433333333","6500300","中和區"
"235059","AAC-215","2017/06/29 18:59:34","新北市中和區圓通路367巷20弄23號","121.491376666667","24.9882916666667","6500300","中和區"
"220068","013-TV","2017/06/29 18:59:33","新北市板橋區中山路二段465巷4號","121.481735","25.020765","6500100","板橋區"
"220065","072-UY","2017/06/29 18:59:43","新北市板橋區漢生東路326巷2弄1號","121.471496666667","25.007885","6500100","板橋區"
"220086","073-UY","2017/06/29 18:59:36","新北市板橋區大智街15號","121.455643333333","25.0148383333333","6500100","板橋區"
"220106","075-UY","2017/06/29 18:59:39","新北市板橋區民生路二段250號","121.468471666667","25.0232566666667","6500100","板橋區"
"247008","339-TH","2017/06/29 18:49:50","新北市五股區中興路三段163號","121.449303333333","25.0808766666667","6501400","蘆洲區"
"247002","336-TH","2017/06/29 18:54:23","新北市五股區中興路三段163號","121.449213333333","25.0808133333333","6501400","蘆洲區"
"247014","057-VK","2017/06/29 18:37:44","新北市五股區中興路三段163號","121.44934","25.0809083333333","6501400","蘆洲區"
"247006","053-VK","2017/06/29 18:58:37","新北市五股區中興路三段163號","121.449196666667","25.0808116666667","6501400","蘆洲區"
"226004","312-R5","2017/06/29 18:59:38","新北市平溪區靜安路二段378號","121.73818","25.0246","6502400","平溪區"
"228003","097-TW","2017/06/29 18:59:40","新北市貢寮區和美里龍洞街47號","121.911878333333","25.1130866666667","6502600","貢寮區"
"228001","212-TW","2017/06/29 18:59:28","新北市貢寮區真理里新港街175號","121.931066666667","25.0566733333333","6502600","貢寮區"
"228002","585-TW","2017/06/29 18:59:34","新北市貢寮區福隆里東興街106巷25弄1號","121.94639","25.0183","6502600","貢寮區"
"224010","AGQ-8101","2017/06/29 18:54:22","新北市瑞芳區基山街31巷10號","121.845458333333","25.1095833333333","6501200","瑞芳區"
"224006","676-BX","2017/06/29 18:59:38","新北市瑞芳區中正路49號","121.806871666667","25.1072866666667","6501200","瑞芳區"
"224011","420-VK","2017/06/29 18:59:18","新北市瑞芳區崙頂路1-6號","121.847061666667","25.1046866666667","6501200","瑞芳區"
"224009","285-BY","2017/06/29 18:59:32","新北市瑞芳區祈堂路53-1號","121.859521666667","25.110735","6501200","瑞芳區"
"224008","275-VK","2017/06/29 18:59:45","新北市瑞芳區逢甲路347-2號","121.79785","25.1140016666667","6501200","瑞芳區"
"224007","273-VK","2017/06/29 18:59:37","新北市瑞芳區大埔路慶安新村44-1號","121.762806666667","25.100195","6501200","瑞芳區"
"224005","271-BY","2017/06/29 18:59:44","新北市瑞芳區濱二路73號","121.828861666667","25.1208766666667","6501200","瑞芳區"
"227004","642-TC","2017/06/29 18:59:30","新北市雙溪區平林里康福家園10號","121.858776666667","25.037335","6502500","雙溪區"
"227010","400-TW","2017/06/29 18:59:32","新北市雙溪區牡丹里中正路58巷23號","121.866466666667","25.0416316666667","6502500","雙溪區"
"253006","032-BX","2017/06/29 18:59:34","新北市石門區八甲4-1號","121.521161666667","25.282525","6502200","石門區"
"253005","295-VK","2017/06/29 18:59:31","新北市石門區中山路72號","121.567613333333","25.2917766666667","6502200","石門區"
"208003","665-BX","2017/06/29 18:59:34","新北市金山區中正路26號","121.635798333333","25.22225","6502700","金山區"
"208001","761-BX","2017/06/29 18:59:45","新北市金山區中山路85號","121.640218333333","25.2187566666667","6502700","金山區"
"251009","008-UM","2017/06/29 18:59:42","新北市淡水區重建街74號","121.439918333333","25.172075","6501000","淡水區"
"251001","011-UM","2017/06/29 18:59:39","新北市淡水區自強路58號","121.463226666667","25.1275016666667","6501000","淡水區"
"251007","179-VK","2017/06/29 18:59:42","新北市淡水區民生路115-7號","121.464788333333","25.1387283333333","6501000","淡水區"
"251014","182-VK","2017/06/29 18:59:26","新北市淡水區崙頂3號","121.490901666667","25.2239433333333","6501000","淡水區"
"251010","413-VK","2017/06/29 18:59:28","新北市淡水區淡海路111號","121.421861666667","25.1826983333333","6501000","淡水區"
"251012","441-VK","2017/06/29 18:59:32","新北市淡水區新春街126巷15弄1號","121.440481666667","25.1809066666667","6501000","淡水區"
"251016","442-VK","2017/06/29 18:59:40","新北市淡水區淡金路三段325號","121.448996666667","25.2060883333333","6501000","淡水區"
"251002","672-BX","2017/06/29 18:59:36","新北市淡水區中正東路61號","121.446951666667","25.1678116666667","6501000","淡水區"
"251003","766-UM","2017/06/29 18:59:30","新北市淡水區大義街11號","121.443135","25.1780816666667","6501000","淡水區"
"207003","550-UM","2017/06/29 18:59:28","新北市萬里區大鵬里頂社29號","121.65655","25.21081","6502800","萬里區"
"207004","225-TW","2017/06/29 18:59:27","新北市萬里區萬里里獅頭路23號","121.693253333333","25.1782483333333","6502800","萬里區"
"252002","178-VK","2017/06/29 18:59:36","新北市三芝區中正路一段82號","121.504151666667","25.2573","6502100","三芝區"
"252003","249-BX","2017/06/29 18:59:42","新北市三芝區後厝里北勢子42-6號","121.472403333333","25.2527283333333","6502100","三芝區"
"252001","702-TV","2017/06/29 18:59:45","新北市三芝區中興街二段260號","121.501776666667","25.2530383333333","6502100","三芝區"
"208002","170-UY","2017/06/29 18:59:35","新北市金山區信義路72號","121.635178333333","25.2194733333333","6502700","金山區"
"237001","361-BY","2017/06/29 15:27:57","新北市三峽區中山路459巷137號","121.349356666667","24.93355","6500900","三峽區"
"237004","078-UY","2017/06/29 18:59:40","新北市三峽區有木115號","121.436141666667","24.8554566666667","6500900","三峽區"
"237007","153-BY","2017/06/29 18:59:36","新北市三峽區大埔路149號","121.366628333333","24.9057816666667","6500900","三峽區"
"237013","252-BX","2017/06/29 18:56:54","新北市樹林區中山路三段210-2號","121.38086","24.9671316666667","6500900","三峽區"
"237012","275-BY","2017/06/29 18:59:38","新北市三峽區三樹路261號","121.379108333333","24.942765","6500900","三峽區"
"237008","302-VK","2017/06/29 18:59:35","新北市三峽區白雞28-1號","121.370085","24.9121966666667","6500900","三峽區"
"237014","433-BY","2017/06/29 18:59:24","新北市三峽區隆恩街236號","121.357736666667","24.9411683333333","6500900","三峽區"
"237006","5529-G3","2017/06/29 18:59:40","新北市三峽區溪東路233巷47弄2號","121.410625","24.934655","6500900","三峽區"
"237011","572-TV","2017/06/29 18:59:36","新北市三峽區介壽路三段245號","121.407833333333","24.949585","6500900","三峽區"
"237016","649-BX","2017/06/29 18:59:43","新北市三峽區建安80-3號","121.452671666667","24.9225116666667","6500900","三峽區"
"237010","706-TV","2017/06/29 18:59:29","新北市三峽區國光街360號","121.371081666667","24.9397816666667","6500900","三峽區"
"237005","AKY-6261","2017/06/29 18:59:39","新北市三峽區中山路459巷163-1號","121.349248333333","24.9334616666667","6500900","三峽區"
"236071","105-UM","2017/06/29 18:59:36","新北市土城區清水路105號","121.456933333333","24.982355","6501300","土城區"
"236042","107-UM","2017/06/29 18:59:40","新北市土城區裕民路136巷29號","121.450736666667","24.9850333333333","6501300","土城區"
"236078","166-UM","2017/06/29 18:59:29","新北市土城區中央路四段125巷7號","121.416693333333","24.95725","6501300","土城區"
"236030","253-BX","2017/06/29 18:59:31","新北市土城區中央路二段392-1號","121.439706666667","24.9708366666667","6501300","土城區"
"236026","269-VK","2017/06/29 18:59:28","新北市土城區光明街4號","121.441955","24.974605","6501300","土城區"
"236014","270-VK","2017/06/29 18:59:43","新北市土城區立德路91號","121.462898333333","24.987845","6501300","土城區"
"236037","271-VK","2017/06/29 18:59:36","新北市土城區仁愛路54巷1-3號","121.462391666667","24.97851","6501300","土城區"
"236021","401-BY","2017/06/29 18:59:37","新北市土城區明峰街53巷2號","121.467728333333","24.9868016666667","6501300","土城區"
"236058","912-UM","2017/06/29 18:59:26","新北市土城區金城路一段118號","121.445768333333","24.9744416666667","6501300","土城區"
"236051","913-UM","2017/06/29 18:59:36","新北市土城區青雲路316號","121.458926666667","24.9781666666667","6501300","土城區"
"236062","915-UM","2017/06/29 18:59:28","新北市土城區延和路41巷6弄18號","121.466755","24.9903366666667","6501300","土城區"
"236053","AAC-216","2017/06/29 18:59:26","新北市土城區裕民路145-1號","121.451683333333","24.986295","6501300","土城區"
"242002","413-TV","2017/06/29 18:59:42","新北市新莊區新泰路357巷3弄57號","121.441893333333","25.0393483333333","6500500","新莊區"
"238023","601-UM","2017/06/29 18:59:35","新北市樹林區工興街15號","121.3982","25.013715","6500700","樹林區"
"238019","599-UM","2017/06/29 18:59:40","新北市樹林區東華街33號","121.415153333333","24.981765","6500700","樹林區"
"238018","571-TV","2017/06/29 18:59:37","新北市樹林區八德街37-3號","121.418906666667","24.9830516666667","6500700","樹林區"
"238024","5061-A6","2017/06/29 18:59:26","新北市樹林區中山路三段204號","121.387166666667","24.9682616666667","6500700","樹林區"
"238022","312-TH","2017/06/29 18:59:42","新北市樹林區東興街43-1號","121.410813333333","24.9774316666667","6500700","樹林區"
"238021","311-TH","2017/06/29 15:41:21","新北市樹林區柑園街一段68號","121.402155","24.960255","6500700","樹林區"
"238025","303-VK","2017/06/29 18:59:46","新北市樹林區中山路三段202-1號","121.38601","24.96849","6500700","樹林區"
"238014","282-BY","2017/06/29 18:59:40","新北市樹林區大安路62號","121.423973333333","24.99971","6500700","樹林區"
"238020","268-VK","2017/06/29 18:59:33","新北市樹林區俊英街79號","121.425976666667","25.0076533333333","6500700","樹林區"
"238026","172-UY","2017/06/29 18:59:42","新北市樹林區中山路三段160-1號","121.38929","24.9702066666667","6500700","樹林區"
"238016","169-UY","2017/06/29 18:59:27","新北市樹林區日新街148巷37號","121.419321666667","24.9878883333333","6500700","樹林區"
"239007","AAC-297","2017/06/29 18:59:29","新北市鶯歌區中正一路345巷1號","121.35752","24.957305","6500800","鶯歌區"
"239006","891-R6","2017/06/29 18:59:42","新北市鶯歌區鶯桃路296巷72弄10號","121.33691","24.9614316666667","6500800","鶯歌區"
"239008","527-UM","2017/06/29 18:59:37","新北市鶯歌區國際二路38號","121.335795","24.9754016666667","6500800","鶯歌區"
"239005","526-UM","2017/06/29 18:59:44","新北市鶯歌區大湖路361巷8號","121.3307","24.9778366666667","6500800","鶯歌區"
"239001","417-VK","2017/06/29 18:59:39","新北市鶯歌區永安街5號","121.33823","24.9554216666667","6500800","鶯歌區"
"239003","360-BY","2017/06/29 18:59:42","新北市鶯歌區鶯桃路658巷87號","121.331271666667","24.9705366666667","6500800","鶯歌區"
"239004","193-VK","2017/06/29 18:59:37","新北市鶯歌區中正三路230巷6號","121.330891666667","24.9380766666667","6500800","鶯歌區"
"221008","489-VK","2017/06/29 18:59:31","新北市汐止區康寧街753巷2弄28號","121.640466666667","25.0747983333333","6501100","汐止區"
"221036","130-UY","2017/06/29 18:59:31","新北市汐止區水碓街7號","121.664063333333","25.0698483333333","6501100","汐止區"
"221015","131-UY","2017/06/29 18:59:41","新北市汐止區鄉長路一段55巷5號","121.665591666667","25.0758616666667","6501100","汐止區"
"221010","269-BY","2017/06/29 18:59:38","新北市汐止區康寧街901號","121.651348333333","25.0748866666667","6501100","汐止區"
"221010","276-VK","2017/06/29 13:17:07","新北市汐止區汐萬路一段256巷3號","121.653438333333","25.07459","6501100","汐止區"
"221031","277-VK","2017/06/29 00:28:13","新北市汐止區汐萬路一段256巷3號","121.652588333333","25.0745916666667","6501100","汐止區"
"221012","278-VK","2017/06/29 18:59:31","新北市汐止區康寧街901號","121.650816666667","25.07528","6501100","汐止區"
"221023","279-VK","2017/06/29 15:15:04","新北市汐止區康寧街901號","121.651776666667","25.07509","6501100","汐止區"
"221032","280-BY","2017/06/29 18:59:28","新北市汐止區橫科路407巷30弄28號","121.627283333333","25.0483116666667","6501100","汐止區"
"221027","281-BY","2017/06/29 18:57:26","新北市汐止區康寧街901號","121.650875","25.0752783333333","6501100","汐止區"
"221038","297-VK","2017/06/29 18:59:35","新北市汐止區汐萬路一段308號","121.650456666667","25.0747016666667","6501100","汐止區"
"221029","298-VK","2017/06/29 18:59:40","新北市汐止區樟樹一路242號","121.642348333333","25.0669433333333","6501100","汐止區"
"221021","299-VK","2017/06/29 18:59:37","新北市汐止區汐萬路一段256巷3號","121.652493333333","25.074385","6501100","汐止區"
"221035","622-UM","2017/06/29 18:59:28","新北市汐止區汐萬路一段244-1號","121.651435","25.0733","6501100","汐止區"
"221025","623-UM","2017/06/29 18:59:37","新北市汐止區汐萬路一段137號","121.653591666667","25.07114","6501100","汐止區"
"221033","647-BX","2017/06/29 18:59:32","新北市汐止區南勢街1巷1號","121.627046666667","25.0374333333333","6501100","汐止區"
"221002","707-TV","2017/06/29 18:59:41","新北市汐止區大同路一段2號","121.621048333333","25.05503","6501100","汐止區"
"220079","145-BY","2017/06/29 18:59:44","新北市板橋區民權路202巷8弄2號","121.460143333333","25.0146216666667","6500100","板橋區"
"220082","610-BX","2017/06/29 18:59:40","新北市板橋區篤行路三段玉平巷76弄12號","121.42774","24.9859533333333","6500100","板橋區"
"220101","245-BX","2017/06/29 16:49:26","新北市板橋區民生路二段120號","121.470603333333","25.0196033333333","6500100","板橋區"
"220069","258-TC","2017/06/29 18:59:44","新北市板橋區大華街20號","121.458908333333","25.0061816666667","6500100","板橋區"
"220056","276-BY","2017/06/29 18:59:29","新北市板橋區信義路118號","121.458386666667","24.9925366666667","6500100","板橋區"
"220072","277-BY","2017/06/29 18:59:40","新北市板橋區大觀路三段36巷16號","121.433943333333","24.99612","6500100","板橋區"
"220094","283-UM","2017/06/29 18:59:23","新北市板橋區民生路二段220號","121.469178333333","25.0216816666667","6500100","板橋區"
"220071","283-VK","2017/06/29 18:59:37","新北市板橋區忠孝路176巷23號","121.465226666667","25.001815","6500100","板橋區"
"220053","285-VK","2017/06/29 18:59:36","新北市板橋區中山路二段89巷39號","121.473693333333","25.01709","6500100","板橋區"
"220083","286-VK","2017/06/29 18:59:28","新北市板橋區大觀路一段38巷156弄154號","121.443835","25.00894","6500100","板橋區"
"220081","287-VK","2017/06/29 18:59:32","新北市板橋區光華街13巷2-3號","121.45411","25.0116083333333","6500100","板橋區"
"220090","288-VK","2017/06/29 18:59:29","新北市板橋區民生路二段236號","121.468195","25.02319","6500100","板橋區"
"220061","293-UM","2017/06/29 18:59:30","新北市板橋區富山街109巷28弄4號","121.475796666667","25.02168","6500100","板橋區"
"220084","296-UM","2017/06/29 18:59:39","新北市板橋區大觀路二段152號","121.44159","24.998685","6500100","板橋區"
"220075","297-UM","2017/06/29 18:59:27","新北市板橋區館前西路213巷6號","121.454456666667","25.00834","6500100","板橋區"
"220062","305-R5","2017/06/29 18:58:04","新北市板橋區中山路二段90巷37號","121.475935","25.015355","6500100","板橋區"
"220092","307-R5","2017/06/29 18:59:26","新北市板橋區漢生東路21號","121.46485","25.0171083333333","6500100","板橋區"
"220098","317-R6","2017/06/29 18:59:23","新北市板橋區民生路二段224號","121.46902","25.0219033333333","6500100","板橋區"
"220064","486-VK","2017/06/29 18:59:42","新北市板橋區縣民大道二段106號","121.466775","25.0152566666667","6500100","板橋區"
"220089","487-VK","2017/06/29 18:59:28","新北市板橋區民生路二段210-1號","121.469425","25.0213833333333","6500100","板橋區"
"220088","491-VK","2017/06/29 18:58:45","新北市板橋區民生路二段148號","121.471461666667","25.01992","6500100","板橋區"
"220035","560-BX","2017/06/29 18:59:29","新北市板橋區中正路275巷1號","121.455348333333","25.0188016666667","6500100","板橋區"
"220103","561-BX","2017/06/29 18:59:32","新北市板橋區民生路二段121號","121.470711666667","25.0184566666667","6500100","板橋區"
"220063","609-BX","2017/06/29 18:59:37","新北市板橋區中山路二段248號","121.47871","25.0182733333333","6500100","板橋區"
"220091","637-BX","2017/06/29 18:59:24","新北市板橋區莊敬路208巷6弄8號","121.471121666667","25.02119","6500100","板橋區"
"220057","686-BX","2017/06/29 18:59:44","新北市板橋區民權路31號","121.462348333333","25.011065","6500100","板橋區"
"220077","687-BX","2017/06/29 18:59:44","新北市板橋區龍興街97巷1號","121.444245","25.00255","6500100","板橋區"
"220093","689-BX","2017/06/29 18:59:27","新北市板橋區民生路二段198號","121.469745","25.0209","6500100","板橋區"
"220054","741-BX","2017/06/29 18:59:45","新北市板橋區後埔街29號","121.460515","25.00645","6500100","板橋區"
"220073","806-UM","2017/06/29 18:59:35","新北市板橋區西門街2號","121.455865","25.011595","6500100","板橋區"
"220055","827-TW","2017/06/29 18:59:40","新北市板橋區民安街9號","121.466695","25.0118166666667","6500100","板橋區"
"220067","829-TW","2017/06/29 18:59:39","新北市板橋區三民路二段正隆巷12弄23號","121.477375","25.0137216666667","6500100","板橋區"
"220102","830-TW","2017/06/29 18:59:29","新北市板橋區縣民大道三段133巷35號","121.477018333333","25.0247083333333","6500100","板橋區"
"220096","831-TW","2017/06/29 18:59:46","新北市板橋區莊敬路208巷2弄6號","121.471661666667","25.0216716666667","6500100","板橋區"
"220074","895-R6","2017/06/29 18:59:29","新北市板橋區西門街59號","121.45439","25.0091733333333","6500100","板橋區"
"220097","AAC-210","2017/06/29 18:59:28","新北市板橋區四維路137巷25號","121.463918333333","25.02471","6500100","板橋區"
"220070","AAC-253","2017/06/29 18:59:41","新北市板橋區四川路一段65號","121.459721666667","25.0060266666667","6500100","板橋區"
