"lineid","car","time","location","longitude","latitude","cityid","cityname"
"234046","148-BY","2017/06/29 19:09:36","新北市永和區永元路18巷1號","121.522503333333","25.00035","6500400","永和區"
"234013","149-BY","2017/06/29 19:09:23","新北市永和區保福路二段69號","121.510678333333","25.01256","6500400","永和區"
"234007","207-UY","2017/06/29 19:09:38","新北市永和區中山路一段236號","121.507273333333","25.00739","6500400","永和區"
"234081","298-R6","2017/06/29 19:09:42","新北市永和區福和路57巷14弄1號","121.522791666667","25.00699","6500400","永和區"
"234038","336-UY","2017/06/29 19:09:29","新北市永和區民樂街59巷15號","121.528403333333","24.9982666666667","6500400","永和區"
"234064","337-UY","2017/06/29 19:09:32","新北市永和區秀朗路二段27號","121.521186666667","25.0025133333333","6500400","永和區"
"234086","338-UY","2017/06/29 19:09:38","新北市永和區永貞路107號","121.517865","25.0043583333333","6500400","永和區"
"234070","552-UM","2017/06/29 19:09:37","新北市永和區豫溪街137巷1弄23號","121.518421666667","25.0103816666667","6500400","永和區"
"234054","553-UM","2017/06/29 19:09:35","新北市永和區竹林路78號","121.519296666667","25.0128833333333","6500400","永和區"
"234017","745-BX","2017/06/29 19:09:44","新北市永和區文化路90巷15號","121.513735","25.016075","6500400","永和區"
"234030","746-BX","2017/06/29 19:09:28","新北市永和區民生路23號","121.52288","24.99884","6500400","永和區"
"234061","AAD-866","2017/06/29 19:09:30","新北市永和區安樂路304巷21號","121.51509","25.0057633333333","6500400","永和區"
"234042","862-TW","2017/06/29 19:09:38","新北市永和區永貞路334號","121.511245","25.0055716666667","6500400","永和區"
"234050","863-TW","2017/06/29 19:09:40","新北市永和區文化路135巷26弄1號","121.510646666667","25.0143216666667","6500400","永和區"
"234026","9371-KE","2017/06/29 19:09:31","新北市永和區安樂路198巷4弄2號","121.515593333333","25.0020133333333","6500400","永和區"
"249005","172-UM","2017/06/29 19:09:35","新北市八里區長道坑2號","121.393681666667","25.1245316666667","6502300","八里區"
"249001","173-UM","2017/06/29 19:09:37","新北市八里區龍米路二段228-7號","121.432058333333","25.1584583333333","6502300","八里區"
"248014","025-BX","2017/06/29 19:01:50","新北市五股區民義路一段107巷23號","121.432108333333","25.08451","6501500","五股區"
"248020","225-UY","2017/06/29 19:09:36","新北市五股區凌雲路三段57號","121.42531","25.1250183333333","6501500","五股區"
"248012","247-BX","2017/06/29 19:09:17","新北市五股區中興路四段48巷9號","121.438255","25.0834116666667","6501500","五股區"
"248016","261-SL","2017/06/29 19:09:28","新北市五股區成泰路三段543巷36弄6號","121.450791666667","25.10283","6501500","五股區"
"248010","272-BY","2017/06/29 19:09:35","新北市五股區水碓一路23號","121.430666666667","25.0713066666667","6501500","五股區"
"248004","677-BX","2017/06/29 19:09:41","新北市五股區六合街5號","121.431728333333","25.0885033333333","6501500","五股區"
"248002","678-BX","2017/06/29 19:09:34","新北市五股區凌雲路一段158巷14-1號","121.447831666667","25.1034633333333","6501500","五股區"
"234023","9380-KE","2017/06/29 19:09:36","新北市永和區中興街10巷54號","121.516123333333","25.01103","6500400","永和區"
"234077","969-R7","2017/06/29 19:09:30","新北市永和區民族街27巷1號","121.518996666667","24.9995833333333","6500400","永和區"
"234074","AAC-211","2017/06/29 19:09:31","新北市永和區竹林路217號","121.520715","25.0086833333333","6500400","永和區"
"234067","AAC-212","2017/06/29 19:09:36","新北市永和區永和路一段51號","121.512633333333","25.006625","6500400","永和區"
"234003","AAC-295","2017/06/29 19:07:35","新北市永和區中山路一段106號","121.511041666667","25.0104233333333","6500400","永和區"
"244013","069-UM","2017/06/29 19:09:40","新北市林口區麗園二街1巷3-2號","121.377248333333","25.0703466666667","6501700","林口區"
"244019","403-UM","2017/06/29 19:09:27","新北市林口區麗園二街42巷25號","121.382026666667","25.06652","6501700","林口區"
"244009","410-SL","2017/06/29 19:09:36","新北市林口區竹林路366巷10號","121.392426666667","25.0847316666667","6501700","林口區"
"244023","483-VK","2017/06/29 19:09:45","新北市林口區文化三路一段555巷50號","121.369805","25.07691","6501700","林口區"
"244011","701-TV","2017/06/29 19:09:27","新北市林口區中正路365號","121.387386666667","25.0776783333333","6501700","林口區"
"244025","837-TS","2017/06/29 19:09:35","新北市林口區文化北路一段542-1號","121.36805","25.0798166666667","6501700","林口區"
"243013","AAD-798","2017/06/29 19:09:42","新北市泰山區明志路三段275號","121.423106666667","25.0369733333333","6501600","泰山區"
"243009","297-R6","2017/06/29 19:09:43","新北市泰山區明志路一段117巷7號","121.433983333333","25.06343","6501600","泰山區"
"243015","380-SR","2017/06/29 19:09:32","新北市泰山區明志路一段353號","121.431091666667","25.058405","6501600","泰山區"
"243014","421-VK","2017/06/29 19:09:26","新北市泰山區泰林路二段305號","121.429968333333","25.0631066666667","6501600","泰山區"
"243010","548-UM","2017/06/29 19:09:41","新北市泰山區仁愛路39巷19號","121.431173333333","25.0552083333333","6501600","泰山區"
"243011","549-UM","2017/06/29 19:09:23","新北市泰山區明志路二段372巷2號","121.425315","25.0450683333333","6501600","泰山區"
"243012","646-TV","2017/06/29 19:09:41","新北市泰山區辭修路36巷1弄7號","121.428331666667","25.058075","6501600","泰山區"
"243016","680-BX","2017/06/29 19:09:37","新北市泰山區明志路三段45號","121.425008333333","25.0423416666667","6501600","泰山區"
"222003","436-BY","2017/06/29 19:09:38","新北市深坑區深南路162號","121.626138333333","25.0148983333333","6501800","深坑區"
"222002","659-BX","2017/06/29 19:09:28","新北市深坑區烏月路1號","121.633446666667","25.00824","6501800","深坑區"
"222001","696-SL","2017/06/29 19:09:29","新北市深坑區北深路一段300號","121.624243333333","25.005775","6501800","深坑區"
"231041","002-UM","2017/06/29 19:09:25","新北市新店區溪園路405號","121.524076666667","24.9782466666667","6500600","新店區"
"231056","0293-UT","2017/06/29 19:09:31","新北市新店區建國路210-1號","121.53784","24.981","6500600","新店區"
"231059","046-UY","2017/06/29 19:09:35","新北市新店區安和路二段142號","121.519666666667","24.9727116666667","6500600","新店區"
"231051","107-UY","2017/06/29 19:09:37","新北市新店區中正路380號","121.534948333333","24.9770666666667","6500600","新店區"
"231047","108-UY","2017/06/29 19:09:26","新北市新店區德正街29號","121.544651666667","24.97127","6500600","新店區"
"231052","187-VK","2017/06/29 19:09:33","新北市新店區自強路115號","121.546133333333","24.9231433333333","6500600","新店區"
"231007","189-VK","2017/06/29 12:08:33","新北市新店區安華路28-1號","121.519586666667","24.961205","6500600","新店區"
"231063","268-BY","2017/06/29 19:09:45","新北市新店區車子路140號","121.505266666667","24.94773","6500600","新店區"
"231046","278-BY","2017/06/29 19:09:26","新北市新店區新潭路一段37-1號","121.52418","24.941755","6500600","新店區"
"231050","AAD-862","2017/06/29 19:09:25","新北市新店區竹林路2巷31號","121.550451666667","24.9501833333333","6500600","新店區"
"231060","355-BY","2017/06/29 19:09:23","新北市新店區安康路二段330號","121.504355","24.9578583333333","6500600","新店區"
"231058","3712-VJ","2017/06/29 19:09:29","新北市新店區光明街138巷13弄1號","121.540388333333","24.9611433333333","6500600","新店區"
"231067","4772-VM","2017/06/29 19:09:36","新北市新店區安康路一段207巷6弄8號","121.525455","24.962725","6500600","新店區"
"231065","512-UM","2017/06/29 19:09:44","新北市新店區安祥路139號","121.474591666667","24.955985","6500600","新店區"
"231054","513-UM","2017/06/29 19:09:41","新北市新店區新店路178號","121.537128333333","24.9557933333333","6500600","新店區"
"231064","515-UM","2017/06/29 19:09:38","新北市新店區安忠路63巷1號","121.511545","24.95806","6500600","新店區"
"231042","616-UM","2017/06/29 19:09:27","新北市新店區中興路一段115號","121.541553333333","24.9628","6500600","新店區"
"231045","617-UM","2017/06/29 19:09:26","新北市新店區北宜路一段121-3號","121.540365","24.9538733333333","6500600","新店區"
"231061","618-UM","2017/06/29 19:09:37","新北市新店區安康路一段83-1號","121.5296","24.9612733333333","6500600","新店區"
"231040","619-UM","2017/06/29 19:09:44","新北市新店區三民路98-3號","121.534018333333","24.973455","6500600","新店區"
"231049","719-UM","2017/06/29 19:09:29","新北市新店區二十張路25巷18弄2號","121.5392","24.9818016666667","6500600","新店區"
"231062","720-UM","2017/06/29 19:09:39","新北市新店區安平路11巷2號","121.524285","24.96529","6500600","新店區"
"231044","897-TW","2017/06/29 19:09:42","新北市新店區中興路三段214號","121.543618333333","24.9824366666667","6500600","新店區"
"231043","899-TW","2017/06/29 19:09:40","新北市新店區寶橋路132號","121.547341666667","24.97613","6500600","新店區"
"231066","AKT-0513","2017/06/29 19:09:33","新北市新店區安康路三段410號","121.485741666667","24.9516233333333","6500600","新店區"
"241026","066-VK","2017/06/29 19:09:27","新北市三重區泉州街57號","121.494693333333","25.0548866666667","6500200","三重區"
"241031","156-TC","2017/06/29 19:09:29","新北市三重區重新路四段121號","121.484613333333","25.0519833333333","6500200","三重區"
"241020","413-TH","2017/06/29 19:09:28","新北市三重區後竹圍街197號","121.484983333333","25.0714866666667","6500200","三重區"
"241029","942-UM","2017/06/29 19:09:36","新北市三重區集美街241號","121.492278333333","25.0554433333333","6500200","三重區"
"235066","003-UY","2017/06/29 19:09:41","新北市中和區廣福路16號","121.505178333333","25.0026816666667","6500300","中和區"
"235064","005-UY","2017/06/29 19:09:32","新北市中和區泰和街9號","121.499501666667","25.0002733333333","6500300","中和區"
"235063","006-UY","2017/06/29 19:09:32","新北市中和區中正路636號","121.485701666667","24.99619","6500300","中和區"
"235053","031-BX","2017/06/29 19:09:42","新北市中和區中山路二段526巷27號","121.485835","25.0057883333333","6500300","中和區"
"235056","096-UM","2017/06/29 19:09:25","新北市中和區員山路548號","121.478831666667","25.0102733333333","6500300","中和區"
"235039","097-UM","2017/06/29 19:09:31","新北市永和區中正路129巷2號","121.515988333333","24.9978783333333","6500300","中和區"
"235040","150-BY","2017/06/29 19:09:43","新北市中和區宜安路11巷5號","121.51297","24.9953633333333","6500300","中和區"
"235058","151-BY","2017/06/29 19:09:39","新北市中和區員山路143巷2號","121.480798333333","24.9961966666667","6500300","中和區"
"235055","183-VK","2017/06/29 19:09:30","新北市中和區德光路77巷6弄2號","121.469841666667","25.0034916666667","6500300","中和區"
"235038","185-VK","2017/06/29 19:09:28","新北市中和區自強路42號","121.520148333333","24.9950316666667","6500300","中和區"
"235049","186-VK","2017/06/29 19:09:40","新北市中和區景安路102號","121.505366666667","24.9955366666667","6500300","中和區"
"235067","255-BX","2017/06/29 19:09:25","新北市中和區新生街188號","121.483713333333","24.99965","6500300","中和區"
"235044","293-VK","2017/06/29 19:09:36","新北市中和區復興路280巷33弄4號","121.50139","24.991495","6500300","中和區"
"235072","301-VK","2017/06/29 19:09:41","新北市中和區福美路269號","121.498103333333","25.00498","6500300","中和區"
"235043","352-BY","2017/06/29 19:09:27","新北市中和區景平路32號","121.523346666667","24.9905933333333","6500300","中和區"
"235051","376-QA","2017/06/29 19:09:36","新北市中和區忠孝街19巷33號","121.509595","24.9846966666667","6500300","中和區"
"235068","377-QA","2017/06/29 19:09:34","新北市中和區圓通路162巷1號","121.497198333333","24.99535","6500300","中和區"
"235061","378-QA","2017/06/29 19:09:31","新北市中和區中山路三段63巷9號","121.477186666667","25.004285","6500300","中和區"
"235050","4979-A6","2017/06/29 19:02:21","新北市中和區華新街51號","121.507903333333","24.98447","6500300","中和區"
"235069","4980-A6","2017/06/29 19:09:36","新北市中和區中山路二段181巷5號","121.501161666667","25.002025","6500300","中和區"
"235042","551-UM","2017/06/29 19:09:45","新北市中和區自立路15巷25號","121.523141666667","24.996015","6500300","中和區"
"235070","558-UM","2017/06/29 19:09:29","新北市中和區安和路191號","121.505935","24.9982516666667","6500300","中和區"
"235045","565-BX","2017/06/29 19:09:33","新北市中和區景新街467巷20弄9號","121.514711666667","24.9876033333333","6500300","中和區"
"235054","640-BX","2017/06/29 19:09:32","新北市中和區國光街8巷2號","121.4718","25.0002216666667","6500300","中和區"
"235060","647-TV","2017/06/29 19:09:37","新北市中和區自治街38號","121.475191666667","25.0031766666667","6500300","中和區"
"235047","732-UM","2017/06/29 19:09:32","新北市中和區興南路一段129號","121.508988333333","24.9876883333333","6500300","中和區"
"235071","783-BX","2017/06/29 19:09:36","新北市中和區員山路105號","121.480795","24.9945083333333","6500300","中和區"
"235057","801-TS","2017/06/29 19:09:25","新北市中和區民利街58巷3弄2號","121.478741666667","24.99923","6500300","中和區"
"235041","802-TS","2017/06/29 19:09:37","新北市中和區安平路145巷14號","121.511525","24.9983666666667","6500300","中和區"
"235052","805-TS","2017/06/29 19:09:38","新北市中和區興南路二段142巷19弄40號","121.502533333333","24.983415","6500300","中和區"
"235048","896-TW","2017/06/29 19:09:27","新北市中和區華新街137號","121.506648333333","24.9816733333333","6500300","中和區"
"235053","900-TW","2017/06/29 19:09:27","新北市中和區和平路200巷35弄1號","121.465335","24.9945716666667","6500300","中和區"
"235040","157-BY","2017/06/29 19:09:31","新北市中和區忠孝街1巷84號","121.50821","24.9849583333333","6500300","中和區"
"235037","AAC-213","2017/06/29 19:09:35","新北市中和區秀朗路三段128巷25弄7號","121.524146666667","24.9936566666667","6500300","中和區"
"235059","AAC-215","2017/06/29 19:09:34","新北市中和區圓通路294巷17-5號","121.488661666667","24.9904416666667","6500300","中和區"
"220068","013-TV","2017/06/29 19:09:33","新北市板橋區翠華街6巷53號","121.481441666667","25.02466","6500100","板橋區"
"220065","072-UY","2017/06/29 19:09:43","新北市板橋區民族路223號","121.469563333333","25.0073466666667","6500100","板橋區"
"220086","073-UY","2017/06/29 19:09:36","新北市板橋區中正路250巷53號","121.45776","25.01976","6500100","板橋區"
"220106","075-UY","2017/06/29 19:09:39","新北市板橋區莒光路1-1號","121.469545","25.024875","6500100","板橋區"
"247008","339-TH","2017/06/29 18:49:50","新北市五股區中興路三段163號","121.449303333333","25.0808766666667","6501400","蘆洲區"
"247002","336-TH","2017/06/29 18:54:23","新北市五股區中興路三段163號","121.449213333333","25.0808133333333","6501400","蘆洲區"
"247014","057-VK","2017/06/29 19:09:42","新北市五股區凌雲路一段21號","121.452576666667","25.1001216666667","6501400","蘆洲區"
"247006","053-VK","2017/06/29 19:01:48","新北市五股區中興路三段163號","121.449235","25.0809416666667","6501400","蘆洲區"
"226004","312-R5","2017/06/29 19:09:38","新北市平溪區靜安路二段551號","121.749258333333","25.0239816666667","6502400","平溪區"
"228003","097-TW","2017/06/29 19:09:40","新北市貢寮區和美里和美街34號","121.913651666667","25.08368","6502600","貢寮區"
"228001","212-TW","2017/06/29 19:09:28","新北市貢寮區仁理村仁愛路41巷5弄1號","121.925003333333","25.0536216666667","6502600","貢寮區"
"228002","585-TW","2017/06/29 19:09:34","新北市貢寮區福隆里福隆街32-1號","121.945108333333","25.01737","6502600","貢寮區"
"224010","AGQ-8101","2017/06/29 18:54:22","新北市瑞芳區基山街31巷10號","121.845458333333","25.1095833333333","6501200","瑞芳區"
"224006","676-BX","2017/06/29 19:09:38","新北市瑞芳區三爪子坑路106巷1-1號","121.808118333333","25.1046383333333","6501200","瑞芳區"
"224011","420-VK","2017/06/29 19:09:37","新北市瑞芳區崙頂路1-6號","121.847123333333","25.1047216666667","6501200","瑞芳區"
"224009","285-BY","2017/06/29 19:09:32","新北市瑞芳區長仁路40號","121.864571666667","25.117375","6501200","瑞芳區"
"224008","275-VK","2017/06/29 19:09:45","新北市瑞芳區瑞芳街86號","121.802311666667","25.1102016666667","6501200","瑞芳區"
"224005","271-BY","2017/06/29 19:09:24","新北市瑞芳區瑞濱路185號","121.817315","25.1135933333333","6501200","瑞芳區"
"227004","642-TC","2017/06/29 19:09:30","新北市雙溪區平林里外平林9-3號","121.859313333333","25.037975","6502500","雙溪區"
"227010","400-TW","2017/06/29 19:09:32","新北市雙溪區牡丹里中正路38號","121.864735","25.0384266666667","6502500","雙溪區"
"253006","032-BX","2017/06/29 19:09:34","新北市石門區崁子腳58-4號","121.530021666667","25.28616","6502200","石門區"
"253005","295-VK","2017/06/29 19:09:31","新北市石門區小坑14-3號","121.601313333333","25.28674","6502200","石門區"
"208003","665-BX","2017/06/29 19:09:31","新北市金山區中正路120號","121.63243","25.2216066666667","6502700","金山區"
"208001","761-BX","2017/06/29 19:09:45","新北市金山區福德街14號","121.63928","25.22175","6502700","金山區"
"251009","008-UM","2017/06/29 19:09:38","新北市淡水區清水街214號","121.440405","25.1712733333333","6501000","淡水區"
"251005","010-UM","2017/06/29 19:09:30","新北市淡水區原德路11號","121.442171666667","25.1712283333333","6501000","淡水區"
"251001","011-UM","2017/06/29 19:09:39","新北市淡水區自強路201巷39號","121.462111666667","25.1267983333333","6501000","淡水區"
"251007","179-VK","2017/06/29 19:09:42","新北市淡水區民生路145巷29號","121.466625","25.1388716666667","6501000","淡水區"
"251014","182-VK","2017/06/29 19:09:26","新北市淡水區小中寮18號","121.485911666667","25.2303183333333","6501000","淡水區"
"251010","413-VK","2017/06/29 19:09:28","新北市淡水區中正路一段156巷8號","121.421343333333","25.1803666666667","6501000","淡水區"
"251016","442-VK","2017/06/29 19:09:32","新北市淡水區淡金路三段331巷179號","121.448946666667","25.2038466666667","6501000","淡水區"
"251011","650-BX","2017/06/29 19:09:36","新北市淡水區中正東路二段143巷2弄1號","121.460623333333","25.14728","6501000","淡水區"
"251002","672-BX","2017/06/29 19:09:36","新北市淡水區中山路87巷1號","121.442566666667","25.1704233333333","6501000","淡水區"
"251003","766-UM","2017/06/29 19:09:30","新北市淡水區中山路159-1號","121.440826666667","25.1730416666667","6501000","淡水區"
"207003","550-UM","2017/06/29 19:09:28","新北市萬里區大鵬里萬里加投24-2號","121.648928333333","25.2071783333333","6502800","萬里區"
"207004","225-TW","2017/06/29 19:09:27","新北市萬里區萬里里瑪鋉下街7號","121.691023333333","25.1780366666667","6502800","萬里區"
"252002","178-VK","2017/06/29 19:09:36","新北市三芝區中正路一段16-1號","121.502985","25.2587516666667","6502100","三芝區"
"252003","249-BX","2017/06/29 19:09:42","新北市三芝區錫板里南勢崗6號","121.479558333333","25.2619566666667","6502100","三芝區"
"252001","702-TV","2017/06/29 19:09:25","新北市三芝區長勤街45巷2號","121.5004","25.255065","6502100","三芝區"
"208002","170-UY","2017/06/29 19:09:04","新北市金山區仁愛路67巷26號","121.63423","25.2209533333333","6502700","金山區"
"237001","361-BY","2017/06/29 15:27:57","新北市三峽區中山路459巷137號","121.349356666667","24.93355","6500900","三峽區"
"237004","078-UY","2017/06/29 19:09:40","新北市三峽區有木188號","121.448518333333","24.8393166666667","6500900","三峽區"
"237007","153-BY","2017/06/29 19:09:36","新北市三峽區中正路二段87號","121.366378333333","24.9168516666667","6500900","三峽區"
"237013","252-BX","2017/06/29 19:09:33","新北市鶯歌區文化路206號","121.35273","24.9496983333333","6500900","三峽區"
"237012","275-BY","2017/06/29 19:09:38","新北市三峽區三樹路222巷236弄2號","121.390376666667","24.9430366666667","6500900","三峽區"
"237008","302-VK","2017/06/29 19:09:35","新北市三峽區中正路一段231號","121.371956666667","24.9267633333333","6500900","三峽區"
"237014","433-BY","2017/06/29 19:09:24","新北市三峽區中山路184巷2號","121.364055","24.936925","6500900","三峽區"
"237006","5529-G3","2017/06/29 19:09:40","新北市三峽區溪東路45巷11弄14號","121.400921666667","24.935585","6500900","三峽區"
"237011","572-TV","2017/06/29 19:09:36","新北市三峽區介壽路三段45號","121.39561","24.93733","6500900","三峽區"
"237016","649-BX","2017/06/29 19:09:23","新北市三峽區建安65號","121.447223333333","24.92682","6500900","三峽區"
"237010","706-TV","2017/06/29 19:08:29","新北市三峽區國光街33號","121.375213333333","24.937235","6500900","三峽區"
"237005","AKY-6261","2017/06/29 19:09:39","新北市三峽區中山路459巷163-3號","121.348646666667","24.932905","6500900","三峽區"
"236071","105-UM","2017/06/29 19:09:36","新北市土城區裕生路82巷1號","121.447365","24.9855266666667","6501300","土城區"
"236042","107-UM","2017/06/29 19:09:40","新北市土城區學府路一段189巷7號","121.452581666667","24.98466","6501300","土城區"
"236078","166-UM","2017/06/29 19:09:29","新北市土城區龍泉路10-1號","121.409616666667","24.9492516666667","6501300","土城區"
"236026","269-VK","2017/06/29 19:09:28","新北市土城區中正路56巷2號","121.443803333333","24.97536","6501300","土城區"
"236014","270-VK","2017/06/29 19:09:41","新北市土城區學府路一段39號","121.45782","24.98826","6501300","土城區"
"236037","271-VK","2017/06/29 19:09:36","新北市土城區清水路137號","121.458238333333","24.9816416666667","6501300","土城區"
"236021","401-BY","2017/06/29 19:09:34","新北市土城區延峰街36巷2號","121.469571666667","24.9846516666667","6501300","土城區"
"236058","912-UM","2017/06/29 19:09:38","新北市土城區金城路二段246號","121.456955","24.9831316666667","6501300","土城區"
"236051","913-UM","2017/06/29 19:09:36","新北市土城區明德路一段398-1號","121.453665","24.97907","6501300","土城區"
"236053","AAC-216","2017/06/29 19:09:42","新北市土城區學成路130號","121.449155","24.98954","6501300","土城區"
"242002","413-TV","2017/06/29 19:09:43","新北市新莊區新泰路357巷3弄57號","121.442073333333","25.0392","6500500","新莊區"
"238015","755-BX","2017/06/29 19:09:32","新北市樹林區備內街158巷33號","121.408316666667","24.9899783333333","6500700","樹林區"
"238023","601-UM","2017/06/29 19:09:35","新北市樹林區大慶街102號","121.395945","25.0135516666667","6500700","樹林區"
"238019","599-UM","2017/06/29 19:09:40","新北市樹林區東榮街78號","121.416293333333","24.9827383333333","6500700","樹林區"
"238018","571-TV","2017/06/29 19:09:37","新北市樹林區太平路51號","121.419291666667","24.9824416666667","6500700","樹林區"
"238022","312-TH","2017/06/29 19:09:42","新北市樹林區東順街90巷3弄1號","121.408046666667","24.976285","6500700","樹林區"
"238021","311-TH","2017/06/29 15:41:21","新北市樹林區柑園街一段68號","121.402155","24.960255","6500700","樹林區"
"238025","303-VK","2017/06/29 19:09:26","新北市樹林區中山路三段202號","121.386443333333","24.9685416666667","6500700","樹林區"
"238017","283-BY","2017/06/29 19:09:33","新北市樹林區保安街二段37-1號","121.416273333333","25.000185","6500700","樹林區"
"238014","282-BY","2017/06/29 19:09:40","新北市樹林區千歲街61巷10號","121.426001666667","24.9982083333333","6500700","樹林區"
"238020","268-VK","2017/06/29 19:09:33","新北市樹林區俊英街79號","121.425998333333","25.007635","6500700","樹林區"
"238026","172-UY","2017/06/29 19:09:42","新北市樹林區佳園路一段39-1號","121.393361666667","24.9708533333333","6500700","樹林區"
"238016","169-UY","2017/06/29 19:09:29","新北市樹林區復興路335巷6弄24號","121.417571666667","24.9870583333333","6500700","樹林區"
"239007","AAC-297","2017/06/29 19:09:29","新北市鶯歌區中山路6號","121.353065","24.957315","6500800","鶯歌區"
"239006","891-R6","2017/06/29 19:09:22","新北市鶯歌區鶯桃路296巷94弄36號","121.337775","24.9612083333333","6500800","鶯歌區"
"239008","527-UM","2017/06/29 19:09:37","新北市鶯歌區國際二路10巷1號","121.337943333333","24.9741466666667","6500800","鶯歌區"
"239005","526-UM","2017/06/29 19:09:33","新北市鶯歌區中湖街2號","121.346373333333","24.9728933333333","6500800","鶯歌區"
"239001","417-VK","2017/06/29 19:09:39","新北市鶯歌區永智街98號","121.336798333333","24.953495","6500800","鶯歌區"
"239003","360-BY","2017/06/29 19:09:42","新北市鶯歌區鶯桃路419號","121.332713333333","24.964775","6500800","鶯歌區"
"239004","193-VK","2017/06/29 19:09:36","新北市鶯歌區中正三路387號","121.326706666667","24.9345333333333","6500800","鶯歌區"
"221008","489-VK","2017/06/29 19:09:31","新北市汐止區康寧街445號","121.63107","25.068155","6501100","汐止區"
"221036","130-UY","2017/06/29 19:09:31","新北市汐止區忠孝東路258巷11弄11號","121.66423","25.0678583333333","6501100","汐止區"
"221015","131-UY","2017/06/29 19:09:41","新北市汐止區汐萬路一段2號","121.656211666667","25.067165","6501100","汐止區"
"221010","269-BY","2017/06/29 19:09:38","新北市汐止區康寧街901號","121.651255","25.07508","6501100","汐止區"
"221010","276-VK","2017/06/29 13:17:07","新北市汐止區汐萬路一段256巷3號","121.653438333333","25.07459","6501100","汐止區"
"221031","277-VK","2017/06/29 00:28:13","新北市汐止區汐萬路一段256巷3號","121.652588333333","25.0745916666667","6501100","汐止區"
"221012","278-VK","2017/06/29 19:09:31","新北市汐止區康寧街901號","121.65083","25.0752616666667","6501100","汐止區"
"221023","279-VK","2017/06/29 15:15:04","新北市汐止區康寧街901號","121.651776666667","25.07509","6501100","汐止區"
"221027","281-BY","2017/06/29 18:57:26","新北市汐止區康寧街901號","121.650875","25.0752783333333","6501100","汐止區"
"221038","297-VK","2017/06/29 19:09:34","新北市汐止區康寧街901號","121.651605","25.0749483333333","6501100","汐止區"
"221029","298-VK","2017/06/29 19:09:34","新北市汐止區汐萬路一段256巷3號","121.652505","25.074625","6501100","汐止區"
"221021","299-VK","2017/06/29 19:07:17","新北市汐止區康寧街901號","121.651553333333","25.0750933333333","6501100","汐止區"
"221035","622-UM","2017/06/29 19:09:28","新北市汐止區康寧街901號","121.6515","25.074935","6501100","汐止區"
"221025","623-UM","2017/06/29 19:09:37","新北市汐止區康寧街901號","121.651536666667","25.074865","6501100","汐止區"
"221033","647-BX","2017/06/29 19:09:32","新北市汐止區南勢街1巷1號","121.627043333333","25.037415","6501100","汐止區"
"221002","707-TV","2017/06/29 19:09:44","新北市汐止區大同路一段99號","121.628666666667","25.0538716666667","6501100","汐止區"
"220079","145-BY","2017/06/29 19:09:35","新北市板橋區民權路202巷9弄9號","121.460105","25.0154366666667","6500100","板橋區"
"220082","610-BX","2017/06/29 19:09:40","新北市板橋區溪北路54號","121.427505","24.9897766666667","6500100","板橋區"
"220101","245-BX","2017/06/29 19:09:39","新北市板橋區莊敬路152號","121.47137","25.02297","6500100","板橋區"
"220069","258-TC","2017/06/29 19:09:44","新北市板橋區館前西路33巷3號","121.45829","25.0063","6500100","板橋區"
"220056","276-BY","2017/06/29 19:09:30","新北市板橋區信義路74巷2弄2號","121.457253333333","24.99325","6500100","板橋區"
"220072","277-BY","2017/06/29 19:09:28","新北市板橋區金門街278-2號","121.42953","24.9860933333333","6500100","板橋區"
"220094","283-UM","2017/06/29 19:09:43","新北市板橋區光武街50巷1號","121.46694","25.0269433333333","6500100","板橋區"
"220071","283-VK","2017/06/29 19:09:37","新北市板橋區忠孝路154巷23號","121.464256666667","25.0015383333333","6500100","板橋區"
"220053","285-VK","2017/06/29 19:09:36","新北市板橋區懷仁街35巷4弄2號","121.477051666667","25.0197533333333","6500100","板橋區"
"220083","286-VK","2017/06/29 19:09:44","新北市板橋區大觀路一段38巷148-1號","121.443025","25.0044633333333","6500100","板橋區"
"220081","287-VK","2017/06/29 19:09:40","新北市板橋區光華街19巷6號","121.453716666667","25.0121333333333","6500100","板橋區"
"220090","288-VK","2017/06/29 19:09:42","新北市板橋區四維路279巷23號","121.462173333333","25.0282283333333","6500100","板橋區"
"220061","293-UM","2017/06/29 19:09:30","新北市板橋區中山路二段273號","121.47769","25.0179683333333","6500100","板橋區"
"220084","296-UM","2017/06/29 19:09:39","新北市板橋區大觀路二段297號","121.442125","24.9987733333333","6500100","板橋區"
"220075","297-UM","2017/06/29 19:09:27","新北市板橋區館前西路121號","121.456726666667","25.0075383333333","6500100","板橋區"
"220062","305-R5","2017/06/29 19:09:24","新北市板橋區三民路二段245巷65號","121.48095","25.0126466666667","6500100","板橋區"
"220092","307-R5","2017/06/29 19:09:26","新北市板橋區文化路二段225巷60弄21號","121.469165","25.028975","6500100","板橋區"
"220098","317-R6","2017/06/29 19:09:43","新北市板橋區四維路103巷4號","121.465035","25.0243183333333","6500100","板橋區"
"220064","486-VK","2017/06/29 19:09:42","新北市板橋區板新路6號","121.474875","25.0129616666667","6500100","板橋區"
"220089","487-VK","2017/06/29 19:09:28","新北市板橋區長江路三段123號","121.475313333333","25.0346183333333","6500100","板橋區"
"220088","491-VK","2017/06/29 19:09:25","新北市板橋區文化路二段182巷3弄2號","121.471455","25.0271816666667","6500100","板橋區"
"220035","560-BX","2017/06/29 19:09:34","新北市板橋區中正路399巷11號","121.453576666667","25.0223866666667","6500100","板橋區"
"220103","561-BX","2017/06/29 19:09:35","新北市板橋區文化路一段188巷9弄124號","121.46907","25.0191083333333","6500100","板橋區"
"220063","609-BX","2017/06/29 19:09:37","新北市中和區員山路570號","121.478938333333","25.011245","6500100","板橋區"
"220091","637-BX","2017/06/29 19:09:44","新北市板橋區萬板路378號","121.478395","25.0253483333333","6500100","板橋區"
"220057","686-BX","2017/06/29 19:09:44","新北市板橋區重慶路91號","121.462025","25.0059933333333","6500100","板橋區"
"220077","687-BX","2017/06/29 19:09:44","新北市板橋區大觀路二段142-6號","121.442253333333","24.998905","6500100","板橋區"
"220093","689-BX","2017/06/29 19:09:42","新北市板橋區民生路三段257號","121.464548333333","25.0294","6500100","板橋區"
"220054","741-BX","2017/06/29 19:09:45","新北市板橋區重慶路93巷32號","121.463278333333","25.0059116666667","6500100","板橋區"
"220073","806-UM","2017/06/29 19:09:35","新北市板橋區民權路198號","121.459131666667","25.01377","6500100","板橋區"
"220055","827-TW","2017/06/29 19:09:25","新北市板橋區中山路一段128號","121.46331","25.0108366666667","6500100","板橋區"
"220067","829-TW","2017/06/29 19:09:37","新北市板橋區三民路二段正隆巷42號","121.476956666667","25.01379","6500100","板橋區"
"220102","830-TW","2017/06/29 19:09:42","新北市板橋區萬板路810-1號","121.482901666667","25.0273983333333","6500100","板橋區"
"220096","831-TW","2017/06/29 19:09:46","新北市板橋區雙十路二段47巷26號","121.475633333333","25.0258566666667","6500100","板橋區"
"220074","895-R6","2017/06/29 19:09:29","新北市板橋區府中路98號","121.456053333333","25.009645","6500100","板橋區"
"220097","AAC-210","2017/06/29 19:09:34","新北市板橋區漢生西路89巷5弄1號","121.460955","25.0193833333333","6500100","板橋區"
"220070","AAC-253","2017/06/29 19:09:43","新北市板橋區四川路一段327號","121.458713333333","25.000365","6500100","板橋區"
