"lineid","car","time","location","longitude","latitude","cityid","cityname"
"234046","148-BY","2017/06/29 19:29:40","新北市永和區秀朗路二段131號","121.524355","25.0017266666667","6500400","永和區"
"234013","149-BY","2017/06/29 19:29:43","新北市永和區永平路203巷5弄1號","121.50917","25.0097383333333","6500400","永和區"
"234007","207-UY","2017/06/29 19:29:38","新北市永和區永和路一段112-1號","121.513546666667","25.0073666666667","6500400","永和區"
"234081","298-R6","2017/06/29 19:29:42","新北市永和區林森路10巷18弄2號","121.525936666667","25.0062383333333","6500400","永和區"
"234038","336-UY","2017/06/29 19:29:29","新北市永和區成功路二段1巷1號","121.52711","25.00148","6500400","永和區"
"234064","337-UY","2017/06/29 19:29:32","新北市永和區永元路17巷25弄7號","121.52091","25.0017033333333","6500400","永和區"
"234086","338-UY","2017/06/29 19:29:28","新北市永和區林森路67號","121.524028333333","25.004035","6500400","永和區"
"234070","552-UM","2017/06/29 19:29:37","新北市永和區中正路666巷59號","121.519058333333","25.0091083333333","6500400","永和區"
"234054","553-UM","2017/06/29 19:29:35","新北市永和區永和路二段170號","121.515451666667","25.013125","6500400","永和區"
"234017","745-BX","2017/06/29 19:29:28","新北市永和區環河西路一段1號","121.515266666667","25.0179966666667","6500400","永和區"
"234030","746-BX","2017/06/29 19:29:28","新北市永和區民權路51號","121.520008333333","24.9969916666667","6500400","永和區"
"234061","AAD-866","2017/06/29 19:29:30","新北市永和區中正路606號","121.517046666667","25.00702","6500400","永和區"
"234042","862-TW","2017/06/29 19:29:38","新北市中和區中和路462號","121.512175","25.0039383333333","6500400","永和區"
"234050","863-TW","2017/06/29 19:29:40","新北市永和區保福路二段96號","121.510305","25.013455","6500400","永和區"
"234026","9371-KE","2017/06/29 19:29:31","新北市中和區中和路400巷13號","121.511391666667","25.0024666666667","6500400","永和區"
"249003","593-UM","2017/06/29 19:29:36","新北市八里區商港六路55號","121.396433333333","25.148995","6502300","八里區"
"248014","025-BX","2017/06/29 19:29:37","新北市五股區民義路一段163-2號","121.432106666667","25.0878166666667","6501500","五股區"
"248008","095-VK","2017/06/29 19:29:42","新北市五股區中興路一段95巷15號","121.466583333333","25.0722816666667","6501500","五股區"
"248020","225-UY","2017/06/29 19:29:16","新北市五股區凌雲路三段45-2號","121.42771","25.1204283333333","6501500","五股區"
"248012","247-BX","2017/06/29 19:26:17","新北市五股區中興路四段48巷19號","121.438508333333","25.08367","6501500","五股區"
"248016","261-SL","2017/06/29 19:29:27","新北市五股區成洲五路12號","121.452408333333","25.1015216666667","6501500","五股區"
"248010","272-BY","2017/06/29 19:29:35","新北市五股區自強路90巷72號","121.430731666667","25.07127","6501500","五股區"
"248004","677-BX","2017/06/29 19:29:41","新北市五股區五福路39號","121.433431666667","25.0895316666667","6501500","五股區"
"248002","678-BX","2017/06/29 19:29:34","新北市五股區凌雲路一段158巷14-1號","121.447921666667","25.1035033333333","6501500","五股區"
"234023","9380-KE","2017/06/29 19:29:39","新北市永和區竹林路91巷62號","121.521668333333","25.0130833333333","6500400","永和區"
"234077","969-R7","2017/06/29 19:29:30","新北市永和區民族街43巷8號","121.51896","24.9983566666667","6500400","永和區"
"234074","AAC-211","2017/06/29 19:29:31","新北市永和區永和路二段254號","121.516185","25.0148816666667","6500400","永和區"
"234067","AAC-212","2017/06/29 19:29:42","新北市永和區保平路174巷15號","121.510195","25.0073966666667","6500400","永和區"
"234003","AAC-295","2017/06/29 19:27:35","新北市永和區永和路184-1號","121.514278333333","25.0091133333333","6500400","永和區"
"244013","069-UM","2017/06/29 19:29:40","新北市林口區麗園一街1號","121.375723333333","25.0724983333333","6501700","林口區"
"244019","403-UM","2017/06/29 19:29:27","新北市林口區麗園一街13號","121.377031666667","25.0693216666667","6501700","林口區"
"244009","410-SL","2017/06/29 19:29:36","新北市林口區林口路50號","121.390465","25.0789566666667","6501700","林口區"
"244023","483-VK","2017/06/29 19:29:25","新北市林口區文林三街139號","121.374585","25.0878566666667","6501700","林口區"
"243013","AAD-798","2017/06/29 19:29:42","新北市泰山區明志路三段145巷2弄1號","121.425396666667","25.0398883333333","6501600","泰山區"
"243009","297-R6","2017/06/29 19:29:10","新北市泰山區半山雅1號","121.43177","25.0673333333333","6501600","泰山區"
"243015","380-SR","2017/06/29 19:29:32","新北市泰山區明志路二段31號","121.42968","25.0531966666667","6501600","泰山區"
"243014","421-VK","2017/06/29 19:29:26","新北市泰山區泰林路二段33-8號","121.435146666667","25.0564116666667","6501600","泰山區"
"243010","548-UM","2017/06/29 19:29:41","新北市泰山區民生路17巷31號","121.42957","25.0517266666667","6501600","泰山區"
"243011","549-UM","2017/06/29 19:29:43","新北市泰山區貴子路67巷14弄2號","121.431105","25.040745","6501600","泰山區"
"243012","646-TV","2017/06/29 19:29:41","新北市泰山區仁愛路83號","121.43334","25.055595","6501600","泰山區"
"243016","680-BX","2017/06/29 19:29:37","新北市泰山區明志路三段196巷21弄33號","121.422353333333","25.037955","6501600","泰山區"
"222003","436-BY","2017/06/29 19:29:38","新北市深坑區深南路88巷1號","121.621008333333","25.0117433333333","6501800","深坑區"
"222002","659-BX","2017/06/29 19:29:28","新北市深坑區北深路一段177號","121.63258","25.0108983333333","6501800","深坑區"
"222001","696-SL","2017/06/29 19:29:29","新北市深坑區深坑街10號","121.61587","25.0028533333333","6501800","深坑區"
"231041","002-UM","2017/06/29 19:29:25","新北市新店區中正路648號","121.534028333333","24.98929","6500600","新店區"
"231059","046-UY","2017/06/29 19:29:35","新北市新店區安和路三段123號","121.517466666667","24.9852166666667","6500600","新店區"
"231051","107-UY","2017/06/29 19:29:37","新北市新店區中央五街22號","121.529378333333","24.9744816666667","6500600","新店區"
"231047","108-UY","2017/06/29 19:29:26","新北市新店區中興路一段252號","121.544485","24.966615","6500600","新店區"
"231052","187-VK","2017/06/29 19:29:33","新北市新店區新烏路二段301號","121.549498333333","24.911365","6500600","新店區"
"231007","189-VK","2017/06/29 12:08:33","新北市新店區安華路28-1號","121.519586666667","24.961205","6500600","新店區"
"231057","256-BX","2017/06/29 19:29:29","新北市新店區花園一路二段17號","121.550838333333","24.9332633333333","6500600","新店區"
"231063","268-BY","2017/06/29 19:29:45","新北市新店區達觀路16號","121.503086666667","24.940885","6500600","新店區"
"231046","278-BY","2017/06/29 19:29:26","新北市新店區安康路一段3-1號","121.53437","24.9606633333333","6500600","新店區"
"231050","AAD-862","2017/06/29 19:29:25","新北市新店區秀水路39號","121.5553","24.9559083333333","6500600","新店區"
"231060","355-BY","2017/06/29 19:29:43","新北市新店區安康路二段4號","121.51644","24.96382","6500600","新店區"
"231058","3712-VJ","2017/06/29 19:29:29","新北市新店區北新路二段228巷13號","121.54342","24.9770833333333","6500600","新店區"
"231067","4772-VM","2017/06/29 19:29:36","新北市新店區安豐路3號","121.50179","24.9573266666667","6500600","新店區"
"231065","512-UM","2017/06/29 19:29:44","新北市新店區安祥路109巷1弄35號","121.476828333333","24.9603166666667","6500600","新店區"
"231054","513-UM","2017/06/29 19:29:41","新北市新店區文中路40號","121.53973","24.9565566666667","6500600","新店區"
"231064","515-UM","2017/06/29 19:29:38","新北市新店區安忠路57巷5-6號","121.513208333333","24.9587616666667","6500600","新店區"
"231042","616-UM","2017/06/29 19:29:26","新北市新店區中興路一段140號","121.542368333333","24.9636866666667","6500600","新店區"
"231045","617-UM","2017/06/29 19:29:45","新北市新店區北宜路二段207號","121.553126666667","24.9533883333333","6500600","新店區"
"231061","618-UM","2017/06/29 19:29:31","新北市新店區安民街10號","121.515328333333","24.9642616666667","6500600","新店區"
"231040","619-UM","2017/06/29 19:29:44","新北市新店區北新路一段295號","121.540978333333","24.9673566666667","6500600","新店區"
"231049","719-UM","2017/06/29 19:29:28","新北市新店區二十張路1巷3弄3號","121.54065","24.9821716666667","6500600","新店區"
"231062","720-UM","2017/06/29 19:29:39","新北市新店區安康路一段92號","121.527978333333","24.9619583333333","6500600","新店區"
"231044","897-TW","2017/06/29 19:29:40","新北市新店區中興路三段145號","121.54443","24.9799433333333","6500600","新店區"
"231043","899-TW","2017/06/29 19:29:39","新北市新店區北新路二段187號","121.542831666667","24.9777466666667","6500600","新店區"
"231066","AKT-0513","2017/06/29 19:29:33","新北市新店區安康路三段207巷15號","121.488431666667","24.9508233333333","6500600","新店區"
"241028","022-UY","2017/06/29 19:29:33","新北市三重區中寮街50號","121.492846666667","25.0586666666667","6500200","三重區"
"241008","059-VK","2017/06/29 19:29:37","新北市三重區永福街135巷34號","121.477443333333","25.0771883333333","6500200","三重區"
"241009","060-VK","2017/06/29 19:29:37","新北市三重區溪尾街242巷67號","121.486073333333","25.0814816666667","6500200","三重區"
"241017","063-VK","2017/06/29 19:29:45","新北市三重區重陽路三段5巷32號","121.491478333333","25.0653466666667","6500200","三重區"
"241026","066-VK","2017/06/29 19:29:27","新北市三重區文化南路47巷37號","121.499281666667","25.0612033333333","6500200","三重區"
"241031","156-TC","2017/06/29 19:29:35","新北市三重區集美街100號","121.488495","25.0543933333333","6500200","三重區"
"241022","267-UM","2017/06/29 19:29:29","新北市三重區三民街155巷2號","121.48398","25.06448","6500200","三重區"
"241032","269-UM","2017/06/29 19:29:33","新北市三重區三陽路64號","121.483701666667","25.0587416666667","6500200","三重區"
"241013","270-UM","2017/06/29 19:29:26","新北市三重區仁愛街88號","121.495608333333","25.0736933333333","6500200","三重區"
"241025","271-UM","2017/06/29 19:29:28","新北市三重區頂崁街210巷12弄10號","121.475796666667","25.0672933333333","6500200","三重區"
"241007","398-BY","2017/06/29 19:29:37","新北市三重區溪尾街150號","121.489075","25.0799616666667","6500200","三重區"
"241020","413-TH","2017/06/29 19:29:28","新北市三重區三和路四段42號","121.490415","25.0744733333333","6500200","三重區"
"241030","480-VK","2017/06/29 19:29:27","新北市三重區成功路41巷26號","121.490491666667","25.0519066666667","6500200","三重區"
"241006","AAD-863","2017/06/29 19:29:31","新北市三重區車路頭街107號","121.484393333333","25.0746433333333","6500200","三重區"
"241035","743-BX","2017/06/29 19:29:32","新北市三重區正義北路100號","121.496511666667","25.0647216666667","6500200","三重區"
"241029","942-UM","2017/06/29 19:29:36","新北市三重區重安街140號","121.495383333333","25.0549966666667","6500200","三重區"
"235066","003-UY","2017/06/29 19:29:41","新北市中和區景新街34巷2號","121.503275","24.9992316666667","6500300","中和區"
"235064","005-UY","2017/06/29 19:29:32","新北市中和區南山路75號","121.50209","24.9981966666667","6500300","中和區"
"235063","006-UY","2017/06/29 19:29:32","新北市中和區連勝街137號","121.494761666667","24.9958583333333","6500300","中和區"
"235056","096-UM","2017/06/29 19:29:45","新北市中和區民富街56號","121.476611666667","25.00727","6500300","中和區"
"235039","097-UM","2017/06/29 19:29:31","新北市中和區秀峰街89號","121.521263333333","24.9901983333333","6500300","中和區"
"235040","150-BY","2017/06/29 19:29:43","新北市中和區保健路46巷24弄1號","121.5086","24.9955733333333","6500300","中和區"
"235058","151-BY","2017/06/29 19:29:39","新北市中和區中正路637巷60弄61號","121.485441666667","24.992645","6500300","中和區"
"235055","183-VK","2017/06/29 19:29:30","新北市中和區莒光路120巷11號","121.47159","25.0017316666667","6500300","中和區"
"235038","185-VK","2017/06/29 19:29:32","新北市中和區大仁街20巷59號","121.519891666667","24.9934466666667","6500300","中和區"
"235049","186-VK","2017/06/29 19:29:34","新北市中和區景新街295巷29號","121.511191666667","24.9934933333333","6500300","中和區"
"235067","255-BX","2017/06/29 19:29:45","新北市中和區中正路797號","121.484973333333","25.00037","6500300","中和區"
"235044","293-VK","2017/06/29 19:29:36","新北市中和區中興街266巷2號","121.498536666667","24.9875033333333","6500300","中和區"
"235072","301-VK","2017/06/29 19:29:41","新北市中和區連城路265巷12弄2號","121.491731666667","24.9952033333333","6500300","中和區"
"235043","352-BY","2017/06/29 19:29:27","新北市中和區南山路94號","121.502851666667","24.9947133333333","6500300","中和區"
"235051","376-QA","2017/06/29 19:29:36","新北市中和區景平路400號","121.509261666667","24.99308","6500300","中和區"
"235068","377-QA","2017/06/29 19:29:34","新北市中和區圓通路160-1號","121.497545","24.9955933333333","6500300","中和區"
"235061","378-QA","2017/06/29 19:29:37","新北市中和區員山路143巷24號","121.479941666667","24.9958383333333","6500300","中和區"
"235050","4979-A6","2017/06/29 19:02:21","新北市中和區華新街51號","121.507903333333","24.98447","6500300","中和區"
"235042","551-UM","2017/06/29 19:29:25","新北市中和區安樂路217巷31號","121.513665","24.99802","6500300","中和區"
"235070","558-UM","2017/06/29 19:29:42","新北市中和區連城路47-1號","121.497963333333","25.0017533333333","6500300","中和區"
"235045","565-BX","2017/06/29 19:29:33","新北市中和區景新街423巷33弄1號","121.513838333333","24.98972","6500300","中和區"
"235054","640-BX","2017/06/29 19:29:32","新北市中和區國光街109巷19號","121.469583333333","24.999745","6500300","中和區"
"235060","647-TV","2017/06/29 19:29:37","新北市中和區員山路294巷6號","121.481805","25.002395","6500300","中和區"
"235047","732-UM","2017/06/29 19:29:32","新北市中和區景平路241巷66號","121.507713333333","24.9922716666667","6500300","中和區"
"235071","783-BX","2017/06/29 19:29:40","新北市中和區中正路637巷18弄3號","121.48447","24.9950233333333","6500300","中和區"
"235057","801-TS","2017/06/29 19:29:45","新北市中和區員山路425號","121.480991666667","25.0034483333333","6500300","中和區"
"235041","802-TS","2017/06/29 19:29:37","新北市中和區中和路254號","121.5076","24.999415","6500300","中和區"
"235052","805-TS","2017/06/29 19:29:38","新北市中和區華新街143巷92號","121.506621666667","24.9788633333333","6500300","中和區"
"235048","896-TW","2017/06/29 19:29:27","新北市中和區四維街40號","121.51228","24.9869283333333","6500300","中和區"
"235053","900-TW","2017/06/29 19:29:27","新北市中和區民德路260號","121.467903333333","24.9968583333333","6500300","中和區"
"235040","157-BY","2017/06/29 19:29:31","新北市中和區忠孝街37巷30號","121.510866666667","24.984245","6500300","中和區"
"235037","AAC-213","2017/06/29 19:29:35","新北市中和區秀朗路三段128巷31-1號","121.524728333333","24.9944183333333","6500300","中和區"
"235059","AAC-215","2017/06/29 19:29:34","新北市中和區圓通路252巷16號","121.492441666667","24.9921233333333","6500300","中和區"
"220068","013-TV","2017/06/29 19:29:33","新北市板橋區中山路二段595號","121.484853333333","25.022285","6500100","板橋區"
"220065","072-UY","2017/06/29 19:29:23","新北市板橋區國泰街75巷45號","121.468265","25.0047983333333","6500100","板橋區"
"220086","073-UY","2017/06/29 19:29:36","新北市板橋區中正路216巷20號","121.456718333333","25.0184816666667","6500100","板橋區"
"220106","075-UY","2017/06/29 19:29:39","新北市板橋區江寧路三段85巷14號","121.472266666667","25.033165","6500100","板橋區"
"247008","339-TH","2017/06/29 19:29:37","新北市蘆洲區中山二路45巷30號","121.474273333333","25.0811883333333","6501400","蘆洲區"
"247002","336-TH","2017/06/29 19:29:29","新北市五股區中興路三段163號","121.449206666667","25.08075","6501400","蘆洲區"
"247014","057-VK","2017/06/29 19:29:42","新北市蘆洲區復興路17巷1號","121.472","25.085505","6501400","蘆洲區"
"247004","056-VK","2017/06/29 19:29:27","新北市蘆洲區長安街160號","121.459393333333","25.0829316666667","6501400","蘆洲區"
"247006","053-VK","2017/06/29 19:29:12","新北市五股區中興路三段163號","121.449116666667","25.0808116666667","6501400","蘆洲區"
"226004","312-R5","2017/06/29 19:29:38","新北市平溪區十分里十分街180號","121.778595","25.0438766666667","6502400","平溪區"
"228003","097-TW","2017/06/29 19:29:40","新北市貢寮區和美里和美街22-1號","121.912813333333","25.0826216666667","6502600","貢寮區"
"228001","212-TW","2017/06/29 19:29:28","新北市貢寮區真理里大澳街48號","121.925103333333","25.0564433333333","6502600","貢寮區"
"228002","585-TW","2017/06/29 19:29:34","新北市貢寮區龍門里龍門街64號","121.931478333333","25.0270733333333","6502600","貢寮區"
"224006","676-BX","2017/06/29 19:29:38","新北市瑞芳區東和路31-3號","121.80512","25.1060633333333","6501200","瑞芳區"
"224011","420-VK","2017/06/29 19:29:18","新北市瑞芳區崙頂路1-6號","121.847061666667","25.1047083333333","6501200","瑞芳區"
"224008","275-VK","2017/06/29 19:29:25","新北市瑞芳區一坑路191-1號","121.802008333333","25.1088366666667","6501200","瑞芳區"
"224005","271-BY","2017/06/29 19:29:44","新北市瑞芳區蛇子形路6號","121.825778333333","25.10482","6501200","瑞芳區"
"227004","642-TC","2017/06/29 19:29:30","新北市雙溪區雙溪里光復街16號","121.865113333333","25.0354266666667","6502500","雙溪區"
"227010","400-TW","2017/06/29 19:29:32","新北市雙溪區新基里新基北街43號","121.868201666667","25.03971","6502500","雙溪區"
"253006","032-BX","2017/06/29 19:29:34","新北市石門區楓林29-1號","121.542668333333","25.2888483333333","6502200","石門區"
"253005","295-VK","2017/06/29 19:29:31","新北市石門區小坑9號","121.593633333333","25.2881183333333","6502200","石門區"
"208003","665-BX","2017/06/29 19:29:31","新北市金山區忠孝一路78號","121.637016666667","25.2209","6502700","金山區"
"208001","761-BX","2017/06/29 19:29:27","新北市金山區金包里街131號","121.636876666667","25.222465","6502700","金山區"
"251009","008-UM","2017/06/29 19:15:18","新北市淡水區中正路114號","121.441701666667","25.1695583333333","6501000","淡水區"
"251005","010-UM","2017/06/29 19:29:30","新北市淡水區水源街一段47巷36號","121.444078333333","25.173355","6501000","淡水區"
"251001","011-UM","2017/06/29 19:29:39","新北市淡水區民權路141-1號","121.46004","25.1363583333333","6501000","淡水區"
"251007","179-VK","2017/06/29 19:29:41","新北市淡水區中正東路一段127巷21號","121.456001666667","25.160425","6501000","淡水區"
"251008","181-VK","2017/06/29 19:29:31","新北市淡水區中正路一段66號","121.42528","25.1769633333333","6501000","淡水區"
"251014","182-VK","2017/06/29 19:29:26","新北市淡水區小中寮19-7號","121.484781666667","25.22964","6501000","淡水區"
"251010","413-VK","2017/06/29 19:29:28","新北市淡水區中正路二段142-2號","121.422121666667","25.18757","6501000","淡水區"
"251016","442-VK","2017/06/29 19:29:32","新北市淡水區下圭柔山119-51號","121.450765","25.2084083333333","6501000","淡水區"
"251006","561-UM","2017/06/29 19:29:39","新北市淡水區大義街40號","121.441976666667","25.1783616666667","6501000","淡水區"
"251011","650-BX","2017/06/29 19:29:36","新北市淡水區中正東路二段143巷2弄1號","121.460601666667","25.1472683333333","6501000","淡水區"
"207003","550-UM","2017/06/29 19:29:28","新北市萬里區大鵬里萬里加投209號","121.644251666667","25.215465","6502800","萬里區"
"207004","225-TW","2017/06/29 19:29:27","新北市萬里區萬里里瑪鋉路135號","121.688938333333","25.1777433333333","6502800","萬里區"
"252002","178-VK","2017/06/29 19:29:36","新北市三芝區淡金路二段18-1號","121.502683333333","25.2595383333333","6502100","三芝區"
"252001","702-TV","2017/06/29 19:29:45","新北市三芝區長勤街50-1號","121.500243333333","25.2555183333333","6502100","三芝區"
"208002","170-UY","2017/06/29 19:29:15","新北市金山區中華路121巷8號","121.632943333333","25.220705","6502700","金山區"
"237001","361-BY","2017/06/29 15:27:57","新北市三峽區中山路459巷137號","121.349356666667","24.93355","6500900","三峽區"
"237004","078-UY","2017/06/29 19:29:40","新北市三峽區有木206號","121.439131666667","24.85156","6500900","三峽區"
"237007","153-BY","2017/06/29 19:29:36","新北市三峽區二鬮路9號","121.359081666667","24.90688","6500900","三峽區"
"237009","210-TH","2017/06/29 19:29:32","新北市三峽區中山路5號","121.36984","24.9342316666667","6500900","三峽區"
"237013","252-BX","2017/06/29 19:29:33","新北市三峽區大同路5巷18號","121.378166666667","24.928675","6500900","三峽區"
"237012","275-BY","2017/06/29 19:29:38","新北市三峽區三樹路98巷169號","121.384605","24.9394766666667","6500900","三峽區"
"237008","302-VK","2017/06/29 19:29:35","新北市三峽區光明路106巷48號","121.37542","24.9268816666667","6500900","三峽區"
"237014","433-BY","2017/06/29 19:29:44","新北市三峽區中山路63巷8號","121.36696","24.9343233333333","6500900","三峽區"
"237006","5529-G3","2017/06/29 19:29:40","新北市三峽區中正路一段336巷15弄2號","121.369978333333","24.924935","6500900","三峽區"
"237011","572-TV","2017/06/29 19:29:36","新北市三峽區中正路一段171號","121.372861666667","24.928345","6500900","三峽區"
"237016","649-BX","2017/06/29 19:29:43","新北市三峽區安坑48-1號","121.459405","24.9322766666667","6500900","三峽區"
"237010","706-TV","2017/06/29 19:28:29","新北市三峽區復興路57號","121.373281666667","24.937095","6500900","三峽區"
"237005","AKY-6261","2017/06/29 19:29:39","新北市三峽區復興路367巷1弄27號","121.364108333333","24.938255","6500900","三峽區"
"236071","105-UM","2017/06/29 19:29:36","新北市土城區學府路一段157號","121.453296666667","24.9857866666667","6501300","土城區"
"236078","166-UM","2017/06/29 19:29:29","新北市土城區中州路3巷35號","121.413441666667","24.9564333333333","6501300","土城區"
"236026","269-VK","2017/06/29 19:29:28","新北市土城區中央路二段61巷20號","121.443016666667","24.97883","6501300","土城區"
"236014","270-VK","2017/06/29 19:29:36","新北市土城區廣福街123號","121.456265","24.9928533333333","6501300","土城區"
"236021","401-BY","2017/06/29 19:29:34","新北市土城區峰廷街14號","121.468796666667","24.987545","6501300","土城區"
"236058","912-UM","2017/06/29 19:29:26","新北市土城區中央路二段252號","121.44193","24.9746966666667","6501300","土城區"
"236051","913-UM","2017/06/29 19:29:36","新北市土城區清水路203號","121.460025","24.981715","6501300","土城區"
"236053","AAC-216","2017/06/29 19:29:26","新北市土城區學府路一段276號","121.450075","24.9830666666667","6501300","土城區"
"242031","415-TV","2017/06/29 19:29:35","新北市新莊區新泰路225巷4號","121.44587","25.0393216666667","6500500","新莊區"
"242034","133-UY","2017/06/29 19:29:39","新北市新莊區瓊林路118號","121.44231","25.025625","6500500","新莊區"
"242015","350-TH","2017/06/29 19:29:29","新北市新莊區三和路12-21號","121.442023333333","25.0388","6500500","新莊區"
"238015","755-BX","2017/06/29 19:29:40","新北市樹林區啟智街127巷24號","121.419201666667","24.989755","6500700","樹林區"
"238023","601-UM","2017/06/29 19:29:35","新北市樹林區三興路25號","121.396845","25.015025","6500700","樹林區"
"238019","599-UM","2017/06/29 19:29:40","新北市樹林區大同街15號","121.418463333333","24.98268","6500700","樹林區"
"238018","571-TV","2017/06/29 19:29:37","新北市樹林區中華路124號","121.417675","24.9804783333333","6500700","樹林區"
"238024","5061-A6","2017/06/29 19:29:26","新北市樹林區福德街48號","121.399316666667","24.974905","6500700","樹林區"
"238022","312-TH","2017/06/29 19:29:22","新北市樹林區國凱街49號","121.42069","24.97915","6500700","樹林區"
"238021","311-TH","2017/06/29 15:41:21","新北市樹林區柑園街一段68號","121.402155","24.960255","6500700","樹林區"
"238025","303-VK","2017/06/29 19:29:26","新北市樹林區中山路一段189號","121.421346666667","24.9878266666667","6500700","樹林區"
"238017","283-BY","2017/06/29 19:29:33","新北市樹林區光興街94號","121.408053333333","25.0034716666667","6500700","樹林區"
"238014","282-BY","2017/06/29 19:11:00","新北市樹林區中正路22-1號","121.42787","24.9996866666667","6500700","樹林區"
"238020","268-VK","2017/06/29 19:29:33","新北市樹林區俊英街133巷23號","121.423156666667","25.0109816666667","6500700","樹林區"
"238026","172-UY","2017/06/29 19:29:42","新北市樹林區佳園路三段51號","121.38793","24.9535433333333","6500700","樹林區"
"238016","169-UY","2017/06/29 19:29:27","新北市樹林區復興路464巷50號","121.412701666667","24.983565","6500700","樹林區"
"239007","AAC-297","2017/06/29 19:29:29","新北市鶯歌區大湖路85巷3號","121.342025","24.9623633333333","6500800","鶯歌區"
"239006","891-R6","2017/06/29 19:29:44","新北市鶯歌區鶯桃路67巷5號","121.340925","24.9524466666667","6500800","鶯歌區"
"239008","527-UM","2017/06/29 19:29:37","新北市鶯歌區大湖路335號","121.341796666667","24.9725883333333","6500800","鶯歌區"
"239005","526-UM","2017/06/29 19:29:37","新北市鶯歌區中湖街79-1號","121.348131666667","24.97711","6500800","鶯歌區"
"239001","417-VK","2017/06/29 19:29:39","新北市鶯歌區尖山埔路114號","121.344341666667","24.9501333333333","6500800","鶯歌區"
"239003","360-BY","2017/06/29 19:29:42","新北市鶯歌區國華路56號","121.342293333333","24.95494","6500800","鶯歌區"
"239004","193-VK","2017/06/29 19:29:36","新北市鶯歌區中正三路291巷1號","121.329748333333","24.9360066666667","6500800","鶯歌區"
"221008","489-VK","2017/06/29 19:29:33","新北市汐止區康寧街237號","121.624176666667","25.0668483333333","6501100","汐止區"
"221036","130-UY","2017/06/29 19:29:31","新北市汐止區汐萬路一段256巷1號","121.651915","25.07482","6501100","汐止區"
"221015","131-UY","2017/06/29 19:29:41","新北市汐止區汐萬路一段256巷1號","121.651805","25.0748066666667","6501100","汐止區"
"221010","269-BY","2017/06/29 19:29:38","新北市汐止區康寧街901號","121.651341666667","25.0749233333333","6501100","汐止區"
"221010","276-VK","2017/06/29 13:17:07","新北市汐止區汐萬路一段256巷3號","121.653438333333","25.07459","6501100","汐止區"
"221031","277-VK","2017/06/29 00:28:13","新北市汐止區汐萬路一段256巷3號","121.652588333333","25.0745916666667","6501100","汐止區"
"221012","278-VK","2017/06/29 19:29:31","新北市汐止區大同路三段271號","121.67471","25.0758783333333","6501100","汐止區"
"221023","279-VK","2017/06/29 19:27:38","新北市汐止區康寧街753巷2弄8號","121.639233333333","25.07407","6501100","汐止區"
"221032","280-BY","2017/06/29 19:29:28","新北市汐止區汐萬路一段256巷3號","121.65239","25.0746433333333","6501100","汐止區"
"221027","281-BY","2017/06/29 19:29:36","新北市汐止區水源路一段2號","121.657025","25.0671466666667","6501100","汐止區"
"221038","297-VK","2017/06/29 19:29:34","新北市汐止區康寧街901號","121.651586666667","25.0749916666667","6501100","汐止區"
"221029","298-VK","2017/06/29 19:29:34","新北市汐止區康寧街901號","121.651433333333","25.0749533333333","6501100","汐止區"
"221021","299-VK","2017/06/29 19:29:37","新北市汐止區康寧街901號","121.651321666667","25.0753233333333","6501100","汐止區"
"221035","622-UM","2017/06/29 19:29:28","新北市汐止區康寧街901號","121.651621666667","25.0748666666667","6501100","汐止區"
"221025","623-UM","2017/06/29 19:29:43","新北市汐止區秀峰路57號","121.660028333333","25.0648983333333","6501100","汐止區"
"221033","647-BX","2017/06/29 19:29:32","新北市汐止區南勢街1巷1號","121.627038333333","25.0374066666667","6501100","汐止區"
"221002","707-TV","2017/06/29 19:29:44","新北市汐止區大同路一段335號","121.638516666667","25.0593283333333","6501100","汐止區"
"220079","145-BY","2017/06/29 19:29:25","新北市板橋區民權路202巷17弄38號","121.459235","25.01657","6500100","板橋區"
"220082","610-BX","2017/06/29 19:29:40","新北市板橋區金門街419號","121.42724","24.98375","6500100","板橋區"
"220101","245-BX","2017/06/29 19:29:19","新北市板橋區雙十路二段167號","121.474146666667","25.0284416666667","6500100","板橋區"
"220069","258-TC","2017/06/29 19:29:44","新北市板橋區貴興路29號","121.45766","25.0041366666667","6500100","板橋區"
"220056","276-BY","2017/06/29 19:29:28","新北市板橋區信義路1巷26弄44號","121.459115","24.9966683333333","6500100","板橋區"
"220072","277-BY","2017/06/29 19:29:28","新北市板橋區篤行路二段161巷16-1號","121.42971","24.9874483333333","6500100","板橋區"
"220094","283-UM","2017/06/29 19:29:43","新北市板橋區吳鳳路17巷1號","121.467605","25.0301816666667","6500100","板橋區"
"220071","283-VK","2017/06/29 19:29:37","新北市板橋區仁愛路73巷12號","121.461021666667","25.0004033333333","6500100","板橋區"
"220053","285-VK","2017/06/29 19:29:45","新北市板橋區富山街53巷1弄10號","121.477765","25.0206433333333","6500100","板橋區"
"220083","286-VK","2017/06/29 19:29:44","新北市板橋區大觀路二段174巷176弄16號","121.44292","25.0030383333333","6500100","板橋區"
"220081","287-VK","2017/06/29 19:29:32","新北市板橋區南雅東路29巷11號","121.453541666667","25.0054566666667","6500100","板橋區"
"220090","288-VK","2017/06/29 19:29:29","新北市板橋區長江路一段106巷13弄4號","121.460223333333","25.0291483333333","6500100","板橋區"
"220061","293-UM","2017/06/29 19:29:30","新北市板橋區中山路二段253號","121.477521666667","25.0176333333333","6500100","板橋區"
"220084","296-UM","2017/06/29 19:29:39","新北市板橋區溪北路73巷4號","121.428386666667","24.989855","6500100","板橋區"
"220075","297-UM","2017/06/29 19:29:27","新北市板橋區中正路275巷93號","121.450898333333","25.0180766666667","6500100","板橋區"
"220062","305-R5","2017/06/29 19:29:23","新北市板橋區三民路二段153巷4號","121.479608333333","25.014875","6500100","板橋區"
"220092","307-R5","2017/06/29 19:29:45","新北市板橋區光武街2巷45-1號","121.468301666667","25.0259516666667","6500100","板橋區"
"220098","317-R6","2017/06/29 19:29:38","新北市板橋區民有街116號","121.464375","25.0286016666667","6500100","板橋區"
"220064","486-VK","2017/06/29 19:29:42","新北市板橋區重慶路2號","121.460443333333","25.0080333333333","6500100","板橋區"
"220089","487-VK","2017/06/29 19:29:40","新北市板橋區文化路一段225號","121.463925","25.0174166666667","6500100","板橋區"
"220088","491-VK","2017/06/29 19:28:35","新北市板橋區雙十路一段44巷36號","121.477376666667","25.025045","6500100","板橋區"
"220035","560-BX","2017/06/29 19:29:29","新北市板橋區中正路413巷2弄16號","121.453483333333","25.0231383333333","6500100","板橋區"
"220103","561-BX","2017/06/29 19:29:37","新北市板橋區文化路一段270巷1號","121.467463333333","25.020745","6500100","板橋區"
"220063","609-BX","2017/06/29 19:29:37","新北市板橋區萬安街53巷37號","121.482666666667","25.0234766666667","6500100","板橋區"
"220091","637-BX","2017/06/29 19:29:44","新北市板橋區文聖街70號","121.47719","25.030345","6500100","板橋區"
"220057","686-BX","2017/06/29 19:29:23","新北市板橋區五權街63號","121.464863333333","24.993365","6500100","板橋區"
"220077","687-BX","2017/06/29 19:29:44","新北市板橋區僑中二街90巷2號","121.446426666667","25.009245","6500100","板橋區"
"220093","689-BX","2017/06/29 19:29:27","新北市板橋區新海路133號","121.460826666667","25.0231733333333","6500100","板橋區"
"220054","741-BX","2017/06/29 19:29:25","新北市板橋區光明街142號","121.46395","25.0031116666667","6500100","板橋區"
"220073","806-UM","2017/06/29 19:29:35","新北市板橋區新生街64-1號","121.457195","25.0209233333333","6500100","板橋區"
"220055","827-TW","2017/06/29 19:29:45","新北市板橋區實踐路110號","121.464143333333","25.004495","6500100","板橋區"
"220067","829-TW","2017/06/29 19:29:44","新北市板橋區漢生東路335號","121.471958333333","25.0077633333333","6500100","板橋區"
"220102","830-TW","2017/06/29 19:29:29","新北市板橋區雙十路二段112號","121.474591666667","25.0288083333333","6500100","板橋區"
"220096","831-TW","2017/06/29 19:29:26","新北市板橋區大同街35巷12號","121.477658333333","25.0276666666667","6500100","板橋區"
"220074","895-R6","2017/06/29 19:29:29","新北市板橋區中正路1巷14號","121.455173333333","25.0116833333333","6500100","板橋區"
"220097","AAC-210","2017/06/29 19:29:27","新北市板橋區新海路135巷39號","121.459395","25.0226133333333","6500100","板橋區"
"220070","AAC-253","2017/06/29 19:29:39","新北市板橋區忠孝路158號","121.464106666667","25.0024266666667","6500100","板橋區"
