"lineid","car","time","location","longitude","latitude","cityid","cityname"
"234046","148-BY","2017/06/29 19:59:36","新北市永和區林森路91號","121.523693333333","25.003735","6500400","永和區"
"234013","149-BY","2017/06/29 19:57:23","新北市永和區仁愛路295號","121.504978333333","25.0091316666667","6500400","永和區"
"234007","207-UY","2017/06/29 19:59:38","新北市永和區保生路22巷17號","121.507116666667","25.0080716666667","6500400","永和區"
"234081","298-R6","2017/06/29 19:59:42","新北市永和區永亨路98號","121.523081666667","25.0047416666667","6500400","永和區"
"234038","336-UY","2017/06/29 19:59:29","新北市永和區成功路二段118號","121.526603333333","24.9978116666667","6500400","永和區"
"234064","337-UY","2017/06/29 19:59:36","新北市永和區中正路368巷1弄20號","121.519046666667","25.0009033333333","6500400","永和區"
"234086","338-UY","2017/06/29 19:59:28","新北市永和區竹林路222-1號","121.520696666667","25.0077083333333","6500400","永和區"
"234070","552-UM","2017/06/29 19:59:37","新北市永和區大新街100號","121.518221666667","25.0079483333333","6500400","永和區"
"234054","553-UM","2017/06/29 19:59:35","新北市永和區博愛街47巷1號","121.51941","25.0159583333333","6500400","永和區"
"234017","745-BX","2017/06/29 19:59:28","新北市永和區文化路121巷1號","121.512481666667","25.015205","6500400","永和區"
"234030","746-BX","2017/06/29 19:59:28","新北市永和區民權路53-1號","121.520613333333","24.9969433333333","6500400","永和區"
"234061","AAD-866","2017/06/29 19:59:32","新北市永和區中正路277號","121.517351666667","25.0009366666667","6500400","永和區"
"234042","862-TW","2017/06/29 19:59:38","新北市永和區中和路335巷18弄2號","121.50759","25.0002283333333","6500400","永和區"
"234050","863-TW","2017/06/29 19:59:40","新北市永和區保安路260號","121.506055","25.0122433333333","6500400","永和區"
"234026","9371-KE","2017/06/29 19:59:31","新北市永和區保生路55-1號","121.504773333333","25.0115416666667","6500400","永和區"
"234011","9373-KE","2017/06/29 19:59:28","新北市永和區保生路64號","121.504811666667","25.0089533333333","6500400","永和區"
"249005","172-UM","2017/06/29 19:59:35","新北市八里區楓林路1-12號","121.385851666667","25.1312183333333","6502300","八里區"
"249001","173-UM","2017/06/29 19:59:42","新北市八里區中華路二段312號","121.403855","25.1482583333333","6502300","八里區"
"249004","303-UY","2017/06/29 19:59:34","新北市八里區中華路一段333-1號","121.413426666667","25.1537083333333","6502300","八里區"
"249002","305-UY","2017/06/29 19:59:42","新北市八里區龍米路一段87巷31-12號","121.453278333333","25.1231333333333","6502300","八里區"
"249003","593-UM","2017/06/29 19:59:31","新北市八里區華峰二街5號","121.398491666667","25.14574","6502300","八里區"
"248014","025-BX","2017/06/29 19:59:37","新北市五股區五福路66號","121.433206666667","25.0900316666667","6501500","五股區"
"248008","095-VK","2017/06/29 19:59:42","新北市五股區中興路一段1巷11號","121.469375","25.071445","6501500","五股區"
"248020","225-UY","2017/06/29 19:59:36","新北市五股區凌雲路三段19-1號","121.43066","25.1091466666667","6501500","五股區"
"248012","247-BX","2017/06/29 19:57:17","新北市五股區民義路一段13號","121.437146666667","25.0835333333333","6501500","五股區"
"248016","261-SL","2017/06/29 19:59:27","新北市五股區成泰路三段577巷80弄25號","121.449531666667","25.10457","6501500","五股區"
"248010","272-BY","2017/06/29 19:59:35","新北市五股區登林路92-2號","121.428611666667","25.0695066666667","6501500","五股區"
"248004","677-BX","2017/06/29 19:59:41","新北市五股區成泰路一段32巷58號","121.434938333333","25.0670283333333","6501500","五股區"
"248002","678-BX","2017/06/29 19:59:34","新北市五股區成泰路三段553號","121.45204","25.1019","6501500","五股區"
"234077","969-R7","2017/06/29 19:59:30","新北市永和區智光街94號","121.516096666667","24.997005","6500400","永和區"
"234074","AAC-211","2017/06/29 19:59:31","新北市永和區豫溪街197號","121.523173333333","25.0098233333333","6500400","永和區"
"234067","AAC-212","2017/06/29 19:59:36","新北市永和區保平路236巷34號","121.507786666667","25.00693","6500400","永和區"
"234003","AAC-295","2017/06/29 19:57:15","新北市永和區中正路730號","121.515446666667","25.0101416666667","6500400","永和區"
"243013","AAD-798","2017/06/29 19:59:42","新北市泰山區明志路三段6巷16號","121.423903333333","25.0436683333333","6501600","泰山區"
"243009","297-R6","2017/06/29 19:59:27","新北市泰山區楓江路14號","121.433873333333","25.0624083333333","6501600","泰山區"
"243015","380-SR","2017/06/29 19:59:32","新北市泰山區明志路二段214巷9號","121.426778333333","25.0487666666667","6501600","泰山區"
"243014","421-VK","2017/06/29 19:59:38","新北市泰山區泰林路二段171號","121.433673333333","25.0606566666667","6501600","泰山區"
"243010","548-UM","2017/06/29 19:59:41","新北市泰山區中華街7號","121.427898333333","25.052405","6501600","泰山區"
"243011","549-UM","2017/06/29 19:59:23","新北市泰山區明志路三段182巷9-2號","121.423621666667","25.0392016666667","6501600","泰山區"
"243012","646-TV","2017/06/29 19:59:41","新北市泰山區仁德路63號","121.434398333333","25.05688","6501600","泰山區"
"243016","680-BX","2017/06/29 19:59:37","新北市泰山區新北大道六段365號","121.422601666667","25.0329233333333","6501600","泰山區"
"222003","436-BY","2017/06/29 19:59:33","新北市深坑區埔新街14號","121.62072","25.0039233333333","6501800","深坑區"
"222002","659-BX","2017/06/29 19:59:28","新北市深坑區北深路二段81巷8弄6號","121.61827","25.003125","6501800","深坑區"
"222001","696-SL","2017/06/29 19:59:29","新北市深坑區北深路三段172號","121.602235","25.003545","6501800","深坑區"
"231041","002-UM","2017/06/29 19:59:45","新北市新店區中正路354號","121.535776666667","24.9756083333333","6500600","新店區"
"231059","046-UY","2017/06/29 19:59:34","新北市新店區安成街1-1號","121.51085","24.9601333333333","6500600","新店區"
"231051","107-UY","2017/06/29 19:59:37","新北市新店區中央路149號","121.530115","24.97336","6500600","新店區"
"231047","108-UY","2017/06/29 19:59:26","新北市新店區寶宏路38號","121.54943","24.9754416666667","6500600","新店區"
"231052","187-VK","2017/06/29 19:59:33","新北市新店區新烏路三段寶島巷2弄3號","121.552026666667","24.8986466666667","6500600","新店區"
"231007","189-VK","2017/06/29 12:08:33","新北市新店區安華路28-1號","121.519586666667","24.961205","6500600","新店區"
"231057","256-BX","2017/06/29 19:59:27","新北市新店區花園二路一段11號","121.555541666667","24.932475","6500600","新店區"
"231063","268-BY","2017/06/29 19:59:24","新北市新店區車子路11號","121.503008333333","24.9518816666667","6500600","新店區"
"231050","AAD-862","2017/06/29 19:59:45","新北市新店區中生路66號","121.56472","24.9523333333333","6500600","新店區"
"231060","355-BY","2017/06/29 19:59:43","新北市新店區安康路二段400-1號","121.496891666667","24.95535","6500600","新店區"
"231055","3713-VJ","2017/06/29 19:59:31","新北市新店區中華路83巷67號","121.538341666667","24.967235","6500600","新店區"
"231067","4772-VM","2017/06/29 19:59:36","新北市新店區精忠路10號","121.532308333333","24.9592116666667","6500600","新店區"
"231065","512-UM","2017/06/29 19:59:44","新北市新店區安祥路106-14號","121.476806666667","24.9609366666667","6500600","新店區"
"231054","513-UM","2017/06/29 19:59:41","新北市新店區光明街174號","121.53955","24.9620566666667","6500600","新店區"
"231064","515-UM","2017/06/29 19:59:38","新北市新店區碧安街2號","121.517466666667","24.9677166666667","6500600","新店區"
"231042","616-UM","2017/06/29 19:59:26","新北市新店區中興路一段292號","121.545888333333","24.969205","6500600","新店區"
"231045","617-UM","2017/06/29 19:59:25","新北市新店區北宜路二段317號","121.557023333333","24.9538866666667","6500600","新店區"
"231061","618-UM","2017/06/29 19:59:27","新北市新店區安民街341號","121.517053333333","24.9750183333333","6500600","新店區"
"231040","619-UM","2017/06/29 19:59:24","新北市新店區中正路64號","121.544183333333","24.9701","6500600","新店區"
"231068","718-UY","2017/06/29 19:59:40","新北市新店區安華路28-1號","121.519448333333","24.961205","6500600","新店區"
"231049","719-UM","2017/06/29 19:59:28","新北市新店區民族路9號","121.541723333333","24.9787633333333","6500600","新店區"
"231062","720-UM","2017/06/29 19:59:39","新北市新店區華城路34-1號","121.529031666667","24.956725","6500600","新店區"
"231044","897-TW","2017/06/29 19:59:40","新北市新店區復興路44-2號","121.538503333333","24.9867266666667","6500600","新店區"
"231043","899-TW","2017/06/29 19:59:39","新北市新店區中正路263-5號","121.538181666667","24.9738466666667","6500600","新店區"
"241011","013-R5","2017/06/29 19:59:34","新北市三重區三和路二段119號","121.49894","25.0690266666667","6500200","三重區"
"241028","022-UY","2017/06/29 19:59:33","新北市三重區中正南路41巷1號","121.493835","25.059965","6500200","三重區"
"241008","059-VK","2017/06/29 19:59:37","新北市三重區永福街122-2號","121.479081666667","25.0750716666667","6500200","三重區"
"241009","060-VK","2017/06/29 19:59:37","新北市三重區三和路四段390巷14號","121.481415","25.0787883333333","6500200","三重區"
"241015","062-VK","2017/06/29 19:59:31","新北市三重區三和路二段23號","121.50114","25.066955","6500200","三重區"
"241017","063-VK","2017/06/29 19:59:45","新北市三重區重陽路三段192-4號","121.490538333333","25.0686216666667","6500200","三重區"
"241024","065-VK","2017/06/29 19:59:44","新北市三重區力行路一段178巷9號","121.481586666667","25.0714416666667","6500200","三重區"
"241026","066-VK","2017/06/29 19:59:27","新北市三重區仁慈街17號","121.50196","25.0630766666667","6500200","三重區"
"241003","091-VK","2017/06/29 19:59:26","新北市三重區五華街128號","121.491706666667","25.0834933333333","6500200","三重區"
"241031","156-TC","2017/06/29 19:59:29","新北市三重區重新路四段144巷32號","121.487128333333","25.0550683333333","6500200","三重區"
"241005","262-UM","2017/06/29 19:59:43","新北市三重區溪尾街325巷32號","121.488621666667","25.0834266666667","6500200","三重區"
"241016","266-UM","2017/06/29 19:59:33","新北市三重區正義北路37號","121.497478333333","25.063655","6500200","三重區"
"241022","267-UM","2017/06/29 19:59:29","新北市三重區新北大道一段9號","121.488838333333","25.0606433333333","6500200","三重區"
"241018","268-UM","2017/06/29 19:59:23","新北市三重區雙園街94號","121.49516","25.0675533333333","6500200","三重區"
"241032","269-UM","2017/06/29 19:59:33","新北市三重區朝陽街23號","121.483626666667","25.0565033333333","6500200","三重區"
"241013","270-UM","2017/06/29 19:59:46","新北市三重區三和路三段125巷25號","121.493656666667","25.0735533333333","6500200","三重區"
"241025","271-UM","2017/06/29 19:59:28","新北市三重區頂崁街210巷26號","121.476101666667","25.0679183333333","6500200","三重區"
"241007","398-BY","2017/06/29 19:59:37","新北市三重區慈愛街66號","121.487223333333","25.0795416666667","6500200","三重區"
"241023","412-TH","2017/06/29 19:59:42","新北市三重區大有街1-1號","121.477666666667","25.0655833333333","6500200","三重區"
"241020","413-TH","2017/06/29 19:59:28","新北市三重區忠孝路一段101號","121.489478333333","25.07214","6500200","三重區"
"241004","475-VK","2017/06/29 19:59:23","新北市三重區五華街92-1號","121.492831666667","25.0824433333333","6500200","三重區"
"241019","478-VK","2017/06/29 19:59:13","新北市三重區重陽路四段40號","121.491448333333","25.0698233333333","6500200","三重區"
"241030","480-VK","2017/06/29 19:59:27","新北市三重區成功路153號","121.486603333333","25.052245","6500200","三重區"
"241014","543-UM","2017/06/29 19:59:39","新北市三重區三和路二段158號","121.499273333333","25.068445","6500200","三重區"
"241001","547-UM","2017/06/29 19:59:34","新北市三重區仁愛街283巷25號","121.493845","25.0795833333333","6500200","三重區"
"241006","AAD-863","2017/06/29 19:59:31","新北市三重區力行路二段90號","121.482031666667","25.0743","6500200","三重區"
"241035","743-BX","2017/06/29 19:59:40","新北市三重區大榮街11號","121.498206666667","25.0633733333333","6500200","三重區"
"241012","941-UM","2017/06/29 19:59:30","新北市三重區仁厚街74號","121.500683333333","25.0767483333333","6500200","三重區"
"241029","942-UM","2017/06/29 19:59:36","新北市三重區重新路三段204號","121.489986666667","25.0585016666667","6500200","三重區"
"241033","AAC-255","2017/06/29 19:59:37","新北市三重區中興北街34號","121.469703333333","25.0489033333333","6500200","三重區"
"235066","003-UY","2017/06/29 19:59:41","新北市中和區中山路二段69號","121.503973333333","25.004495","6500300","中和區"
"235056","096-UM","2017/06/29 19:59:39","新北市中和區中山路三段170巷8弄20號","121.472998333333","25.0075516666667","6500300","中和區"
"235039","097-UM","2017/06/29 19:59:31","新北市中和區大勇街27巷19號","121.51661","24.9936966666667","6500300","中和區"
"235040","150-BY","2017/06/29 19:59:23","新北市中和區保健路10巷3弄1號","121.507746666667","24.997665","6500300","中和區"
"235058","151-BY","2017/06/29 19:59:38","新北市中和區員山路150巷2弄37號","121.481681666667","24.9975066666667","6500300","中和區"
"235055","183-VK","2017/06/29 19:59:30","新北市中和區德光路15巷13號","121.471348333333","25.0037216666667","6500300","中和區"
"235038","185-VK","2017/06/29 19:59:28","新北市中和區大智街55巷30弄15號","121.521368333333","24.9932733333333","6500300","中和區"
"235049","186-VK","2017/06/29 19:59:34","新北市中和區景平路385巷60號","121.501046666667","24.9943283333333","6500300","中和區"
"235067","255-BX","2017/06/29 19:59:25","新北市中和區新生街186巷1弄3號","121.483401666667","24.9994583333333","6500300","中和區"
"235044","293-VK","2017/06/29 19:59:36","新北市中和區南山路240-9號","121.507313333333","24.989495","6500300","中和區"
"235072","301-VK","2017/06/29 19:59:41","新北市五股區中興路三段5號","121.449143333333","25.0802283333333","6500300","中和區"
"235043","352-BY","2017/06/29 19:59:27","新北市中和區興南路二段159巷7號","121.505268333333","24.983065","6500300","中和區"
"235051","376-QA","2017/06/29 19:59:36","新北市中和區中興街233巷8弄1號","121.501203333333","24.9892383333333","6500300","中和區"
"235068","377-QA","2017/06/29 19:59:34","新北市中和區福美路267號","121.498266666667","25.0049483333333","6500300","中和區"
"235050","4979-A6","2017/06/29 19:02:21","新北市中和區華新街51號","121.507903333333","24.98447","6500300","中和區"
"235069","4980-A6","2017/06/29 19:59:36","新北市中和區景新街34巷2弄5號","121.503018333333","24.9989433333333","6500300","中和區"
"235042","551-UM","2017/06/29 19:59:45","新北市中和區保健路7巷5號","121.508143333333","24.9987016666667","6500300","中和區"
"235070","558-UM","2017/06/29 19:59:29","新北市中和區連城路171巷38號","121.495983333333","24.9965716666667","6500300","中和區"
"235054","640-BX","2017/06/29 19:59:32","新北市中和區莒光路101號","121.472446666667","25.0028666666667","6500300","中和區"
"235060","647-TV","2017/06/29 19:59:37","新北市中和區新生街122號","121.483511666667","25.0014083333333","6500300","中和區"
"235047","732-UM","2017/06/29 19:59:32","新北市中和區和平街80號","121.50773","24.9912483333333","6500300","中和區"
"235057","801-TS","2017/06/29 19:59:25","新北市中和區員山路271-1號","121.481278333333","24.9994633333333","6500300","中和區"
"235041","802-TS","2017/06/29 19:59:37","新北市中和區永貞路249巷12號","121.512485","25.0036833333333","6500300","中和區"
"235052","805-TS","2017/06/29 19:59:38","新北市中和區華新街144巷9號","121.507546666667","24.98308","6500300","中和區"
"235048","896-TW","2017/06/29 19:59:27","新北市中和區興南路一段57-1號","121.510536666667","24.9898566666667","6500300","中和區"
"235053","900-TW","2017/06/29 19:59:39","新北市中和區民德路146巷7弄1號","121.467683333333","25.000485","6500300","中和區"
"235040","157-BY","2017/06/29 19:59:31","新北市中和區興南路一段83號","121.509928333333","24.9889166666667","6500300","中和區"
"235037","AAC-213","2017/06/29 19:59:35","新北市中和區秀朗路三段50巷3號","121.526085","24.9953433333333","6500300","中和區"
"235059","AAC-215","2017/06/29 19:59:34","新北市中和區圓通路335巷5弄15號","121.493533333333","24.9900566666667","6500300","中和區"
"220068","013-TV","2017/06/29 19:59:33","新北市板橋區中山路二段312號","121.479961666667","25.01912","6500100","板橋區"
"220065","072-UY","2017/06/29 19:59:44","新北市板橋區海山路35號","121.467471666667","25.00936","6500100","板橋區"
"220086","073-UY","2017/06/29 19:59:36","新北市板橋區南雅西路二段38巷2號","121.453046666667","25.009975","6500100","板橋區"
"220106","075-UY","2017/06/29 19:59:39","新北市板橋區民治街57巷32-1號","121.480165","25.034065","6500100","板橋區"
"247020","893-R6","2017/06/29 19:59:34","新北市蘆洲區民義街66號","121.472925","25.0897983333333","6501400","蘆洲區"
"247018","500-BY","2017/06/29 19:59:41","新北市蘆洲區民族路292號","121.47798","25.0896683333333","6501400","蘆洲區"
"247008","339-TH","2017/06/29 19:59:38","新北市蘆洲區中山一路97巷32弄2號","121.475488333333","25.0810616666667","6501400","蘆洲區"
"247024","337-TH","2017/06/29 19:59:33","新北市蘆洲區光榮路120巷20號","121.465631666667","25.0877716666667","6501400","蘆洲區"
"247002","336-TH","2017/06/29 19:59:29","新北市蘆洲區永樂街31巷9號","121.458126666667","25.087235","6501400","蘆洲區"
"247014","057-VK","2017/06/29 19:59:42","新北市蘆洲區中山二路92號","121.472983333333","25.0820383333333","6501400","蘆洲區"
"247004","056-VK","2017/06/29 19:59:29","新北市蘆洲區永康街31號","121.457518333333","25.085275","6501400","蘆洲區"
"247006","053-VK","2017/06/29 19:58:32","新北市蘆洲區九芎街115號","121.465583333333","25.079485","6501400","蘆洲區"
"247012","007-UY","2017/06/29 19:59:42","新北市蘆洲區中興街15巷42號","121.479838333333","25.08843","6501400","蘆洲區"
"247022","002-UY","2017/06/29 19:59:34","新北市蘆洲區中正路176號","121.46741","25.0877966666667","6501400","蘆洲區"
"247016","001-UY","2017/06/29 19:59:34","新北市蘆洲區光華路92號","121.467638333333","25.08276","6501400","蘆洲區"
"226004","312-R5","2017/06/29 19:59:38","新北市平溪區十分里十分街158號","121.778355","25.043245","6502400","平溪區"
"228003","097-TW","2017/06/29 19:59:40","新北市貢寮區仁理村仁和路222號","121.9239","25.0535033333333","6502600","貢寮區"
"224011","420-VK","2017/06/29 19:59:37","新北市瑞芳區崙頂路3-1號","121.847018333333","25.1047083333333","6501200","瑞芳區"
"227004","642-TC","2017/06/29 19:59:30","新北市雙溪區雙溪里長安街12號","121.864905","25.034635","6502500","雙溪區"
"227010","400-TW","2017/06/29 19:59:32","新北市雙溪區新基里新基南街25號","121.866265","25.03813","6502500","雙溪區"
"208003","665-BX","2017/06/29 19:59:31","新北市金山區永興里跳石4號","121.633416666667","25.2571466666667","6502700","金山區"
"208001","761-BX","2017/06/29 19:59:27","新北市金山區南勢湖24號","121.618341666667","25.2182566666667","6502700","金山區"
"251009","008-UM","2017/06/29 19:15:18","新北市淡水區中正路114號","121.441701666667","25.1695583333333","6501000","淡水區"
"251004","009-UM","2017/06/29 19:59:37","新北市淡水區民族路48號","121.461536666667","25.1359166666667","6501000","淡水區"
"251005","010-UM","2017/06/29 19:59:30","新北市淡水區學府路136巷51號","121.452285","25.172705","6501000","淡水區"
"251001","011-UM","2017/06/29 19:59:39","新北市淡水區水源街二段194號","121.45677","25.1761783333333","6501000","淡水區"
"251008","181-VK","2017/06/29 19:59:31","新北市淡水區淡海路72巷10號","121.423658333333","25.1809383333333","6501000","淡水區"
"251014","182-VK","2017/06/29 19:59:26","新北市淡水區石頭厝14-53號","121.464315","25.2366083333333","6501000","淡水區"
"251010","413-VK","2017/06/29 19:59:28","新北市淡水區崁頂92號","121.429623333333","25.2029133333333","6501000","淡水區"
"251012","441-VK","2017/06/29 19:59:24","新北市淡水區下圭柔山70-7號","121.447533333333","25.2056716666667","6501000","淡水區"
"251016","442-VK","2017/06/29 19:59:32","新北市淡水區番子田16-13號","121.453748333333","25.23165","6501000","淡水區"
"251006","561-UM","2017/06/29 19:59:39","新北市淡水區北新路8號","121.444476666667","25.1774366666667","6501000","淡水區"
"251011","650-BX","2017/06/29 19:59:36","新北市淡水區中山北路三段165-1號","121.444506666667","25.19707","6501000","淡水區"
"251003","766-UM","2017/06/29 19:59:30","新北市淡水區中山北路二段189巷15弄29號","121.443346666667","25.1841366666667","6501000","淡水區"
"207003","550-UM","2017/06/29 19:59:28","新北市萬里區大鵬里萬里加投44-3號","121.640453333333","25.2091583333333","6502800","萬里區"
"207004","225-TW","2017/06/29 19:59:32","新北市萬里區北基里忠二街15號","121.68511","25.17538","6502800","萬里區"
"252002","178-VK","2017/06/29 19:59:36","新北市三芝區三民街39巷36號","121.5054","25.2575366666667","6502100","三芝區"
"252001","702-TV","2017/06/29 19:59:45","新北市三芝區公正街66號","121.4999","25.2575","6502100","三芝區"
"208002","170-UY","2017/06/29 19:56:35","新北市金山區中山路441-3號","121.631498333333","25.2254266666667","6502700","金山區"
"237001","361-BY","2017/06/29 15:27:57","新北市三峽區中山路459巷137號","121.349356666667","24.93355","6500900","三峽區"
"237004","078-UY","2017/06/29 19:59:40","新北市三峽區添福1-1號","121.370718333333","24.9088666666667","6500900","三峽區"
"237007","153-BY","2017/06/29 19:59:35","新北市三峽區二鬮路136巷20弄67號","121.357635","24.909545","6500900","三峽區"
"237009","210-TH","2017/06/29 19:59:32","新北市三峽區民族街78巷2弄2號","121.368765","24.92983","6500900","三峽區"
"237013","252-BX","2017/06/29 19:59:33","新北市三峽區溪北街74號","121.3975","24.9356483333333","6500900","三峽區"
"237012","275-BY","2017/06/29 19:59:38","新北市三峽區光明路15號","121.373046666667","24.93141","6500900","三峽區"
"237008","302-VK","2017/06/29 19:59:35","新北市三峽區大同路154號","121.373133333333","24.9269083333333","6500900","三峽區"
"237014","433-BY","2017/06/29 19:59:24","新北市三峽區添福11-3號","121.37233","24.9068616666667","6500900","三峽區"
"237006","5529-G3","2017/06/29 19:59:40","新北市三峽區中正路一段524號","121.369365","24.920105","6500900","三峽區"
"237016","649-BX","2017/06/29 19:59:43","新北市三峽區橫溪路99巷5號","121.399626666667","24.9360316666667","6500900","三峽區"
"237005","AKY-6261","2017/06/29 19:59:39","新北市三峽區愛國路1-1號","121.374976666667","24.9348483333333","6500900","三峽區"
"236071","105-UM","2017/06/29 19:59:36","新北市土城區千歲路27號","121.44198","24.968565","6501300","土城區"
"236042","107-UM","2017/06/29 19:59:40","新北市土城區學府路一段143巷8號","121.453846666667","24.98578","6501300","土城區"
"236078","166-UM","2017/06/29 19:59:29","新北市土城區福安街57號","121.418401666667","24.9644633333333","6501300","土城區"
"236030","253-BX","2017/06/29 19:59:31","新北市土城區中央路一段250巷2-3號","121.443978333333","24.984775","6501300","土城區"
"236026","269-VK","2017/06/29 19:59:28","新北市土城區員林街1號","121.442396666667","24.9782166666667","6501300","土城區"
"236014","270-VK","2017/06/29 19:59:36","新北市土城區廣福街121號","121.456245","24.992785","6501300","土城區"
"236037","271-VK","2017/06/29 19:59:36","新北市土城區國際路116號","121.46748","24.975625","6501300","土城區"
"236021","401-BY","2017/06/29 19:59:37","新北市土城區延吉街165巷22號","121.470178333333","24.9854116666667","6501300","土城區"
"236058","912-UM","2017/06/29 19:59:29","新北市土城區中央路一段179號","121.446225","24.9873866666667","6501300","土城區"
"236051","913-UM","2017/06/29 19:59:36","新北市土城區金城路三段186號","121.468218333333","24.987935","6501300","土城區"
"236053","AAC-216","2017/06/29 19:59:28","新北市土城區延和路252號","121.46991","24.9895366666667","6501300","土城區"
"242021","AAC-296","2017/06/29 19:59:24","新北市新莊區建中街16巷27號","121.449093333333","25.0387083333333","6500500","新莊區"
"242029","986-R7","2017/06/29 19:59:38","新北市新莊區中榮街152巷40號","121.445543333333","25.053805","6500500","新莊區"
"242048","751-BX","2017/06/29 19:59:30","新北市新莊區富國路109巷2號","121.423821666667","25.0251233333333","6500500","新莊區"
"242061","705-TV","2017/06/29 19:59:41","新北市新莊區瓊泰路3號","121.444893333333","25.028655","6500500","新莊區"
"242025","615-BX","2017/06/29 19:59:31","新北市新莊區五工二路86巷50號","121.460851666667","25.0675","6500500","新莊區"
"242023","613-BX","2017/06/29 19:59:37","新北市新莊區化成路370號","121.465833333333","25.049715","6500500","新莊區"
"242027","612-BX","2017/06/29 19:59:33","新北市新莊區立信一街62號","121.443268333333","25.0496533333333","6500500","新莊區"
"242036","566-BX","2017/06/29 19:59:34","新北市新莊區建安街41巷10號","121.429116666667","25.0251183333333","6500500","新莊區"
"242042","497-BY","2017/06/29 19:59:30","新北市新莊區青山路一段63號","121.407166666667","25.02795","6500500","新莊區"
"242004","442-UM","2017/06/29 19:59:29","新北市新莊區化成路314巷2號","121.466211666667","25.0483183333333","6500500","新莊區"
"242051","440-UM","2017/06/29 19:59:29","新北市新莊區西盛街137號","121.428193333333","25.01853","6500500","新莊區"
"242031","415-TV","2017/06/29 19:59:35","新北市新莊區公園一路42號","121.443286666667","25.0356416666667","6500500","新莊區"
"242002","413-TV","2017/06/29 19:59:42","新北市新莊區中正路219號","121.450935","25.035805","6500500","新莊區"
"242039","400-BY","2017/06/29 19:59:39","新北市新莊區民安路292號","121.428036666667","25.0216516666667","6500500","新莊區"
"242058","353-BY","2017/06/29 19:59:28","新北市新莊區八德街111號","121.424171666667","25.0209566666667","6500500","新莊區"
"242011","132-UY","2017/06/29 19:59:31","新北市新莊區中港路531巷56號","121.450035","25.051725","6500500","新莊區"
"242034","133-UY","2017/06/29 19:59:39","新北市新莊區建中街72-1號","121.447495","25.0368916666667","6500500","新莊區"
"242044","172-VK","2017/06/29 19:59:39","新北市新莊區中正路746巷37號","121.410911666667","25.02485","6500500","新莊區"
"242007","173-VK","2017/06/29 19:59:42","新北市新莊區思源路593巷6弄4號","121.459331666667","25.0599083333333","6500500","新莊區"
"242013","175-VK","2017/06/29 19:59:44","新北市新莊區幸福路607號","121.452171666667","25.04922","6500500","新莊區"
"242056","176-VK","2017/06/29 19:59:43","新北市新莊區新豐街20巷28號","121.447583333333","25.0345","6500500","新莊區"
"242019","346-TH","2017/06/29 19:59:32","新北市新莊區民生街22號","121.456008333333","25.042095","6500500","新莊區"
"242017","348-TH","2017/06/29 19:59:28","新北市新莊區中華路二段3巷1號","121.453271666667","25.0453233333333","6500500","新莊區"
"242015","350-TH","2017/06/29 19:59:29","新北市新莊區泰安街46號","121.446943333333","25.0423883333333","6500500","新莊區"
"238015","755-BX","2017/06/29 19:59:31","新北市樹林區中山路三段116號","121.392601666667","24.972155","6500700","樹林區"
"238023","601-UM","2017/06/29 19:59:35","新北市樹林區三俊街2號","121.410731666667","25.0150866666667","6500700","樹林區"
"238021","311-TH","2017/06/29 15:41:21","新北市樹林區柑園街一段68號","121.402155","24.960255","6500700","樹林區"
"238025","303-VK","2017/06/29 19:59:26","新北市樹林區中山路三段349號","121.389986666667","24.97059","6500700","樹林區"
"239006","891-R6","2017/06/29 19:59:22","新北市鶯歌區文化路72-6號","121.354773333333","24.9536433333333","6500800","鶯歌區"
"239001","417-VK","2017/06/29 19:59:39","新北市鶯歌區二甲路12-2號","121.345885","24.9349733333333","6500800","鶯歌區"
"221008","489-VK","2017/06/29 19:59:31","新北市汐止區康寧街13號","121.61793","25.0673366666667","6501100","汐止區"
"221036","130-UY","2017/06/29 19:59:31","新北市汐止區新台五路二段85巷20號","121.664243333333","25.0674766666667","6501100","汐止區"
"221015","131-UY","2017/06/29 19:59:41","新北市汐止區橋東街9號","121.666673333333","25.0758983333333","6501100","汐止區"
"221010","269-BY","2017/06/29 19:59:38","新北市汐止區連峰街230號","121.64562","25.0808016666667","6501100","汐止區"
"221010","276-VK","2017/06/29 13:17:07","新北市汐止區汐萬路一段256巷3號","121.653438333333","25.07459","6501100","汐止區"
"221031","277-VK","2017/06/29 00:28:13","新北市汐止區汐萬路一段256巷3號","121.652588333333","25.0745916666667","6501100","汐止區"
"221012","278-VK","2017/06/29 19:59:31","新北市汐止區大同路三段284號","121.677976666667","25.071245","6501100","汐止區"
"221023","279-VK","2017/06/29 19:35:25","新北市汐止區中興路282號","121.62855","25.0693183333333","6501100","汐止區"
"221032","280-BY","2017/06/29 19:59:28","新北市汐止區力行街59巷9弄2號","121.617285","25.04966","6501100","汐止區"
"221027","281-BY","2017/06/29 19:59:36","新北市汐止區信義路17號","121.661588333333","25.0693233333333","6501100","汐止區"
"221038","297-VK","2017/06/29 19:59:34","新北市汐止區忠孝東路295號","121.664248333333","25.0688916666667","6501100","汐止區"
"221029","298-VK","2017/06/29 19:59:34","新北市汐止區樟樹一路137巷26號","121.641045","25.0659116666667","6501100","汐止區"
"221021","299-VK","2017/06/29 19:59:17","新北市汐止區龍安路32號","121.654998333333","25.0639716666667","6501100","汐止區"
"221035","622-UM","2017/06/29 19:59:28","新北市汐止區長江街13巷12弄23號","121.655236666667","25.0722066666667","6501100","汐止區"
"221025","623-UM","2017/06/29 19:59:37","新北市汐止區秀峰路120號","121.660013333333","25.06334","6501100","汐止區"
"221033","647-BX","2017/06/29 19:59:32","新北市汐止區東勢街201巷2號","121.633688333333","25.042145","6501100","汐止區"
"221002","753-BX","2017/06/29 19:59:42","新北市汐止區茄福街128巷3弄1號","121.67199","25.06426","6501100","汐止區"
"220079","145-BY","2017/06/29 19:59:24","新北市板橋區建國街83號","121.459456666667","25.017315","6500100","板橋區"
"220082","610-BX","2017/06/29 19:59:40","新北市板橋區溪崑二街20號","121.428696666667","24.991485","6500100","板橋區"
"220101","245-BX","2017/06/29 19:59:38","新北市板橋區縣民大道三段103巷13號","121.475683333333","25.0226933333333","6500100","板橋區"
"220069","258-TC","2017/06/29 19:59:44","新北市板橋區南雅南路二段11-21號","121.454496666667","25.00157","6500100","板橋區"
"220072","277-BY","2017/06/29 19:59:28","新北市板橋區金門街149號","121.432755","24.99068","6500100","板橋區"
"220094","283-UM","2017/06/29 19:59:43","新北市板橋區雨農路24號","121.461658333333","25.024505","6500100","板橋區"
"220071","283-VK","2017/06/29 19:59:37","新北市板橋區五權街32巷23號","121.464063333333","24.9926466666667","6500100","板橋區"
"220053","285-VK","2017/06/29 19:59:36","新北市板橋區永豐街51-1號","121.473975","25.0179083333333","6500100","板橋區"
"220083","286-VK","2017/06/29 19:59:24","新北市板橋區僑中三街39號","121.445123333333","25.004825","6500100","板橋區"
"220081","287-VK","2017/06/29 19:59:32","新北市板橋區大觀路一段29巷131弄21號","121.45063","25.0049533333333","6500100","板橋區"
"220090","288-VK","2017/06/29 19:59:29","新北市板橋區龍泉街82巷14弄23號","121.45608","25.0262316666667","6500100","板橋區"
"220061","293-UM","2017/06/29 19:59:30","新北市板橋區觀光街1巷8號","121.471858333333","25.0153783333333","6500100","板橋區"
"220084","296-UM","2017/06/29 19:59:39","新北市板橋區溪崑二街124巷12號","121.425615","24.988285","6500100","板橋區"
"220075","297-UM","2017/06/29 19:59:40","新北市板橋區金華街10巷48弄5號","121.45726","25.0198666666667","6500100","板橋區"
"220062","305-R5","2017/06/29 19:52:43","新北市板橋區中山路二段332-5號","121.481528333333","25.0194866666667","6500100","板橋區"
"220092","307-R5","2017/06/29 19:59:25","新北市板橋區四維路259巷71號","121.460581666667","25.026665","6500100","板橋區"
"220098","317-R6","2017/06/29 19:59:43","新北市板橋區龍泉街157號","121.458143333333","25.0243183333333","6500100","板橋區"
"220064","486-VK","2017/06/29 19:59:42","新北市板橋區海山路23號","121.46832","25.0090383333333","6500100","板橋區"
"220089","487-VK","2017/06/29 19:59:28","新北市板橋區龍泉街81號","121.456683333333","25.025075","6500100","板橋區"
"220088","491-VK","2017/06/29 19:58:56","新北市板橋區文聖街144號","121.478555","25.02787","6500100","板橋區"
"220035","560-BX","2017/06/29 19:59:39","新北市板橋區新生街29巷15弄2號","121.45659","25.0220966666667","6500100","板橋區"
"220103","561-BX","2017/06/29 19:59:32","新北市板橋區陽明街29巷1弄9號","121.464778333333","25.021455","6500100","板橋區"
"220091","637-BX","2017/06/29 19:59:31","新北市板橋區懷德街174巷18弄1號","121.478735","25.0297","6500100","板橋區"
"220057","686-BX","2017/06/29 19:59:44","新北市板橋區信義路206號","121.45997","24.9909766666667","6500100","板橋區"
"220077","687-BX","2017/06/29 19:59:24","新北市板橋區僑中一街102巷7弄20號","121.446061666667","25.0130533333333","6500100","板橋區"
"220093","689-BX","2017/06/29 19:59:27","新北市板橋區文化路二段560號","121.476405","25.0342233333333","6500100","板橋區"
"220054","741-BX","2017/06/29 19:59:31","新北市板橋區忠孝路忠義巷24弄4號","121.467141666667","25.003905","6500100","板橋區"
"220073","806-UM","2017/06/29 19:59:35","新北市板橋區大仁街42號","121.455126666667","25.0167116666667","6500100","板橋區"
"220055","827-TW","2017/06/29 19:59:45","新北市板橋區國慶路167巷35-4號","121.461561666667","24.9981116666667","6500100","板橋區"
"220067","829-TW","2017/06/29 19:59:37","新北市板橋區漢生東路193巷3號","121.47006","25.0117066666667","6500100","板橋區"
"220102","830-TW","2017/06/29 19:59:38","新北市板橋區仁化街42巷14號","121.475396666667","25.0310816666667","6500100","板橋區"
"220096","831-TW","2017/06/29 19:59:26","新北市板橋區莊敬路168號","121.471455","25.0223916666667","6500100","板橋區"
"220074","895-R6","2017/06/29 19:59:29","新北市板橋區東門街1-2號","121.457973333333","25.0089633333333","6500100","板橋區"
"220097","AAC-210","2017/06/29 19:59:27","新北市板橋區漢生西路58巷12號","121.463688333333","25.0189066666667","6500100","板橋區"
"220070","AAC-253","2017/06/29 19:59:38","新北市板橋區民族路115號","121.467008333333","25.00812","6500100","板橋區"
