"lineid","car","time","location","longitude","latitude","cityid","cityname"
"234046","148-BY","2017/06/29 20:09:39","新北市永和區成功路二段75號","121.526795","24.9997483333333","6500400","永和區"
"234013","149-BY","2017/06/29 20:09:23","新北市永和區保生路25-1號","121.505991666667","25.0072783333333","6500400","永和區"
"234007","207-UY","2017/06/29 20:09:38","新北市永和區保生路22巷13號","121.506975","25.0080716666667","6500400","永和區"
"234081","298-R6","2017/06/29 20:09:42","新北市永和區永亨路98號","121.523053333333","25.00475","6500400","永和區"
"234038","336-UY","2017/06/29 20:09:29","新北市永和區成功路一段45號","121.527116666667","25.0041083333333","6500400","永和區"
"234064","337-UY","2017/06/29 20:09:32","新北市永和區永利路92號","121.520771666667","25.0036416666667","6500400","永和區"
"234086","338-UY","2017/06/29 20:09:39","新北市永和區福和路278號","121.517973333333","25.0075283333333","6500400","永和區"
"234070","552-UM","2017/06/29 20:09:36","新北市永和區永安街16巷3號","121.519305","25.0062066666667","6500400","永和區"
"234054","553-UM","2017/06/29 20:09:35","新北市永和區博愛街2號","121.516438333333","25.01577","6500400","永和區"
"234017","745-BX","2017/06/29 20:09:28","新北市永和區文化路14號","121.515445","25.015075","6500400","永和區"
"234030","746-BX","2017/06/29 20:09:28","新北市永和區民權路49巷18號","121.521048333333","24.9973","6500400","永和區"
"234061","AAD-866","2017/06/29 20:09:30","新北市永和區中正路151巷14號","121.515533333333","24.9988283333333","6500400","永和區"
"234042","862-TW","2017/06/29 20:09:45","新北市永和區雙和街64巷22弄5-1號","121.509766666667","25.002885","6500400","永和區"
"234050","863-TW","2017/06/29 20:09:40","新北市永和區環河西路二段95號","121.506535","25.0148516666667","6500400","永和區"
"234011","9373-KE","2017/06/29 20:09:32","新北市永和區仁愛路352巷106號","121.500666666667","25.0080183333333","6500400","永和區"
"249005","172-UM","2017/06/29 20:09:35","新北市八里區長坑口43號","121.386323333333","25.13361","6502300","八里區"
"249001","173-UM","2017/06/29 20:09:42","新北市八里區中華路二段312號","121.403808333333","25.1482033333333","6502300","八里區"
"249004","303-UY","2017/06/29 20:09:34","新北市八里區中山路一段189巷18號","121.412035","25.15803","6502300","八里區"
"249002","305-UY","2017/06/29 20:09:42","新北市八里區龍米路一段3-6號","121.457275","25.117475","6502300","八里區"
"249003","593-UM","2017/06/29 20:09:31","新北市八里區中山路二段540巷28號","121.397135","25.1472716666667","6502300","八里區"
"248014","025-BX","2017/06/29 20:09:37","新北市五股區五福路14巷26號","121.435425","25.0888883333333","6501500","五股區"
"248020","225-UY","2017/06/29 20:09:36","新北市五股區凌雲路二段27號","121.440598333333","25.1022066666667","6501500","五股區"
"248012","247-BX","2017/06/29 20:09:37","新北市五股區六合街85號","121.430625","25.0898333333333","6501500","五股區"
"248016","261-SL","2017/06/29 20:09:27","新北市五股區成泰路三段577巷80弄72號","121.448951666667","25.1047233333333","6501500","五股區"
"248010","272-BY","2017/06/29 20:09:35","新北市五股區成泰路一段7巷66號","121.432651666667","25.06781","6501500","五股區"
"248004","677-BX","2017/06/29 20:09:41","新北市五股區成泰路一段138號","121.435058333333","25.075685","6501500","五股區"
"248002","678-BX","2017/06/29 20:09:43","新北市五股區成泰路三段314號","121.44911","25.09603","6501500","五股區"
"234023","9380-KE","2017/06/29 20:09:26","新北市永和區中正路659號","121.514803333333","25.0102483333333","6500400","永和區"
"234077","969-R7","2017/06/29 20:09:30","新北市永和區民享街23巷19號","121.516533333333","24.9953133333333","6500400","永和區"
"234074","AAC-211","2017/06/29 20:09:31","新北市永和區竹林路179巷46號","121.52247","25.0102883333333","6500400","永和區"
"234067","AAC-212","2017/06/29 20:09:36","新北市永和區永貞路362號","121.510295","25.0067016666667","6500400","永和區"
"234003","AAC-295","2017/06/29 20:07:35","新北市永和區中正路620號","121.517056666667","25.0078166666667","6500400","永和區"
"243013","AAD-798","2017/06/29 20:09:42","新北市泰山區明志路三段74巷10號","121.424375","25.0417333333333","6501600","泰山區"
"243009","297-R6","2017/06/29 20:09:27","新北市泰山區泰林路二段144號","121.434413333333","25.0599516666667","6501600","泰山區"
"243015","380-SR","2017/06/29 20:09:32","新北市泰山區明志路一段453-1號","121.430713333333","25.05636","6501600","泰山區"
"243014","421-VK","2017/06/29 20:09:38","新北市泰山區明志路一段113號","121.43343","25.0635616666667","6501600","泰山區"
"243010","548-UM","2017/06/29 20:09:41","新北市泰山區明志路二段136巷1號","121.426921666667","25.0512533333333","6501600","泰山區"
"243011","549-UM","2017/06/29 20:09:43","新北市新莊區明志路19號","121.419893333333","25.02926","6501600","泰山區"
"243012","646-TV","2017/06/29 20:09:41","新北市泰山區楓江路89號","121.437065","25.063575","6501600","泰山區"
"243016","680-BX","2017/06/29 20:09:37","新北市泰山區明志路三段180號","121.424233333333","25.0388883333333","6501600","泰山區"
"222003","436-BY","2017/06/29 20:09:32","新北市深坑區埔新街56號","121.620285","25.0024833333333","6501800","深坑區"
"222002","659-BX","2017/06/29 20:09:28","新北市深坑區北深路三段22號","121.609318333333","25.00112","6501800","深坑區"
"222001","696-SL","2017/06/29 20:09:29","新北市深坑區北深路三段193號","121.601125","25.0036966666667","6501800","深坑區"
"231041","002-UM","2017/06/29 20:09:45","新北市新店區中正路468-3號","121.533976666667","24.9802366666667","6500600","新店區"
"231056","0293-UT","2017/06/29 20:09:31","新北市新店區明德路5號","121.54255","24.9766316666667","6500600","新店區"
"231059","046-UY","2017/06/29 20:09:34","新北市新店區安德街55號","121.510895","24.9620183333333","6500600","新店區"
"231051","107-UY","2017/06/29 20:09:37","新北市新店區中央二街5巷4號","121.528811666667","24.97283","6500600","新店區"
"231047","108-UY","2017/06/29 20:09:26","新北市新店區永華街34號","121.544593333333","24.9754883333333","6500600","新店區"
"231052","187-VK","2017/06/29 20:09:33","新北市新店區新烏路三段88-1號","121.553441666667","24.90367","6500600","新店區"
"231007","189-VK","2017/06/29 12:08:33","新北市新店區安華路28-1號","121.519586666667","24.961205","6500600","新店區"
"231057","256-BX","2017/06/29 20:09:27","新北市新店區花園一路一段2號","121.553153333333","24.9324016666667","6500600","新店區"
"231063","268-BY","2017/06/29 20:09:24","新北市新店區黎明路59巷1號","121.50246","24.9473816666667","6500600","新店區"
"231050","AAD-862","2017/06/29 20:09:25","新北市新店區北宜路二段360-1號","121.56474","24.9523483333333","6500600","新店區"
"231060","355-BY","2017/06/29 20:09:43","新北市新店區安康路三段216號","121.488383333333","24.9518166666667","6500600","新店區"
"231055","3713-VJ","2017/06/29 20:09:30","新北市新店區中華路48巷34號","121.54098","24.9693183333333","6500600","新店區"
"231067","4772-VM","2017/06/29 20:09:36","新北市新店區安康路一段61號","121.530625","24.9609016666667","6500600","新店區"
"231065","512-UM","2017/06/29 20:09:44","新北市新店區安祥路106巷200弄6號","121.474376666667","24.9602966666667","6500600","新店區"
"231054","513-UM","2017/06/29 20:09:41","新北市新店區檳榔路40號","121.541553333333","24.9637266666667","6500600","新店區"
"231064","515-UM","2017/06/29 20:09:38","新北市新店區安康路二段118-9號","121.512951666667","24.9634716666667","6500600","新店區"
"231042","616-UM","2017/06/29 20:09:26","新北市新店區中興路二段224號","121.548046666667","24.9751133333333","6500600","新店區"
"231045","617-UM","2017/06/29 20:09:25","新北市新店區北宜路一段294號","121.547085","24.952355","6500600","新店區"
"231061","618-UM","2017/06/29 20:09:27","新北市新店區安興路32號","121.5156","24.9700633333333","6500600","新店區"
"231040","619-UM","2017/06/29 20:09:24","新北市新店區中正路104號","121.54317","24.9704883333333","6500600","新店區"
"231068","718-UY","2017/06/29 20:09:40","新北市新店區北新路二段2號","121.542561666667","24.9705583333333","6500600","新店區"
"231049","719-UM","2017/06/29 20:09:28","新北市新店區北新路二段139巷14號","121.542118333333","24.9758916666667","6500600","新店區"
"231062","720-UM","2017/06/29 20:09:39","新北市新店區安忠路205巷8號","121.509993333333","24.9553566666667","6500600","新店區"
"231044","897-TW","2017/06/29 20:09:40","新北市新店區寶慶街58巷6號","121.542056666667","24.9870583333333","6500600","新店區"
"231043","899-TW","2017/06/29 20:09:39","新北市新店區民族路190號","121.536396666667","24.9756233333333","6500600","新店區"
"231066","AKT-0513","2017/06/29 20:09:33","新北市新店區柴埕路59號","121.51351","24.9649566666667","6500600","新店區"
"241011","013-R5","2017/06/29 20:09:34","新北市三重區秀江街232-1號","121.496548333333","25.0715583333333","6500200","三重區"
"241028","022-UY","2017/06/29 20:09:33","新北市三重區仁化街157號","121.49471","25.05706","6500200","三重區"
"241008","059-VK","2017/06/29 20:09:37","新北市三重區永福街197巷37弄3號","121.478273333333","25.0744333333333","6500200","三重區"
"241009","060-VK","2017/06/29 20:09:37","新北市三重區永福街23號","121.48165","25.0781216666667","6500200","三重區"
"241015","062-VK","2017/06/29 20:09:31","新北市三重區福德北路24號","121.502218333333","25.0648466666667","6500200","三重區"
"241017","063-VK","2017/06/29 20:09:25","新北市三重區自強路一段236號","121.493103333333","25.0670266666667","6500200","三重區"
"241024","065-VK","2017/06/29 20:09:44","新北市三重區中正北路294號","121.480198333333","25.0687983333333","6500200","三重區"
"241026","066-VK","2017/06/29 20:09:27","新北市三重區福德南路65巷2號","121.502428333333","25.0604633333333","6500200","三重區"
"241002","090-VK","2017/06/29 20:09:42","新北市三重區五華街35巷62號","121.495808333333","25.08185","6500200","三重區"
"241003","091-VK","2017/06/29 20:09:26","新北市三重區仁愛街425巷1號","121.490578333333","25.0816666666667","6500200","三重區"
"241031","156-TC","2017/06/29 20:09:29","新北市三重區過圳街9-1號","121.488873333333","25.0599766666667","6500200","三重區"
"241005","262-UM","2017/06/29 20:09:22","新北市三重區溪尾街327號","121.48818","25.0848816666667","6500200","三重區"
"241016","266-UM","2017/06/29 20:09:29","新北市三重區大同北路61號","121.495206666667","25.0634133333333","6500200","三重區"
"241022","267-UM","2017/06/29 20:09:29","新北市三重區新北大道一段11號","121.488008333333","25.0607816666667","6500200","三重區"
"241018","268-UM","2017/06/29 20:09:43","新北市三重區雙園街99號","121.493775","25.067285","6500200","三重區"
"241032","269-UM","2017/06/29 20:09:33","新北市三重區捷運路65號","121.483453333333","25.055625","6500200","三重區"
"241013","270-UM","2017/06/29 20:09:27","新北市三重區三和路三段139巷40號","121.494063333333","25.07414","6500200","三重區"
"241025","271-UM","2017/06/29 20:09:28","新北市三重區中正北路169號","121.478376666667","25.069355","6500200","三重區"
"241007","398-BY","2017/06/29 20:09:37","新北市三重區三和路四段111-15號","121.486958333333","25.0776916666667","6500200","三重區"
"241023","412-TH","2017/06/29 20:09:22","新北市三重區頂崁街221號","121.477073333333","25.0679766666667","6500200","三重區"
"241020","413-TH","2017/06/29 20:09:28","新北市三重區大智街179巷21號","121.490716666667","25.0728866666667","6500200","三重區"
"241004","475-VK","2017/06/29 20:09:46","新北市三重區自強路四段112號","121.491651666667","25.0801383333333","6500200","三重區"
"241019","478-VK","2017/06/29 20:09:34","新北市三重區自強路二段33巷1號","121.48984","25.069505","6500200","三重區"
"241030","480-VK","2017/06/29 20:09:27","新北市三重區成功路145巷14號","121.487303333333","25.0528133333333","6500200","三重區"
"241014","543-UM","2017/06/29 20:09:39","新北市三重區長樂街110號","121.501515","25.0696233333333","6500200","三重區"
"241001","547-UM","2017/06/29 20:09:34","新北市三重區溪尾街24-1號","121.491018333333","25.0763433333333","6500200","三重區"
"241006","AAD-863","2017/06/29 20:09:31","新北市三重區力行路二段71號","121.482308333333","25.0751466666667","6500200","三重區"
"241035","743-BX","2017/06/29 20:09:32","新北市三重區平安街7號","121.498791666667","25.0642883333333","6500200","三重區"
"241012","941-UM","2017/06/29 20:09:30","新北市三重區仁福街64巷23號","121.49783","25.07548","6500200","三重區"
"241029","942-UM","2017/06/29 20:09:36","新北市三重區光明路32巷9號","121.491783333333","25.0586033333333","6500200","三重區"
"241033","AAC-255","2017/06/29 20:09:37","新北市三重區光復路一段61巷27號","121.473586666667","25.0492983333333","6500200","三重區"
"235066","003-UY","2017/06/29 20:09:41","新北市中和區保平路231號","121.507991666667","25.0042533333333","6500300","中和區"
"235039","097-UM","2017/06/29 20:09:31","新北市中和區景平路278巷10號","121.514051666667","24.9929033333333","6500300","中和區"
"235040","150-BY","2017/06/29 20:09:23","新北市中和區保健路33巷9號","121.509136666667","24.9979616666667","6500300","中和區"
"235058","151-BY","2017/06/29 20:09:38","新北市中和區中正路655號","121.485118333333","24.996155","6500300","中和區"
"235055","183-VK","2017/06/29 20:09:30","新北市中和區民生街21-6號","121.470786666667","25.00549","6500300","中和區"
"235038","185-VK","2017/06/29 20:09:28","新北市中和區自立路17號","121.522296666667","24.9961016666667","6500300","中和區"
"235067","255-BX","2017/06/29 20:09:45","新北市中和區員山路148巷23弄60號","121.482248333333","24.9980916666667","6500300","中和區"
"235044","293-VK","2017/06/29 20:09:39","新北市中和區南山路261號","121.503818333333","24.9926566666667","6500300","中和區"
"235072","301-VK","2017/06/29 20:09:41","新北市八里區下罟子8-10號","121.384961666667","25.14499","6500300","中和區"
"235043","352-BY","2017/06/29 20:09:27","新北市中和區興南路二段159巷12號","121.505213333333","24.983105","6500300","中和區"
"235051","376-QA","2017/06/29 20:09:36","新北市中和區景安路253號","121.503928333333","24.9905183333333","6500300","中和區"
"235068","377-QA","2017/06/29 20:09:41","新北市中和區中山路二段250巷2號","121.497766666667","25.0028516666667","6500300","中和區"
"235050","4979-A6","2017/06/29 19:02:21","新北市中和區華新街51號","121.507903333333","24.98447","6500300","中和區"
"235069","4980-A6","2017/06/29 20:09:36","新北市中和區南山路127巷27弄16號","121.503476666667","24.997995","6500300","中和區"
"235042","551-UM","2017/06/29 20:09:25","新北市中和區景平路280號","121.513788333333","24.9926716666667","6500300","中和區"
"235070","558-UM","2017/06/29 20:08:09","新北市中和區圓通路84號","121.499726666667","24.9972066666667","6500300","中和區"
"235054","640-BX","2017/06/29 20:09:32","新北市中和區莒光路112號","121.472441666667","25.0020416666667","6500300","中和區"
"235041","802-TS","2017/06/29 20:09:37","新北市中和區永貞路221號","121.513568333333","25.0034316666667","6500300","中和區"
"235052","805-TS","2017/06/29 20:09:38","新北市中和區忠孝街60巷7號","121.511683333333","24.9837916666667","6500300","中和區"
"235048","896-TW","2017/06/29 20:09:27","新北市中和區景新街555號","121.515321666667","24.9866283333333","6500300","中和區"
"235053","900-TW","2017/06/29 20:09:40","新北市中和區民德路262號","121.467948333333","24.9967816666667","6500300","中和區"
"235040","157-BY","2017/06/29 20:09:31","新北市中和區忠孝街31巷56號","121.509706666667","24.9855316666667","6500300","中和區"
"235037","AAC-213","2017/06/29 20:09:35","新北市中和區秀朗路三段10巷29弄5號","121.52509","24.9959983333333","6500300","中和區"
"235059","AAC-215","2017/06/29 20:09:34","新北市中和區圓通路335巷33弄35號","121.493796666667","24.988705","6500300","中和區"
"220065","072-UY","2017/06/29 20:09:43","新北市板橋區中山路一段21-1號","121.459791666667","25.0087716666667","6500100","板橋區"
"220106","075-UY","2017/06/29 20:09:39","新北市板橋區民治街52巷11號","121.478911666667","25.032745","6500100","板橋區"
"247020","893-R6","2017/06/29 20:09:35","新北市蘆洲區民權路106巷5弄22號","121.47427","25.0892633333333","6501400","蘆洲區"
"247010","546-UM","2017/06/29 20:09:41","新北市蘆洲區集賢路406號","121.479936666667","25.0819133333333","6501400","蘆洲區"
"247018","500-BY","2017/06/29 20:09:41","新北市蘆洲區民族路346號","121.476498333333","25.090735","6501400","蘆洲區"
"247008","339-TH","2017/06/29 20:09:37","新北市蘆洲區集賢路300號","121.481633333333","25.0850433333333","6501400","蘆洲區"
"247024","337-TH","2017/06/29 20:09:33","新北市蘆洲區長樂路56巷8號","121.463536666667","25.086465","6501400","蘆洲區"
"247002","336-TH","2017/06/29 20:09:29","新北市蘆洲區長榮路319號","121.45918","25.0864783333333","6501400","蘆洲區"
"247014","057-VK","2017/06/29 20:09:02","新北市蘆洲區中山二路212號","121.47008","25.0800633333333","6501400","蘆洲區"
"247004","056-VK","2017/06/29 20:09:27","新北市蘆洲區永安南路二段328巷17弄15號","121.455846666667","25.0837316666667","6501400","蘆洲區"
"247006","053-VK","2017/06/29 20:08:52","新北市蘆洲區中山一路417號","121.468548333333","25.07661","6501400","蘆洲區"
"247012","007-UY","2017/06/29 20:09:42","新北市蘆洲區中興街15巷36號","121.479915","25.08824","6501400","蘆洲區"
"247022","002-UY","2017/06/29 20:09:39","新北市蘆洲區三民路175號","121.470906666667","25.0871","6501400","蘆洲區"
"247016","001-UY","2017/06/29 20:09:34","新北市蘆洲區光華路162巷8弄2號","121.465291666667","25.0825183333333","6501400","蘆洲區"
"226004","312-R5","2017/06/29 20:09:38","新北市平溪區靜安路二段540巷13號","121.746678333333","25.02677","6502400","平溪區"
"224011","420-VK","2017/06/29 20:09:37","新北市瑞芳區石崁巷49號","121.83766","25.1095083333333","6501200","瑞芳區"
"227004","642-TC","2017/06/29 20:09:29","新北市雙溪區魚行里新店58號","121.87017","25.0321533333333","6502500","雙溪區"
"208003","665-BX","2017/06/29 20:09:31","新北市金山區海興路87號","121.633136666667","25.2407433333333","6502700","金山區"
"251009","008-UM","2017/06/29 20:09:43","新北市淡水區英專路26號","121.445663333333","25.169925","6501000","淡水區"
"251004","009-UM","2017/06/29 20:04:17","新北市淡水區民族路166號","121.462288333333","25.1335566666667","6501000","淡水區"
"251001","011-UM","2017/06/29 20:09:39","新北市淡水區淡金路二段599號","121.446","25.1924766666667","6501000","淡水區"
"251008","181-VK","2017/06/29 20:09:31","新北市淡水區淡海路72巷30弄18號","121.425291666667","25.182555","6501000","淡水區"
"251014","182-VK","2017/06/29 20:09:26","新北市淡水區石頭厝1號","121.458751666667","25.2355516666667","6501000","淡水區"
"251010","413-VK","2017/06/29 20:09:28","新北市淡水區新市二路二段96號","121.427785","25.195395","6501000","淡水區"
"251012","441-VK","2017/06/29 20:09:25","新北市淡水區下圭柔山56巷4號","121.446791666667","25.20514","6501000","淡水區"
"251016","442-VK","2017/06/29 20:09:32","新北市淡水區番子田18-1號","121.456936666667","25.2293583333333","6501000","淡水區"
"251006","561-UM","2017/06/29 20:09:38","新北市淡水區北新路141巷29號","121.448125","25.1795283333333","6501000","淡水區"
"251011","650-BX","2017/06/29 20:09:36","新北市淡水區崁頂78-5號","121.42929","25.207355","6501000","淡水區"
"251002","672-BX","2017/06/29 20:09:31","新北市淡水區中正路334號","121.435786666667","25.1731283333333","6501000","淡水區"
"251003","766-UM","2017/06/29 20:09:30","新北市淡水區中山北路一段271號","121.444621666667","25.1812083333333","6501000","淡水區"
"207003","550-UM","2017/06/29 20:09:28","新北市萬里區大鵬里萬里加投182號","121.642901666667","25.2157083333333","6502800","萬里區"
"207004","225-TW","2017/06/29 20:09:27","新北市萬里區北基里愛三街11號","121.681815","25.176665","6502800","萬里區"
"252002","178-VK","2017/06/29 20:09:36","新北市三芝區三民街39巷5號","121.505358333333","25.257715","6502100","三芝區"
"252001","702-TV","2017/06/29 20:09:25","新北市三芝區公正街66號","121.499885","25.257545","6502100","三芝區"
"208002","170-UY","2017/06/29 20:09:35","新北市金山區忠孝一路19巷28號","121.635356666667","25.2171966666667","6502700","金山區"
"237001","361-BY","2017/06/29 15:27:57","新北市三峽區中山路459巷137號","121.349356666667","24.93355","6500900","三峽區"
"237004","078-UY","2017/06/29 20:09:40","新北市三峽區大同路217號","121.370173333333","24.92721","6500900","三峽區"
"237007","153-BY","2017/06/29 20:09:35","新北市三峽區二鬮路136巷24弄1號","121.356035","24.9099383333333","6500900","三峽區"
"237009","210-TH","2017/06/29 20:09:32","新北市三峽區民族街8號","121.369013333333","24.93134","6500900","三峽區"
"237012","275-BY","2017/06/29 20:09:38","新北市三峽區中華路100號","121.37108","24.9279833333333","6500900","三峽區"
"237008","302-VK","2017/06/29 20:09:35","新北市三峽區中正路一段292巷23號","121.370496666667","24.92595","6500900","三峽區"
"237006","5529-G3","2017/06/29 20:09:40","新北市三峽區中正路二段299巷37號","121.367173333333","24.9113366666667","6500900","三峽區"
"237016","649-BX","2017/06/29 20:09:43","新北市三峽區介壽路三段22號","121.395838333333","24.9362766666667","6500900","三峽區"
"237005","AKY-6261","2017/06/29 20:09:41","新北市三峽區三樹路88號","121.378158333333","24.9386516666667","6500900","三峽區"
"236071","105-UM","2017/06/29 20:09:36","新北市土城區承天路1號","121.435836666667","24.9662816666667","6501300","土城區"
"236042","107-UM","2017/06/29 20:09:40","新北市土城區學府路一段164巷1號","121.453955","24.9868133333333","6501300","土城區"
"236078","166-UM","2017/06/29 20:09:29","新北市土城區民族街20號","121.419046666667","24.96299","6501300","土城區"
"236030","253-BX","2017/06/29 20:09:31","新北市土城區中央路一段118巷1弄19號","121.445613333333","24.98752","6501300","土城區"
"236026","269-VK","2017/06/29 20:09:28","新北市土城區明德路二段213號","121.446196666667","24.9837416666667","6501300","土城區"
"236014","270-VK","2017/06/29 20:09:36","新北市土城區廣興街19號","121.455986666667","24.99163","6501300","土城區"
"236037","271-VK","2017/06/29 20:09:36","新北市土城區延吉街296巷5號","121.464396666667","24.9846883333333","6501300","土城區"
"236021","401-BY","2017/06/29 20:09:34","新北市土城區延吉街46號","121.471778333333","24.9870833333333","6501300","土城區"
"236058","912-UM","2017/06/29 20:09:26","新北市土城區中央路一段283號","121.444648333333","24.9845283333333","6501300","土城區"
"236051","913-UM","2017/06/29 20:09:35","新北市土城區金城路三段198號","121.468683333333","24.98817","6501300","土城區"
"236062","915-UM","2017/06/29 20:09:28","新北市土城區延平街33巷16號","121.467316666667","24.9916233333333","6501300","土城區"
"236053","AAC-216","2017/06/29 20:09:26","新北市土城區學府路一段72號","121.456681666667","24.988225","6501300","土城區"
"242021","AAC-296","2017/06/29 20:09:44","新北市新莊區建中街48巷10弄10號","121.448463333333","25.0384033333333","6500500","新莊區"
"242029","986-R7","2017/06/29 20:09:38","新北市新莊區中原路319-1號","121.446603333333","25.054275","6500500","新莊區"
"242048","751-BX","2017/06/29 20:09:44","新北市新莊區四維路152巷23號","121.422116666667","25.022575","6500500","新莊區"
"242061","705-TV","2017/06/29 20:09:41","新北市新莊區瓊林路59-28號","121.443901666667","25.0268566666667","6500500","新莊區"
"242025","615-BX","2017/06/29 20:09:34","新北市新莊區五工三路74號","121.459131666667","25.065055","6500500","新莊區"
"242023","613-BX","2017/06/29 20:09:37","新北市新莊區化成路540-4號","121.466235","25.0534666666667","6500500","新莊區"
"242027","612-BX","2017/06/29 20:09:33","新北市新莊區中平路256號","121.444813333333","25.049495","6500500","新莊區"
"242036","566-BX","2017/06/29 20:09:34","新北市新莊區建安街9巷3-1號","121.429008333333","25.0266933333333","6500500","新莊區"
"242042","497-BY","2017/06/29 20:09:26","新北市新莊區新北大道七段245號","121.412913333333","25.029565","6500500","新莊區"
"242004","442-UM","2017/06/29 20:09:27","新北市新莊區化成路231號","121.465798333333","25.0524633333333","6500500","新莊區"
"242051","440-UM","2017/06/29 20:09:29","新北市新莊區民安西路168號","121.425998333333","25.0160616666667","6500500","新莊區"
"242031","415-TV","2017/06/29 20:09:35","新北市新莊區公園一路38號","121.443351666667","25.0355","6500500","新莊區"
"242002","413-TV","2017/06/29 20:09:42","新北市新莊區中正路33號","121.463985","25.0409533333333","6500500","新莊區"
"242039","400-BY","2017/06/29 20:09:39","新北市新莊區龍安路497號","121.42594","25.0180116666667","6500500","新莊區"
"242058","353-BY","2017/06/29 20:09:28","新北市新莊區龍安路334號","121.423218333333","25.0189833333333","6500500","新莊區"
"242011","132-UY","2017/06/29 20:09:31","新北市新莊區中信街59號","121.449365","25.0507316666667","6500500","新莊區"
"242034","133-UY","2017/06/29 20:09:39","新北市新莊區中正路326號","121.446133333333","25.0347633333333","6500500","新莊區"
"242044","172-VK","2017/06/29 20:09:39","新北市新莊區萬壽路一段21巷17弄14號","121.411076666667","25.0200333333333","6500500","新莊區"
"242007","173-VK","2017/06/29 20:09:44","新北市新莊區福壽街164巷19號","121.459221666667","25.0528933333333","6500500","新莊區"
"242013","175-VK","2017/06/29 20:09:27","新北市新莊區幸福路678巷2號","121.450703333333","25.0496783333333","6500500","新莊區"
"242056","176-VK","2017/06/29 20:09:23","新北市新莊區新莊路649巷15弄1號","121.444956666667","25.031665","6500500","新莊區"
"242019","346-TH","2017/06/29 20:09:32","新北市新莊區思源路133-1號","121.45953","25.0437283333333","6500500","新莊區"
"242017","348-TH","2017/06/29 20:09:28","新北市新莊區中安街28號","121.453018333333","25.046035","6500500","新莊區"
"242053","349-TH","2017/06/29 20:09:29","新北市新莊區西盛街384號","121.427918333333","25.0130183333333","6500500","新莊區"
"242015","350-TH","2017/06/29 20:09:29","新北市新莊區中平路26巷26號","121.445903333333","25.0433066666667","6500500","新莊區"
"238023","601-UM","2017/06/29 20:09:35","新北市樹林區大安路579號","121.411836666667","24.98358","6500700","樹林區"
"238021","311-TH","2017/06/29 15:41:21","新北市樹林區柑園街一段68號","121.402155","24.960255","6500700","樹林區"
"238025","303-VK","2017/06/29 20:04:25","新北市樹林區中山路三段214號","121.380026666667","24.9678983333333","6500700","樹林區"
"239006","891-R6","2017/06/29 20:09:42","新北市鶯歌區文化路33號","121.3598","24.9569433333333","6500800","鶯歌區"
"239001","417-VK","2017/06/29 20:09:39","新北市鶯歌區二甲路12-2號","121.345556666667","24.9348033333333","6500800","鶯歌區"
"221008","489-VK","2017/06/29 20:09:31","新北市汐止區忠三街9巷8-1號","121.625018333333","25.0791566666667","6501100","汐止區"
"221036","130-UY","2017/06/29 20:09:31","新北市汐止區新台五路二段39號","121.66315","25.06632","6501100","汐止區"
"221015","131-UY","2017/06/29 20:09:41","新北市汐止區建成路24號","121.664586666667","25.07268","6501100","汐止區"
"221010","269-BY","2017/06/29 20:09:31","新北市汐止區八連路一段111-1號","121.64418","25.080055","6501100","汐止區"
"221010","276-VK","2017/06/29 13:17:07","新北市汐止區汐萬路一段256巷3號","121.653438333333","25.07459","6501100","汐止區"
"221031","277-VK","2017/06/29 00:28:13","新北市汐止區汐萬路一段256巷3號","121.652588333333","25.0745916666667","6501100","汐止區"
"221012","278-VK","2017/06/29 20:09:31","新北市汐止區汐平路二段15號","121.695853333333","25.064285","6501100","汐止區"
"221023","279-VK","2017/06/29 19:35:25","新北市汐止區中興路282號","121.62855","25.0693183333333","6501100","汐止區"
"221032","280-BY","2017/06/29 20:09:28","新北市汐止區弘道街27號","121.617476666667","25.0487233333333","6501100","汐止區"
"221027","281-BY","2017/06/29 20:09:36","新北市汐止區中正路129號","121.660146666667","25.0693133333333","6501100","汐止區"
"221038","297-VK","2017/06/29 20:09:34","新北市汐止區忠孝東路431號","121.66593","25.0718983333333","6501100","汐止區"
"221029","298-VK","2017/06/29 20:09:33","新北市汐止區樟樹一路119巷8-6號","121.641278333333","25.0644816666667","6501100","汐止區"
"221021","299-VK","2017/06/29 19:59:17","新北市汐止區龍安路32號","121.654998333333","25.0639716666667","6501100","汐止區"
"221035","622-UM","2017/06/29 20:09:28","新北市汐止區長江街57巷14號","121.6561","25.0720033333333","6501100","汐止區"
"221025","623-UM","2017/06/29 20:09:37","新北市汐止區水源路一段262號","121.654036666667","25.0595183333333","6501100","汐止區"
"221033","647-BX","2017/06/29 20:09:31","新北市汐止區東勢街201巷104號","121.633521666667","25.0428983333333","6501100","汐止區"
"221002","707-TV","2017/06/29 20:09:41","新北市汐止區中興路27巷6弄7號","121.63477","25.0607683333333","6501100","汐止區"
"221002","753-BX","2017/06/29 20:09:22","新北市汐止區茄苳路319號","121.6737","25.06655","6501100","汐止區"
"220079","145-BY","2017/06/29 20:09:24","新北市板橋區中正路183巷29號","121.454923333333","25.015895","6500100","板橋區"
"220082","610-BX","2017/06/29 20:09:40","新北市板橋區篤行路二段126-3號","121.431203333333","24.9907166666667","6500100","板橋區"
"220101","245-BX","2017/06/29 20:09:39","新北市板橋區莒光路158-2號","121.473896666667","25.0238416666667","6500100","板橋區"
"220069","258-TC","2017/06/29 20:09:44","新北市板橋區大明街15巷9號","121.458661666667","25.0022416666667","6500100","板橋區"
"220072","277-BY","2017/06/29 20:09:28","新北市板橋區金門街106號","121.43302","24.9922033333333","6500100","板橋區"
"220071","283-VK","2017/06/29 20:09:37","新北市板橋區和平路174巷12號","121.464081666667","24.99506","6500100","板橋區"
"220053","285-VK","2017/06/29 20:09:36","新北市板橋區懷仁街92-4號","121.47751","25.018125","6500100","板橋區"
"220083","286-VK","2017/06/29 20:09:44","新北市板橋區僑中二街12巷8號","121.446523333333","25.0106233333333","6500100","板橋區"
"220081","287-VK","2017/06/29 20:09:32","新北市板橋區大觀路一段28巷88號","121.44993","25.0110283333333","6500100","板橋區"
"220090","288-VK","2017/06/29 20:09:29","新北市板橋區幸福路32巷2弄31號","121.460901666667","25.021855","6500100","板橋區"
"220061","293-UM","2017/06/29 20:09:30","新北市板橋區縣民大道二段200巷24號","121.470036666667","25.0173283333333","6500100","板橋區"
"220084","296-UM","2017/06/29 20:09:39","新北市板橋區滿平街2巷9號","121.425825","24.98983","6500100","板橋區"
"220075","297-UM","2017/06/29 20:09:27","新北市板橋區金華街10巷95號","121.458618333333","25.020495","6500100","板橋區"
"220062","305-R5","2017/06/29 20:09:03","新北市板橋區中山路二段613號","121.48555","25.0225083333333","6500100","板橋區"
"220092","307-R5","2017/06/29 20:09:25","新北市板橋區文化路一段137號","121.462171666667","25.0153883333333","6500100","板橋區"
"220098","317-R6","2017/06/29 20:09:23","新北市板橋區新海路72巷23號","121.462298333333","25.022535","6500100","板橋區"
"220089","487-VK","2017/06/29 20:09:28","新北市板橋區新海路385巷22弄11號","121.457515","25.0261983333333","6500100","板橋區"
"220088","491-VK","2017/06/29 20:09:05","新北市板橋區民治街106號","121.478408333333","25.0314266666667","6500100","板橋區"
"220035","560-BX","2017/06/29 20:09:29","新北市板橋區新生街50號","121.456808333333","25.0210733333333","6500100","板橋區"
"220103","561-BX","2017/06/29 20:09:32","新北市板橋區自由路26巷22號","121.466446666667","25.022455","6500100","板橋區"
"220091","637-BX","2017/06/29 20:09:24","新北市板橋區文聖街78號","121.477353333333","25.030125","6500100","板橋區"
"220057","686-BX","2017/06/29 20:09:44","新北市板橋區南雅南路二段43號","121.451345","24.9943716666667","6500100","板橋區"
"220093","689-BX","2017/06/29 20:09:37","新北市板橋區長江路二段192號","121.46731","25.03199","6500100","板橋區"
"220054","741-BX","2017/06/29 20:09:45","新北市板橋區忠孝路忠義巷9弄1-2號","121.46518","25.0045983333333","6500100","板橋區"
"220073","806-UM","2017/06/29 20:09:42","新北市板橋區南雅西路二段164號","121.451775","25.0135966666667","6500100","板橋區"
"220055","827-TW","2017/06/29 20:09:25","新北市板橋區仁愛路64號","121.459876666667","24.9993683333333","6500100","板橋區"
"220067","829-TW","2017/06/29 20:09:37","新北市板橋區中山路一段279號","121.46957","25.0137433333333","6500100","板橋區"
"220102","830-TW","2017/06/29 20:09:29","新北市板橋區民治街137號","121.477638333333","25.0306916666667","6500100","板橋區"
"220096","831-TW","2017/06/29 20:09:26","新北市板橋區文化路一段368號","121.469576666667","25.0236083333333","6500100","板橋區"
"220074","895-R6","2017/06/29 20:09:29","新北市板橋區民權路71號","121.461516666667","25.0117383333333","6500100","板橋區"
"220097","AAC-210","2017/06/29 20:09:27","新北市板橋區光正街16巷1號","121.462888333333","25.0172066666667","6500100","板橋區"
"220070","AAC-253","2017/06/29 20:09:39","新北市板橋區成都街43號","121.46125","25.0048816666667","6500100","板橋區"
