"lineid","car","time","location","longitude","latitude","cityid","cityname"
"234007","207-UY","2017/06/29 20:29:38","新北市永和區仁愛路306巷44號","121.502151666667","25.0091033333333","6500400","永和區"
"234081","298-R6","2017/06/29 20:29:22","新北市永和區國中路106號","121.524111666667","25.0064333333333","6500400","永和區"
"234038","336-UY","2017/06/29 20:29:29","新北市永和區民樂街31巷19弄7號","121.52829","25.00198","6500400","永和區"
"234064","337-UY","2017/06/29 20:29:32","新北市永和區中正路381號","121.517358333333","25.0038033333333","6500400","永和區"
"234086","338-UY","2017/06/29 20:29:28","新北市永和區光復街21號","121.516473333333","25.0173816666667","6500400","永和區"
"234054","553-UM","2017/06/29 20:29:35","新北市永和區環河東路一段82號","121.519631666667","25.0164783333333","6500400","永和區"
"234030","746-BX","2017/06/29 20:29:28","新北市永和區民族街81巷62號","121.520223333333","24.996565","6500400","永和區"
"234061","AAD-866","2017/06/29 20:29:30","新北市永和區得和路57號","121.51715","25.0001766666667","6500400","永和區"
"234042","862-TW","2017/06/29 20:29:38","新北市永和區安樂路248號","121.514666666667","25.003275","6500400","永和區"
"234050","863-TW","2017/06/29 20:29:40","新北市永和區環河西路二段21號","121.507728333333","25.0159283333333","6500400","永和區"
"234011","9373-KE","2017/06/29 20:29:28","新北市永和區仁愛路352巷130號","121.499983333333","25.00868","6500400","永和區"
"249005","172-UM","2017/06/29 20:29:35","新北市八里區下罟子1-16號","121.389811666667","25.1420716666667","6502300","八里區"
"249001","173-UM","2017/06/29 20:29:42","新北市八里區中山路三段106號","121.39154","25.142555","6502300","八里區"
"249004","303-UY","2017/06/29 20:29:34","新北市八里區中山路一段129巷19-1號","121.413946666667","25.1586216666667","6502300","八里區"
"249002","305-UY","2017/06/29 20:29:42","新北市八里區龍米路二段125巷23號","121.445836666667","25.145535","6502300","八里區"
"249003","593-UM","2017/06/29 20:29:31","新北市八里區華峰一街43號","121.398788333333","25.14634","6502300","八里區"
"248002","678-BX","2017/06/29 20:29:34","新北市五股區成泰路三段33號","121.441983333333","25.0884716666667","6501500","五股區"
"234023","9380-KE","2017/06/29 20:29:26","新北市永和區博愛街32巷17-1號","121.518875","25.0151633333333","6500400","永和區"
"234074","AAC-211","2017/06/29 20:29:40","新北市永和區豫溪街213號","121.524118333333","25.0093983333333","6500400","永和區"
"234067","AAC-212","2017/06/29 20:29:36","新北市永和區保平路266號","121.508701666667","25.0050883333333","6500400","永和區"
"234003","AAC-295","2017/06/29 20:27:55","新北市永和區中正路620號","121.516946666667","25.0078883333333","6500400","永和區"
"243013","AAD-798","2017/06/29 20:29:42","新北市泰山區貴子路9巷8號","121.42556","25.042365","6501600","泰山區"
"243009","297-R6","2017/06/29 20:29:27","新北市泰山區忠孝街40巷1號","121.428535","25.0653633333333","6501600","泰山區"
"243015","380-SR","2017/06/29 20:29:32","新北市泰山區福興三街19號","121.434471666667","25.0575233333333","6501600","泰山區"
"243014","421-VK","2017/06/29 20:29:26","新北市泰山區泰林路二段2-9號","121.419838333333","25.0650216666667","6501600","泰山區"
"243010","548-UM","2017/06/29 20:29:41","新北市泰山區新生路31巷7號","121.42766","25.0458233333333","6501600","泰山區"
"243011","549-UM","2017/06/29 20:29:43","新北市泰山區明志路三段42巷18號","121.424131666667","25.0423433333333","6501600","泰山區"
"243012","646-TV","2017/06/29 20:29:41","新北市泰山區忠孝街19巷3弄1號","121.427493333333","25.0658833333333","6501600","泰山區"
"243016","680-BX","2017/06/29 20:29:37","新北市泰山區明志路二段191號","121.42764","25.049345","6501600","泰山區"
"222003","436-BY","2017/06/29 20:29:33","新北市深坑區深坑街37號","121.615571666667","25.0021116666667","6501800","深坑區"
"222002","659-BX","2017/06/29 20:29:28","新北市深坑區萬福路16巷16號","121.606095","25.0074783333333","6501800","深坑區"
"222001","696-SL","2017/06/29 20:29:29","新北市深坑區北深路三段329號","121.59719","25.00498","6501800","深坑區"
"231041","002-UM","2017/06/29 20:29:45","新北市新店區中正路501-2號","121.533656666667","24.9837266666667","6500600","新店區"
"231056","0293-UT","2017/06/29 20:29:31","新北市新店區建安街45號","121.53858","24.9757616666667","6500600","新店區"
"231059","046-UY","2017/06/29 20:29:34","新北市新店區安豐路46號","121.500116666667","24.9549533333333","6500600","新店區"
"231051","107-UY","2017/06/29 20:29:37","新北市新店區中央七街113號","121.525601666667","24.9777233333333","6500600","新店區"
"231047","108-UY","2017/06/29 20:29:26","新北市新店區寶慶街58巷21-1號","121.542055","24.9873383333333","6500600","新店區"
"231052","187-VK","2017/06/29 20:29:33","新北市新店區松林路36號","121.54619","24.9102433333333","6500600","新店區"
"231007","189-VK","2017/06/29 12:08:33","新北市新店區安華路28-1號","121.519586666667","24.961205","6500600","新店區"
"231057","256-BX","2017/06/29 20:29:27","新北市新店區花園五路二段1號","121.553456666667","24.9341266666667","6500600","新店區"
"231063","268-BY","2017/06/29 20:29:44","新北市新店區玫瑰路4-1號","121.493586666667","24.9513933333333","6500600","新店區"
"231050","AAD-862","2017/06/29 20:29:25","新北市新店區博愛街8巷2號","121.541165","24.9733816666667","6500600","新店區"
"231060","355-BY","2017/06/29 20:29:43","新北市新店區錦秀路21號","121.479336666667","24.9443683333333","6500600","新店區"
"231058","3712-VJ","2017/06/29 20:29:29","新北市新店區安和路三段2-2號","121.51798","24.9799333333333","6500600","新店區"
"231065","512-UM","2017/06/29 20:29:24","新北市新店區安祥路102巷42弄59號","121.486006666667","24.9632666666667","6500600","新店區"
"231054","513-UM","2017/06/29 20:29:41","新北市新店區檳榔路109號","121.544286666667","24.9618083333333","6500600","新店區"
"231064","515-UM","2017/06/29 20:29:38","新北市新店區永安街74巷17號","121.519191666667","24.9859783333333","6500600","新店區"
"231042","616-UM","2017/06/29 20:29:29","新北市新店區寶橋路210號","121.550941666667","24.978515","6500600","新店區"
"231045","617-UM","2017/06/29 20:29:25","新北市新店區新坡一街29號","121.54973","24.9633","6500600","新店區"
"231061","618-UM","2017/06/29 20:29:27","新北市新店區新和街34號","121.519055","24.9847216666667","6500600","新店區"
"231040","619-UM","2017/06/29 20:29:44","新北市新店區民族路192號","121.5362","24.9753983333333","6500600","新店區"
"231068","718-UY","2017/06/29 20:29:40","新北市新店區寶元路一段61號","121.542203333333","24.9859783333333","6500600","新店區"
"231049","719-UM","2017/06/29 20:29:28","新北市新店區華潭街31號","121.529973333333","24.9545583333333","6500600","新店區"
"231062","720-UM","2017/06/29 20:29:39","新北市新店區安泰路60巷55-7號","121.484056666667","24.94532","6500600","新店區"
"231044","897-TW","2017/06/29 20:29:40","新北市新店區民族路53號","121.54016","24.9785633333333","6500600","新店區"
"231043","899-TW","2017/06/29 20:29:40","新北市新店區民族路16號","121.541261666667","24.9788166666667","6500600","新店區"
"231066","AKT-0513","2017/06/29 20:29:33","新北市新店區安興路112號","121.514753333333","24.9775466666667","6500600","新店區"
"241011","013-R5","2017/06/29 20:29:34","新北市三重區龍門路85號","121.497073333333","25.0725783333333","6500200","三重區"
"241028","022-UY","2017/06/29 20:29:33","新北市三重區光興街89號","121.497468333333","25.05998","6500200","三重區"
"241008","059-VK","2017/06/29 20:29:37","新北市三重區下竹圍街91號","121.481146666667","25.07485","6500200","三重區"
"241009","060-VK","2017/06/29 20:29:37","新北市三重區永福街46-1號","121.482091666667","25.0782133333333","6500200","三重區"
"241015","062-VK","2017/06/29 20:29:31","新北市三重區文化北路41號","121.498951666667","25.065225","6500200","三重區"
"241017","063-VK","2017/06/29 20:29:25","新北市三重區自強路一段201號","121.491661666667","25.06841","6500200","三重區"
"241024","065-VK","2017/06/29 20:29:24","新北市三重區忠孝路三段15巷57號","121.479545","25.0683516666667","6500200","三重區"
"241026","066-VK","2017/06/29 20:29:27","新北市三重區福德南路56號","121.503296666667","25.0619583333333","6500200","三重區"
"241002","090-VK","2017/06/29 20:29:42","新北市三重區五華街21巷37號","121.496375","25.0815333333333","6500200","三重區"
"241003","091-VK","2017/06/29 20:29:26","新北市三重區富華街133號","121.492738333333","25.0846233333333","6500200","三重區"
"241031","156-TC","2017/06/29 20:29:29","新北市三重區過圳街5號","121.489251666667","25.0589533333333","6500200","三重區"
"241005","262-UM","2017/06/29 20:29:43","新北市三重區碧華街297號","121.49057","25.0839766666667","6500200","三重區"
"241016","266-UM","2017/06/29 20:29:29","新北市三重區正義北路105號","121.496908333333","25.0655283333333","6500200","三重區"
"241022","267-UM","2017/06/29 20:29:29","新北市三重區重陽路二段19巷6號","121.48751","25.0625033333333","6500200","三重區"
"241018","268-UM","2017/06/29 20:29:43","新北市三重區正義北路220號","121.496148333333","25.0675633333333","6500200","三重區"
"241032","269-UM","2017/06/29 20:29:33","新北市三重區重陽路一段120巷48號","121.485073333333","25.060145","6500200","三重區"
"241013","270-UM","2017/06/29 20:29:26","新北市三重區溪尾街5巷30號","121.492685","25.0746666666667","6500200","三重區"
"241025","271-UM","2017/06/29 20:29:28","新北市三重區頂崁街210巷23弄1號","121.475825","25.068185","6500200","三重區"
"241007","398-BY","2017/06/29 20:29:37","新北市三重區自強路四段39號","121.489321666667","25.077165","6500200","三重區"
"241023","412-TH","2017/06/29 20:29:42","新北市三重區自由街17巷2號","121.479811666667","25.0666316666667","6500200","三重區"
"241020","413-TH","2017/06/29 20:29:28","新北市三重區明德街29號","121.492588333333","25.0723633333333","6500200","三重區"
"241004","475-VK","2017/06/29 20:29:43","新北市三重區溪尾街174號","121.48863","25.0805366666667","6500200","三重區"
"241019","478-VK","2017/06/29 20:29:34","新北市三重區重陽路四段81號","121.492561666667","25.07104","6500200","三重區"
"241030","480-VK","2017/06/29 20:29:27","新北市三重區成功路75號","121.4888","25.051225","6500200","三重區"
"241014","543-UM","2017/06/29 20:29:39","新北市三重區長興街88號","121.501568333333","25.06912","6500200","三重區"
"241001","547-UM","2017/06/29 20:29:35","新北市三重區自強路四段53號","121.49017","25.0779866666667","6500200","三重區"
"241006","AAD-863","2017/06/29 20:29:31","新北市三重區車路頭街135-1號","121.484243333333","25.0761683333333","6500200","三重區"
"241035","743-BX","2017/06/29 20:29:32","新北市三重區正義北路62號","121.49727","25.064","6500200","三重區"
"241012","941-UM","2017/06/29 20:29:30","新北市三重區龍濱路172號","121.501366666667","25.072805","6500200","三重區"
"241029","942-UM","2017/06/29 20:29:36","新北市三重區集美街225號","121.492033333333","25.0550216666667","6500200","三重區"
"241033","AAC-255","2017/06/29 20:29:37","新北市三重區五谷王北街80巷5號","121.47584","25.05316","6500200","三重區"
"235066","003-UY","2017/06/29 20:29:41","新北市中和區保平路362巷13號","121.505763333333","25.00389","6500300","中和區"
"235039","097-UM","2017/06/29 20:29:31","新北市中和區自強路52號","121.520103333333","24.9947483333333","6500300","中和區"
"235072","301-VK","2017/06/29 20:29:41","新北市五股區凌雲路三段24巷21-24號","121.433765","25.1075033333333","6500300","中和區"
"235050","4979-A6","2017/06/29 20:29:21","新北市中和區景新街117號","121.50569","24.9975883333333","6500300","中和區"
"235069","4980-A6","2017/06/29 20:29:36","新北市中和區連城路347巷16弄3號","121.48836","24.9948433333333","6500300","中和區"
"235042","551-UM","2017/06/29 20:29:25","新北市新店區安民街121巷12號","121.51543","24.96924","6500300","中和區"
"235041","802-TS","2017/06/29 20:29:37","新北市中和區安平路38號","121.509955","24.9950083333333","6500300","中和區"
"235037","AAC-213","2017/06/29 20:29:35","新北市中和區自立路46號","121.522946666667","24.9924016666667","6500300","中和區"
"235059","AAC-215","2017/06/29 20:29:34","新北市中和區員山路32號","121.481158333333","24.98778","6500300","中和區"
"247020","893-R6","2017/06/29 20:29:34","新北市蘆洲區民族路424號","121.473998333333","25.0917966666667","6501400","蘆洲區"
"247010","546-UM","2017/06/29 20:29:41","新北市蘆洲區信義路220號","121.47915","25.0852516666667","6501400","蘆洲區"
"247018","500-BY","2017/06/29 20:29:41","新北市蘆洲區民族路372號","121.47571","25.091055","6501400","蘆洲區"
"247008","339-TH","2017/06/29 20:29:37","新北市蘆洲區重陽街112號","121.482615","25.085425","6501400","蘆洲區"
"247024","337-TH","2017/06/29 20:29:33","新北市蘆洲區中正路185巷78弄19號","121.465678333333","25.0848933333333","6501400","蘆洲區"
"247002","336-TH","2017/06/29 20:29:45","新北市蘆洲區環堤大道122號","121.455455","25.08725","6501400","蘆洲區"
"247014","057-VK","2017/06/29 20:29:42","新北市蘆洲區成功路119號","121.47229","25.0820183333333","6501400","蘆洲區"
"247004","056-VK","2017/06/29 20:29:27","新北市蘆洲區長安街222號","121.458185","25.084985","6501400","蘆洲區"
"247006","053-VK","2017/06/29 20:28:52","新北市蘆洲區光華路175巷46號","121.46533","25.081195","6501400","蘆洲區"
"247012","007-UY","2017/06/29 20:29:42","新北市蘆洲區民族路236巷38弄1號","121.48136","25.08876","6501400","蘆洲區"
"247022","002-UY","2017/06/29 20:29:42","新北市蘆洲區中正路263巷2號","121.467278333333","25.0876316666667","6501400","蘆洲區"
"247016","001-UY","2017/06/29 20:29:34","新北市蘆洲區得勝街183號","121.471005","25.0825483333333","6501400","蘆洲區"
"224011","420-VK","2017/06/29 20:17:33","新北市瑞芳區明燈路二段66號","121.809478333333","25.1074533333333","6501200","瑞芳區"
"251001","011-UM","2017/06/29 20:29:39","新北市淡水區中山北路二段10號","121.444505","25.1833666666667","6501000","淡水區"
"251008","181-VK","2017/06/29 20:29:41","新北市淡水區淡海路180巷12-3號","121.42042","25.18466","6501000","淡水區"
"251014","182-VK","2017/06/29 20:29:26","新北市淡水區石頭厝8-4號","121.460325","25.2377933333333","6501000","淡水區"
"251010","413-VK","2017/06/29 20:29:28","新北市淡水區沙崙路181巷15號","121.423976666667","25.1843416666667","6501000","淡水區"
"251012","441-VK","2017/06/29 20:29:44","新北市淡水區頂田寮路25號","121.455018333333","25.2164616666667","6501000","淡水區"
"251016","442-VK","2017/06/29 20:29:32","新北市淡水區後洲子8-2號","121.449505","25.2240166666667","6501000","淡水區"
"251006","561-UM","2017/06/29 20:29:39","新北市淡水區商工路302號","121.461848333333","25.1861166666667","6501000","淡水區"
"251002","672-BX","2017/06/29 20:29:31","新北市淡水區中正路65號","121.441198333333","25.1696166666667","6501000","淡水區"
"251003","766-UM","2017/06/29 20:29:29","新北市淡水區新民街53巷2號","121.438721666667","25.17605","6501000","淡水區"
"207004","225-TW","2017/06/29 20:29:27","新北市萬里區北基里忠三街18號","121.684806666667","25.1756416666667","6502800","萬里區"
"252002","178-VK","2017/06/29 20:29:36","新北市三芝區中正路一段68號","121.503751666667","25.2577566666667","6502100","三芝區"
"252001","702-TV","2017/06/29 20:29:25","新北市三芝區中山路一段36號","121.500825","25.2575466666667","6502100","三芝區"
"237001","361-BY","2017/06/29 15:27:57","新北市三峽區中山路459巷137號","121.349356666667","24.93355","6500900","三峽區"
"236071","105-UM","2017/06/29 20:29:36","新北市土城區福安街70巷17號","121.417941666667","24.965185","6501300","土城區"
"236014","270-VK","2017/06/29 20:29:36","新北市土城區廣明街66號","121.455068333333","24.99368","6501300","土城區"
"236021","401-BY","2017/06/29 20:29:33","新北市土城區金城路三段206巷1號","121.471531666667","24.9896783333333","6501300","土城區"
"236058","912-UM","2017/06/29 20:29:26","新北市土城區大安路89號","121.433083333333","24.9676233333333","6501300","土城區"
"236051","913-UM","2017/06/29 20:29:35","新北市土城區自強街37號","121.433143333333","24.973545","6501300","土城區"
"236062","915-UM","2017/06/29 20:29:35","新北市土城區立德路135巷5弄9號","121.464575","24.9872583333333","6501300","土城區"
"242021","AAC-296","2017/06/29 20:29:24","新北市新莊區公園路12號","121.44781","25.0393016666667","6500500","新莊區"
"242029","986-R7","2017/06/29 20:29:38","新北市新莊區中華路二段147號","121.452911666667","25.0512966666667","6500500","新莊區"
"242048","751-BX","2017/06/29 20:29:30","新北市新莊區龍安路267號","121.4202","25.0199316666667","6500500","新莊區"
"242061","705-TV","2017/06/29 20:29:41","新北市新莊區民安東路132號","121.430993333333","25.0204383333333","6500500","新莊區"
"242025","615-BX","2017/06/29 20:29:31","新北市新莊區五工三路62巷13號","121.459988333333","25.0648916666667","6500500","新莊區"
"242023","613-BX","2017/06/29 20:29:42","新北市新莊區化成路896號","121.464568333333","25.0616516666667","6500500","新莊區"
"242027","612-BX","2017/06/29 20:29:33","新北市新莊區思源路307號","121.460015","25.0489233333333","6500500","新莊區"
"242036","566-BX","2017/06/29 20:29:34","新北市新莊區後港一路56巷12號","121.426526666667","25.02586","6500500","新莊區"
"242042","497-BY","2017/06/29 20:29:46","新北市新莊區中正路694巷3弄16號","121.418128333333","25.0285366666667","6500500","新莊區"
"242004","442-UM","2017/06/29 20:29:27","新北市新莊區化成路524巷3號","121.466741666667","25.0527083333333","6500500","新莊區"
"242046","441-UM","2017/06/29 20:29:40","新北市新莊區裕民街83-6號","121.418468333333","25.0236333333333","6500500","新莊區"
"242051","440-UM","2017/06/29 20:29:29","新北市新莊區民安西路189巷34號","121.427336666667","25.0152966666667","6500500","新莊區"
"242031","415-TV","2017/06/29 20:29:35","新北市新莊區三和路58-3號","121.437546666667","25.0399716666667","6500500","新莊區"
"242002","413-TV","2017/06/29 20:29:42","新北市新莊區新莊路2號","121.459286666667","25.0382316666667","6500500","新莊區"
"242039","400-BY","2017/06/29 20:29:39","新北市新莊區民安路294號","121.428078333333","25.02176","6500500","新莊區"
"242058","353-BY","2017/06/29 20:29:28","新北市新莊區四維路186巷1號","121.42199","25.0210383333333","6500500","新莊區"
"242011","132-UY","2017/06/29 20:29:44","新北市新莊區中義街47號","121.449476666667","25.0511316666667","6500500","新莊區"
"242034","133-UY","2017/06/29 20:29:39","新北市新莊區中正路285號","121.448881666667","25.0353916666667","6500500","新莊區"
"242044","172-VK","2017/06/29 20:29:39","新北市新莊區中正路新建巷16弄2號","121.413823333333","25.0223566666667","6500500","新莊區"
"242007","173-VK","2017/06/29 20:29:42","新北市新莊區思源路331號","121.459751666667","25.0496516666667","6500500","新莊區"
"242013","175-VK","2017/06/29 20:29:35","新北市新莊區中平路270巷7弄39號","121.446363333333","25.0509533333333","6500500","新莊區"
"242056","176-VK","2017/06/29 20:29:42","新北市新莊區新莊路649巷26弄33號","121.444436666667","25.0320383333333","6500500","新莊區"
"242019","346-TH","2017/06/29 20:29:32","新北市新莊區民樂街89號","121.45789","25.04346","6500500","新莊區"
"242017","348-TH","2017/06/29 20:29:28","新北市新莊區中港二街144號","121.44808","25.0455933333333","6500500","新莊區"
"242053","349-TH","2017/06/29 20:29:40","新北市新莊區民安西路229巷8弄1號","121.426723333333","25.0139883333333","6500500","新莊區"
"242015","350-TH","2017/06/29 20:29:29","新北市新莊區中平路46巷29號","121.445978333333","25.0438683333333","6500500","新莊區"
"238023","601-UM","2017/06/29 20:29:35","新北市樹林區育德街78-1號","121.387621666667","24.96825","6500700","樹林區"
"221008","489-VK","2017/06/29 20:29:31","新北市汐止區康寧街391號","121.629285","25.0678283333333","6501100","汐止區"
"221036","130-UY","2017/06/29 20:29:31","新北市汐止區仁愛路151巷42號","121.663426666667","25.0657283333333","6501100","汐止區"
"221015","131-UY","2017/06/29 20:29:41","新北市汐止區建成路142巷19弄7號","121.662063333333","25.0738466666667","6501100","汐止區"
"221010","269-BY","2017/06/29 20:29:33","新北市汐止區八連路二段494號","121.628975","25.1062016666667","6501100","汐止區"
"221010","276-VK","2017/06/29 13:17:07","新北市汐止區汐萬路一段256巷3號","121.653438333333","25.07459","6501100","汐止區"
"221031","277-VK","2017/06/29 00:28:13","新北市汐止區汐萬路一段256巷3號","121.652588333333","25.0745916666667","6501100","汐止區"
"221012","278-VK","2017/06/29 20:29:31","新北市汐止區大同路三段307號","121.67451","25.0744033333333","6501100","汐止區"
"221023","279-VK","2017/06/29 19:35:25","新北市汐止區中興路282號","121.62855","25.0693183333333","6501100","汐止區"
"221032","280-BY","2017/06/29 20:29:28","新北市汐止區弘道街53巷19弄2號","121.61873","25.0494433333333","6501100","汐止區"
"221027","281-BY","2017/06/29 20:29:36","新北市汐止區中正路227號","121.657948333333","25.0687416666667","6501100","汐止區"
"221038","297-VK","2017/06/29 20:29:34","新北市汐止區忠孝東路462巷40號","121.666295","25.0741633333333","6501100","汐止區"
"221029","298-VK","2017/06/29 20:29:33","新北市汐止區樟樹一路129巷34弄19號","121.640471666667","25.06519","6501100","汐止區"
"221021","299-VK","2017/06/29 19:59:17","新北市汐止區龍安路32號","121.654998333333","25.0639716666667","6501100","汐止區"
"221035","622-UM","2017/06/29 20:29:28","新北市汐止區長江街101-5號","121.658738333333","25.0731683333333","6501100","汐止區"
"221025","623-UM","2017/06/29 20:29:37","新北市汐止區水源路二段110巷1號","121.656635","25.0553133333333","6501100","汐止區"
"221033","647-BX","2017/06/29 20:29:31","新北市汐止區林森街73巷3號","121.623528333333","25.04091","6501100","汐止區"
"221002","707-TV","2017/06/29 20:29:41","新北市汐止區福德三路75號","121.636486666667","25.0692116666667","6501100","汐止區"
"221002","753-BX","2017/06/29 20:29:42","新北市汐止區茄苳路225巷11弄7號","121.671153333333","25.0695716666667","6501100","汐止區"
"220053","285-VK","2017/06/29 20:29:36","新北市樹林區水源街74號","121.425795","24.98061","6500100","板橋區"
"220083","286-VK","2017/06/29 20:29:24","新北市板橋區僑中二街102巷8號","121.445688333333","25.0083266666667","6500100","板橋區"
"220081","287-VK","2017/06/29 20:29:34","新北市板橋區僑中一街80巷7弄17號","121.44704","25.0128516666667","6500100","板橋區"
"220061","293-UM","2017/06/29 20:29:44","新北市板橋區文華街18號","121.457648333333","25.00063","6500100","板橋區"
"220092","307-R5","2017/06/29 20:29:26","新北市板橋區大觀路三段54號","121.433545","24.9955516666667","6500100","板橋區"
"220089","487-VK","2017/06/29 20:29:28","新北市板橋區四維路133號","121.46504","25.0251766666667","6500100","板橋區"
"220103","561-BX","2017/06/29 20:29:32","新北市板橋區漢生東路33巷38號","121.466041666667","25.0176683333333","6500100","板橋區"
"220055","827-TW","2017/06/29 20:29:25","新北市板橋區仁愛路23號","121.458923333333","24.9994383333333","6500100","板橋區"
"220102","830-TW","2017/06/29 20:29:37","新北市板橋區民生路二段161巷1號","121.469916666667","25.0199766666667","6500100","板橋區"
"220097","AAC-210","2017/06/29 20:29:43","新北市板橋區光正街45巷6弄19號","121.460958333333","25.0170716666667","6500100","板橋區"
"220070","AAC-253","2017/06/29 20:29:34","新北市板橋區四川路二段245巷14號","121.45104","24.99308","6500100","板橋區"
