"lineid","car","time","location","longitude","latitude","cityid","cityname"
"234081","298-R6","2017/06/29 20:39:42","新北市永和區福和路82-1號","121.522913333333","25.0080133333333","6500400","永和區"
"234064","337-UY","2017/06/29 20:39:32","新北市永和區中正路700號","121.516366666667","25.0098716666667","6500400","永和區"
"234030","746-BX","2017/06/29 20:39:28","新北市板橋區民生路一段87號","121.474661666667","25.013995","6500400","永和區"
"234061","AAD-866","2017/06/29 20:39:45","新北市永和區安樂路194巷14號","121.51631","25.0009283333333","6500400","永和區"
"234042","862-TW","2017/06/29 20:39:38","新北市永和區永和路二段103號","121.514925","25.011735","6500400","永和區"
"249001","173-UM","2017/06/29 20:39:42","新北市八里區中山路三段382號","121.368613333333","25.1361916666667","6502300","八里區"
"249004","303-UY","2017/06/29 20:39:34","新北市八里區中山路一段336號","121.412618333333","25.15895","6502300","八里區"
"234023","9380-KE","2017/06/29 20:39:26","新北市永和區竹林路1號","121.516295","25.0148766666667","6500400","永和區"
"234074","AAC-211","2017/06/29 20:39:31","新北市永和區竹林路119巷30弄2號","121.522028333333","25.0115333333333","6500400","永和區"
"234067","AAC-212","2017/06/29 20:39:36","新北市永和區保平路292巷42號","121.507548333333","25.005295","6500400","永和區"
"234003","AAC-295","2017/06/29 20:36:55","新北市永和區福和路1號","121.525658333333","25.0093133333333","6500400","永和區"
"243010","548-UM","2017/06/29 20:39:21","新北市泰山區公園路71號","121.426231666667","25.0554116666667","6501600","泰山區"
"243011","549-UM","2017/06/29 20:39:43","新北市泰山區黎明路22號","121.420818333333","25.06098","6501600","泰山區"
"222003","436-BY","2017/06/29 20:39:43","新北市深坑區阿柔洋25-1號","121.613136666667","24.999085","6501800","深坑區"
"222002","659-BX","2017/06/29 20:39:28","新北市深坑區萬福路45號","121.599508333333","25.0068266666667","6501800","深坑區"
"222001","696-SL","2017/06/29 20:39:29","新北市深坑區北深路三段256號","121.599843333333","25.004325","6501800","深坑區"
"231041","002-UM","2017/06/29 20:39:25","新北市新店區中正路543-4號","121.533663333333","24.9875083333333","6500600","新店區"
"231056","0293-UT","2017/06/29 20:39:31","新北市新店區民生路75巷221號","121.531976666667","24.981865","6500600","新店區"
"231059","046-UY","2017/06/29 20:39:35","新北市新店區僑愛三路15號","121.499565","24.944615","6500600","新店區"
"231051","107-UY","2017/06/29 20:39:37","新北市新店區中央七街3號","121.530593333333","24.9747583333333","6500600","新店區"
"231047","108-UY","2017/06/29 20:39:26","新北市新店區寶慶街12-1號","121.543405","24.986835","6500600","新店區"
"231052","187-VK","2017/06/29 20:39:33","新北市新店區廣興路7-2號","121.546055","24.91208","6500600","新店區"
"231007","189-VK","2017/06/29 12:08:33","新北市新店區安華路28-1號","121.519586666667","24.961205","6500600","新店區"
"231057","256-BX","2017/06/29 20:39:27","新北市新店區花園六路二段14號","121.554966666667","24.9333466666667","6500600","新店區"
"231063","268-BY","2017/06/29 20:39:44","新北市新店區玫瑰路4-1號","121.493606666667","24.951385","6500600","新店區"
"231050","AAD-862","2017/06/29 20:39:45","新北市新店區建國路43號","121.540481666667","24.9752366666667","6500600","新店區"
"231060","355-BY","2017/06/29 20:39:23","新北市新店區安康路三段628號","121.478473333333","24.9457783333333","6500600","新店區"
"231058","3712-VJ","2017/06/29 20:39:29","新北市新店區自由街43號","121.534616666667","24.97387","6500600","新店區"
"231065","512-UM","2017/06/29 20:39:44","新北市新店區安祥路102巷146號","121.486816666667","24.96453","6500600","新店區"
"231054","513-UM","2017/06/29 20:39:41","新北市新店區行政街45號","121.543098333333","24.9655816666667","6500600","新店區"
"231064","515-UM","2017/06/29 20:39:38","新北市新店區安和路三段169號","121.515988333333","24.9860316666667","6500600","新店區"
"231042","616-UM","2017/06/29 20:39:26","新北市新店區寶高路120巷1-1號","121.554645","24.975925","6500600","新店區"
"231045","617-UM","2017/06/29 20:39:26","新北市新店區長春路187號","121.558813333333","24.9620166666667","6500600","新店區"
"231061","618-UM","2017/06/29 20:39:27","新北市新店區新和街46號","121.519338333333","24.9850016666667","6500600","新店區"
"231040","619-UM","2017/06/29 20:39:43","新北市新店區中正路247巷6弄12號","121.538183333333","24.972975","6500600","新店區"
"231068","718-UY","2017/06/29 20:39:40","新北市新店區寶慶街35巷16弄1號","121.543068333333","24.9860316666667","6500600","新店區"
"231049","719-UM","2017/06/29 20:39:28","新北市新店區永業路81巷5弄1號","121.530203333333","24.9489766666667","6500600","新店區"
"231062","720-UM","2017/06/29 20:39:39","新北市新店區安康路三段177號","121.488488333333","24.9517466666667","6500600","新店區"
"231044","897-TW","2017/06/29 20:39:40","新北市新店區建國路249號","121.537611666667","24.9825283333333","6500600","新店區"
"231043","899-TW","2017/06/29 20:39:40","新北市新店區建國路40號","121.540508333333","24.97477","6500600","新店區"
"231066","AKT-0513","2017/06/29 20:39:33","新北市新店區安興路112號","121.514741666667","24.9776366666667","6500600","新店區"
"241011","013-R5","2017/06/29 20:39:42","新北市三重區龍門路150號","121.498568333333","25.0730816666667","6500200","三重區"
"241028","022-UY","2017/06/29 20:39:33","新北市三重區光興街89號","121.497436666667","25.0599233333333","6500200","三重區"
"241008","059-VK","2017/06/29 20:39:37","新北市三重區下竹圍街91號","121.481145","25.074875","6500200","三重區"
"241009","060-VK","2017/06/29 20:39:37","新北市三重區碧華街61號","121.484823333333","25.0813716666667","6500200","三重區"
"241015","062-VK","2017/06/29 20:39:32","新北市三重區文化北路200弄1號","121.49796","25.0681066666667","6500200","三重區"
"241017","063-VK","2017/06/29 20:39:25","新北市三重區安慶街268號","121.490726666667","25.067585","6500200","三重區"
"241024","065-VK","2017/06/29 20:39:44","新北市三重區中正北路171號","121.478218333333","25.06944","6500200","三重區"
"241026","066-VK","2017/06/29 20:39:27","新北市三重區文化南路7號","121.499925","25.062395","6500200","三重區"
"241002","090-VK","2017/06/29 20:39:22","新北市三重區仁義街167巷38弄2號","121.498768333333","25.0827233333333","6500200","三重區"
"241003","091-VK","2017/06/29 20:39:26","新北市三重區五華街141巷58號","121.493556666667","25.0867566666667","6500200","三重區"
"241031","156-TC","2017/06/29 20:39:29","新北市三重區重陽路一段43巷30號","121.488203333333","25.0585883333333","6500200","三重區"
"241005","262-UM","2017/06/29 20:39:43","新北市三重區碧華街403號","121.493185","25.0858066666667","6500200","三重區"
"241016","266-UM","2017/06/29 20:39:39","新北市三重區長壽西街143-3號","121.494366666667","25.0665883333333","6500200","三重區"
"241022","267-UM","2017/06/29 20:39:29","新北市三重區新北大道一段46巷18弄17號","121.488525","25.0620383333333","6500200","三重區"
"241018","268-UM","2017/06/29 20:39:23","新北市三重區重陽路四段27號","121.49144","25.0696066666667","6500200","三重區"
"241032","269-UM","2017/06/29 20:39:33","新北市三重區重陽路一段120巷48號","121.485058333333","25.0601483333333","6500200","三重區"
"241013","270-UM","2017/06/29 20:39:27","新北市三重區三和路三段158號","121.492951666667","25.073005","6500200","三重區"
"241025","271-UM","2017/06/29 20:39:28","新北市三重區忠孝路三段93巷12號","121.478651666667","25.0649","6500200","三重區"
"241007","398-BY","2017/06/29 20:39:37","新北市三重區自強路四段32-2號","121.488881666667","25.0769533333333","6500200","三重區"
"241023","412-TH","2017/06/29 20:39:22","新北市三重區自由街35巷2號","121.47895","25.0668966666667","6500200","三重區"
"241020","413-TH","2017/06/29 20:39:28","新北市三重區忠孝路一段61號","121.490913333333","25.0719716666667","6500200","三重區"
"241004","475-VK","2017/06/29 20:39:37","新北市三重區仁愛街416號","121.4906","25.0814083333333","6500200","三重區"
"241019","478-VK","2017/06/29 20:39:34","新北市三重區重陽路四段126巷4號","121.49238","25.0709233333333","6500200","三重區"
"241030","480-VK","2017/06/29 20:39:27","新北市三重區成功路73巷12號","121.489378333333","25.05181","6500200","三重區"
"241014","543-UM","2017/06/29 20:39:39","新北市三重區萬壽街23號","121.499716666667","25.0693566666667","6500200","三重區"
"241001","547-UM","2017/06/29 20:39:35","新北市三重區自強路三段110巷3號","121.486728333333","25.0748216666667","6500200","三重區"
"241006","AAD-863","2017/06/29 20:39:31","新北市三重區車路頭街139巷12號","121.48424","25.076195","6500200","三重區"
"241035","743-BX","2017/06/29 20:39:32","新北市三重區正義北路239號","121.495793333333","25.0691483333333","6500200","三重區"
"241012","941-UM","2017/06/29 20:39:30","新北市三重區河邊北街168號","121.502853333333","25.0731366666667","6500200","三重區"
"241029","942-UM","2017/06/29 20:39:36","新北市三重區集美街126巷27號","121.490058333333","25.0538566666667","6500200","三重區"
"241033","AAC-255","2017/06/29 20:39:37","新北市三重區光復路二段1號","121.47231","25.0532816666667","6500200","三重區"
"235039","097-UM","2017/06/29 20:39:31","新北市中和區大勇街27巷16號","121.51675","24.9938766666667","6500300","中和區"
"235072","301-VK","2017/06/29 20:39:41","新北市板橋區民生路三段229號","121.464938333333","25.02862","6500300","中和區"
"235069","4980-A6","2017/06/29 20:39:36","新北市中和區員山路381巷1弄18號","121.480923333333","25.0022516666667","6500300","中和區"
"235042","551-UM","2017/06/29 20:39:25","新北市中和區保健路46巷26弄8號","121.50824","24.9954566666667","6500300","中和區"
"235037","AAC-213","2017/06/29 20:39:35","新北市中和區自立路99巷22弄32號","121.52317","24.9938283333333","6500300","中和區"
"247020","893-R6","2017/06/29 20:39:34","新北市蘆洲區仁愛街41號","121.472098333333","25.0930616666667","6501400","蘆洲區"
"247010","546-UM","2017/06/29 20:39:41","新北市蘆洲區集賢路418號","121.47983","25.0812683333333","6501400","蘆洲區"
"247008","339-TH","2017/06/29 20:39:37","新北市蘆洲區重陽街16號","121.480653333333","25.0815233333333","6501400","蘆洲區"
"247024","337-TH","2017/06/29 20:39:33","新北市蘆洲區長樂路125-1號","121.462248333333","25.0876966666667","6501400","蘆洲區"
"247002","336-TH","2017/06/29 20:39:29","新北市蘆洲區長安街375巷6號","121.456881666667","25.08783","6501400","蘆洲區"
"247014","057-VK","2017/06/29 20:39:27","新北市蘆洲區成功路62號","121.472626666667","25.08055","6501400","蘆洲區"
"247004","056-VK","2017/06/29 20:39:27","新北市蘆洲區長安街222號","121.458196666667","25.08499","6501400","蘆洲區"
"247006","053-VK","2017/06/29 20:39:13","新北市蘆洲區和平路121巷8弄4號","121.466916666667","25.079945","6501400","蘆洲區"
"247012","007-UY","2017/06/29 20:39:42","新北市蘆洲區復興路340巷32號","121.484016666667","25.08849","6501400","蘆洲區"
"247022","002-UY","2017/06/29 20:39:34","新北市蘆洲區中正路263巷9號","121.46689","25.086785","6501400","蘆洲區"
"247016","001-UY","2017/06/29 20:39:34","新北市蘆洲區中山二路288號","121.46884","25.0777566666667","6501400","蘆洲區"
"224011","420-VK","2017/06/29 20:17:33","新北市瑞芳區明燈路二段66號","121.809478333333","25.1074533333333","6501200","瑞芳區"
"251005","010-UM","2017/06/29 20:39:30","新北市淡水區崁頂131號","121.431645","25.2052883333333","6501000","淡水區"
"251001","011-UM","2017/06/29 20:39:39","新北市淡水區淡金路187號","121.45851","25.1655816666667","6501000","淡水區"
"251007","179-VK","2017/06/29 20:39:26","新北市淡水區忠愛街4-1號","121.458871666667","25.1712966666667","6501000","淡水區"
"251014","182-VK","2017/06/29 20:39:26","新北市淡水區桂竹圍12-9號","121.471783333333","25.2322083333333","6501000","淡水區"
"251010","413-VK","2017/06/29 20:39:28","新北市淡水區沙崙路181巷15號","121.42377","25.1844166666667","6501000","淡水區"
"251012","441-VK","2017/06/29 20:39:44","新北市淡水區興仁路99號","121.451686666667","25.21808","6501000","淡水區"
"251016","442-VK","2017/06/29 20:39:32","新北市淡水區後洲子8-2號","121.449515","25.22401","6501000","淡水區"
"251006","561-UM","2017/06/29 20:39:38","新北市淡水區商工路196巷4號","121.451098333333","25.18698","6501000","淡水區"
"251002","672-BX","2017/06/29 20:39:31","新北市淡水區中正路38-1號","121.443758333333","25.1692766666667","6501000","淡水區"
"251003","766-UM","2017/06/29 20:39:29","新北市淡水區新民街120巷52號","121.43869","25.1783633333333","6501000","淡水區"
"252001","702-TV","2017/06/29 20:39:45","新北市三芝區長安街40號","121.50155","25.2563466666667","6502100","三芝區"
"237001","361-BY","2017/06/29 15:27:57","新北市三峽區中山路459巷137號","121.349356666667","24.93355","6500900","三峽區"
"236051","913-UM","2017/06/29 20:39:35","新北市樹林區中山路三段208號","121.382781666667","24.9662983333333","6501300","土城區"
"242021","AAC-296","2017/06/29 20:39:44","新北市新莊區公園路102號","121.45083","25.0397133333333","6500500","新莊區"
"242029","986-R7","2017/06/29 20:39:38","新北市新莊區昌平街19號","121.454308333333","25.0513783333333","6500500","新莊區"
"242048","751-BX","2017/06/29 20:39:30","新北市新莊區中正路773號","121.421815","25.0285966666667","6500500","新莊區"
"242061","705-TV","2017/06/29 20:39:41","新北市新莊區新樹路258巷3號","121.432106666667","25.01556","6500500","新莊區"
"242025","615-BX","2017/06/29 20:39:31","新北市新莊區化成路579巷1號","121.464415","25.0660916666667","6500500","新莊區"
"242023","613-BX","2017/06/29 20:39:37","新北市新莊區化成路570號","121.466193333333","25.05446","6500500","新莊區"
"242027","612-BX","2017/06/29 20:39:33","新北市新莊區思源路63號","121.459938333333","25.0403883333333","6500500","新莊區"
"242036","566-BX","2017/06/29 20:39:34","新北市新莊區建安街31號","121.428923333333","25.025795","6500500","新莊區"
"242042","497-BY","2017/06/29 20:39:26","新北市新莊區天祥街47巷21號","121.416303333333","25.0280783333333","6500500","新莊區"
"242004","442-UM","2017/06/29 20:39:30","新北市新莊區化成路389巷9號","121.464021666667","25.0582083333333","6500500","新莊區"
"242046","441-UM","2017/06/29 20:39:40","新北市新莊區富國路22巷19號","121.418371666667","25.0257733333333","6500500","新莊區"
"242051","440-UM","2017/06/29 20:39:29","新北市新莊區民安西路113號","121.426673333333","25.0181316666667","6500500","新莊區"
"242031","415-TV","2017/06/29 20:39:40","新北市新莊區三泰路58號","121.433766666667","25.037705","6500500","新莊區"
"242002","413-TV","2017/06/29 20:39:27","新北市新莊區中正路96號","121.455116666667","25.036675","6500500","新莊區"
"242039","400-BY","2017/06/29 20:39:39","新北市新莊區新樹路166號","121.434808333333","25.0224883333333","6500500","新莊區"
"242058","353-BY","2017/06/29 20:39:28","新北市新莊區四維路150巷1號","121.423013333333","25.0231833333333","6500500","新莊區"
"242011","132-UY","2017/06/29 20:39:38","新北市新莊區中原路311號","121.446913333333","25.053885","6500500","新莊區"
"242034","133-UY","2017/06/29 20:39:39","新北市新莊區建中街98號","121.446576666667","25.0365366666667","6500500","新莊區"
"242044","172-VK","2017/06/29 20:39:39","新北市新莊區龍安路90號","121.417633333333","25.0207483333333","6500500","新莊區"
"242007","173-VK","2017/06/29 20:39:42","新北市新莊區福壽街56巷4號","121.458545","25.0486983333333","6500500","新莊區"
"242013","175-VK","2017/06/29 20:39:25","新北市新莊區中平路302巷6號","121.445346666667","25.0516766666667","6500500","新莊區"
"242056","176-VK","2017/06/29 20:39:42","新北市新莊區新莊路751巷50號","121.442695","25.0314266666667","6500500","新莊區"
"242019","346-TH","2017/06/29 20:39:32","新北市新莊區銘德街121號","121.455216666667","25.0431866666667","6500500","新莊區"
"242017","348-TH","2017/06/29 20:39:40","新北市新莊區中港三街11號","121.4511","25.0463833333333","6500500","新莊區"
"242053","349-TH","2017/06/29 20:39:32","新北市新莊區西盛街324巷26號","121.42693","25.0148466666667","6500500","新莊區"
"242015","350-TH","2017/06/29 20:39:29","新北市新莊區中和街41號","121.448095","25.0443433333333","6500500","新莊區"
"238023","601-UM","2017/06/29 20:39:35","新北市樹林區育德街78-1號","121.387425","24.968275","6500700","樹林區"
"221008","489-VK","2017/06/29 20:39:46","新北市汐止區康寧街688號","121.63713","25.0718183333333","6501100","汐止區"
"221036","130-UY","2017/06/29 20:39:31","新北市汐止區新昌路7號","121.662106666667","25.0672116666667","6501100","汐止區"
"221015","131-UY","2017/06/29 20:39:41","新北市汐止區建成路44號","121.663935","25.0728733333333","6501100","汐止區"
"221010","269-BY","2017/06/29 20:39:39","新北市汐止區八連路二段435號","121.628605","25.1035","6501100","汐止區"
"221010","276-VK","2017/06/29 13:17:07","新北市汐止區汐萬路一段256巷3號","121.653438333333","25.07459","6501100","汐止區"
"221031","277-VK","2017/06/29 00:28:13","新北市汐止區汐萬路一段256巷3號","121.652588333333","25.0745916666667","6501100","汐止區"
"221012","278-VK","2017/06/29 20:39:31","新北市汐止區大同路三段241號","121.672731666667","25.076615","6501100","汐止區"
"221023","279-VK","2017/06/29 20:39:38","新北市汐止區民族二街30巷21號","121.633986666667","25.0716633333333","6501100","汐止區"
"221032","280-BY","2017/06/29 20:39:28","新北市汐止區橫科路221巷19-1號","121.62151","25.04948","6501100","汐止區"
"221027","281-BY","2017/06/29 20:39:36","新北市汐止區大同路二段477號","121.66051","25.068195","6501100","汐止區"
"221038","297-VK","2017/06/29 20:39:34","新北市汐止區忠孝東路349號","121.665535","25.07035","6501100","汐止區"
"221029","298-VK","2017/06/29 20:39:34","新北市汐止區新台五路一段79-13號","121.645273333333","25.0619533333333","6501100","汐止區"
"221021","299-VK","2017/06/29 20:39:37","新北市汐止區水源路一段284號","121.65425","25.0583133333333","6501100","汐止區"
"221035","622-UM","2017/06/29 20:39:28","新北市汐止區長江街101-5號","121.658806666667","25.0731233333333","6501100","汐止區"
"221025","623-UM","2017/06/29 20:38:21","新北市汐止區水源路二段216號","121.657953333333","25.0525433333333","6501100","汐止區"
"221033","647-BX","2017/06/29 20:39:31","新北市汐止區合順街18巷8弄5號","121.6203","25.0418333333333","6501100","汐止區"
"221002","707-TV","2017/06/29 20:39:41","新北市汐止區福德二路132巷4號","121.631021666667","25.065425","6501100","汐止區"
"221002","753-BX","2017/06/29 20:39:22","新北市汐止區茄苳路124號","121.668195","25.0702083333333","6501100","汐止區"
"220083","286-VK","2017/06/29 20:39:28","新北市板橋區僑中二街108巷22號","121.444885","25.0074883333333","6500100","板橋區"
"220081","287-VK","2017/06/29 20:39:32","新北市板橋區僑中二街12巷2號","121.446845","25.010685","6500100","板橋區"
"220092","307-R5","2017/06/29 20:39:25","新北市樹林區八德街828-2號","121.394101666667","24.96853","6500100","板橋區"
"220089","487-VK","2017/06/29 20:39:28","新北市板橋區四維路319號","121.462876666667","25.02902","6500100","板橋區"
"220103","561-BX","2017/06/29 20:39:32","新北市板橋區漢生東路83巷25號","121.467391666667","25.01674","6500100","板橋區"
"220070","AAC-253","2017/06/29 20:39:34","新北市板橋區大觀路三段59巷57號","121.435158333333","24.9942566666667","6500100","板橋區"
