"lineid","car","time","location","longitude","latitude","cityid","cityname"
"234081","298-R6","2017/06/29 21:39:42","新北市八里區中華路三段7巷1號","121.39721","25.143695","6500400","永和區"
"231059","046-UY","2017/06/29 21:39:34","新北市新店區薏仁坑路自強巷6號","121.496381666667","24.95837","6500600","新店區"
"231007","189-VK","2017/06/29 12:08:33","新北市新店區安華路28-1號","121.519586666667","24.961205","6500600","新店區"
"231063","268-BY","2017/06/29 21:39:24","新北市新店區如意街37號","121.493713333333","24.9482933333333","6500600","新店區"
"241005","262-UM","2017/06/29 21:39:22","新北市三重區碧華街50號","121.483485","25.081255","6500200","三重區"
"241032","269-UM","2017/06/29 21:39:33","新北市樹林區八德街828-9號","121.392803333333","24.9686216666667","6500200","三重區"
"247014","057-VK","2017/06/29 21:38:02","新北市五股區中直路21號","121.421588333333","25.1118783333333","6501400","蘆洲區"
"247006","053-VK","2017/06/29 21:38:52","新北市八里區荖阡坑路22-5號","121.398813333333","25.134925","6501400","蘆洲區"
"224011","420-VK","2017/06/29 21:39:41","新北市瑞芳區中正路65號","121.80608","25.1074833333333","6501200","瑞芳區"
"251009","008-UM","2017/06/29 21:39:38","新北市淡水區民族路31巷78號","121.46324","25.1369116666667","6501000","淡水區"
"251004","009-UM","2017/06/29 21:39:37","新北市淡水區民權路109號","121.460508333333","25.137685","6501000","淡水區"
"251005","010-UM","2017/06/29 21:39:30","新北市淡水區學府路88號","121.449093333333","25.171","6501000","淡水區"
"251001","011-UM","2017/06/29 21:39:38","新北市淡水區崁頂37-11號","121.438723333333","25.1944933333333","6501000","淡水區"
"251008","181-VK","2017/06/29 21:39:31","新北市淡水區水源街二段90號","121.451763333333","25.1743","6501000","淡水區"
"251014","182-VK","2017/06/29 21:39:26","新北市淡水區溪口16號","121.455776666667","25.2364733333333","6501000","淡水區"
"251010","413-VK","2017/06/29 21:39:27","新北市淡水區沙崙路216巷56號","121.426275","25.1841166666667","6501000","淡水區"
"251012","441-VK","2017/06/29 21:39:24","新北市淡水區淡金路四段467號","121.451823333333","25.2235333333333","6501000","淡水區"
"251016","442-VK","2017/06/29 21:39:32","新北市淡水區淡金路二段15號","121.446206666667","25.189185","6501000","淡水區"
"251006","561-UM","2017/06/29 21:39:28","新北市淡水區中正路5巷31號","121.442268333333","25.1688866666667","6501000","淡水區"
"251011","650-BX","2017/06/29 21:39:36","新北市淡水區新民街296號","121.435065","25.1824433333333","6501000","淡水區"
"251002","672-BX","2017/06/29 21:39:24","新北市淡水區學府路152號","121.446433333333","25.174295","6501000","淡水區"
"251003","766-UM","2017/06/29 21:39:29","新北市淡水區新春街46-1號","121.437741666667","25.1814366666667","6501000","淡水區"
"237001","361-BY","2017/06/29 15:27:57","新北市三峽區中山路459巷137號","121.349356666667","24.93355","6500900","三峽區"
"221010","276-VK","2017/06/29 13:17:07","新北市汐止區汐萬路一段256巷3號","121.653438333333","25.07459","6501100","汐止區"
