"lineid","car","time","location","longitude","latitude","cityid","cityname"
"248005","653-BX","2017/06/30 07:29:31","新北市五股區明德路8號","121.433371666667","25.071675","6501500","五股區"
"232008","290-BY","2017/06/30 07:29:27","新北市坪林區魚堀9-13號","121.70465","24.906855","6502000","坪林區"
"232003","291-BY","2017/06/30 07:29:19","新北市坪林區坪雙路一段66號","121.714771666667","24.943515","6502000","坪林區"
"232019","758-BX","2017/06/30 07:28:44","新北市坪林區乾溪1號","121.743676666667","24.9762266666667","6502000","坪林區"
"244004","248-BX","2017/06/30 07:29:03","新北市林口區頂福里61號","121.3389","25.0883566666667","6501700","林口區"
"243002","548-UM","2017/06/30 07:06:00","新北市泰山區泰林路三段28巷8號","121.418713333333","25.0652683333333","6501600","泰山區"
"222005","289-BY","2017/06/30 07:29:29","新北市深坑區文化街39巷13號","121.61897","25.0010466666667","6501800","深坑區"
"220034","015-TV","2017/06/30 07:29:25","新北市板橋區國光路49巷2號","121.458131666667","25.0181183333333","6500100","板橋區"
"247002","402-BY","2017/06/30 07:29:24","新北市蘆洲區得勝街62號","121.47305","25.0843383333333","6501400","蘆洲區"
"226005","5620-A6","2017/06/30 07:29:22","新北市平溪區平溪里平溪街2號","121.738721666667","25.0247383333333","6502400","平溪區"
"226001","7418-A5","2017/06/30 07:20:48","新北市平溪區南山里南山坪2號","121.763031666667","25.03186","6502400","平溪區"
"226003","AGD-0702","2017/06/30 07:28:04","新北市平溪區靜安路二段486號","121.743351666667","25.0263","6502400","平溪區"
"223006","022-BY","2017/06/30 07:29:23","新北市坪林區坪碇路173號","121.699238333333","24.9481983333333","6501900","石碇區"
"223002","198-BX","2017/06/30 07:29:34","新北市石碇區北宜路五段崙尾寮巷7號","121.645943333333","24.9548516666667","6501900","石碇區"
"223003","205-TH","2017/06/30 07:29:26","新北市石碇區烏塗窟46號","121.656131666667","24.97234","6501900","石碇區"
"223008","406-TH","2017/06/30 07:17:09","新北市石碇區靜安路一段337號","121.698815","25.01468","6501900","石碇區"
"223001","592-UM","2017/06/30 07:29:35","新北市石碇區烏塗窟36-1號","121.656413333333","24.972225","6501900","石碇區"
"223004","660-BX","2017/06/30 07:29:30","新北市石碇區楓子林30號","121.64229","25.0094866666667","6501900","石碇區"
"223007","661-BX","2017/06/30 07:29:27","新北市石碇區大溪墘16-1號","121.693163333333","25.0086083333333","6501900","石碇區"
"223005","677-TV","2017/06/30 07:29:22","新北市石碇區楓子林36-3號","121.642365","25.009625","6501900","石碇區"
"227005","282-VK","2017/06/30 07:29:32","新北市雙溪區新基里自強路5號","121.866358333333","25.0390916666667","6502500","雙溪區"
"237001","159-UY","2017/06/30 07:29:32","新北市樹林區柑園街二段363巷15號","121.369068333333","24.9463283333333","6500900","三峽區"
"236010","165-UM","2017/06/30 07:29:33","新北市土城區延和路59號","121.466676666667","24.9896983333333","6501300","土城區"
"236004","339-SR","2017/06/30 07:29:36","新北市土城區承天路114號","121.451468333333","24.9495983333333","6501300","土城區"
