"lineid","car","time","location","longitude","latitude","cityid","cityname"
"248005","653-BX","2017/12/05 09:29:54","新北市五股區登林路貿商巷2弄2號","121.430558333333","25.069585","6501500","五股區"
"231007","188-VK","2017/12/05 09:29:47","新北市新店區新潭路三段231巷15號","121.505231666667","24.9042366666667","6500600","新店區"
"231009","192-VK","2017/12/05 09:29:54","新北市新店區平廣路一段125號","121.527836666667","24.8958466666667","6500600","新店區"
"227006","282-VK","2017/12/05 09:28:18","新北市雙溪區長源里柑腳58-1號","121.793876666667","25.006385","6502500","雙溪區"
"227012","030-BX","2017/12/05 09:27:47","新北市坪林區坪雙路三段66號","121.787491666667","24.9781833333333","6502500","雙溪區"
"252004","249-BX","2017/12/05 09:29:52","新北市三芝區圓山里石曹子坑68號","121.523355","25.2175266666667","6502100","三芝區"
"252007","AAC-283","2017/12/05 09:29:55","新北市三芝區古庄里山豬堀7號","121.494475","25.255585","6502100","三芝區"
"237001","159-UY","2017/12/05 09:29:46","新北市三峽區國際二街81號","121.37062","24.9421733333333","6500900","三峽區"
"236006","498-BY","2017/12/05 09:29:53","新北市土城區承天路71巷6號","121.440725","24.964215","6501300","土城區"
