"lineid","car","time","location","longitude","latitude","cityid","cityname"
"234012","149-BY","2017/12/05 12:39:45","新北市永和區保安路46號","121.510293333333","25.0169166666667","6500400","永和區"
"234078","298-R6","2017/12/05 12:39:49","新北市永和區林森路81號","121.523875","25.0038183333333","6500400","永和區"
"234036","336-UY","2017/12/05 12:39:52","新北市永和區福和路1號","121.526591666667","25.0101316666667","6500400","永和區"
"234084","338-UY","2017/12/05 12:39:39","新北市中和區景新街273巷32號","121.510913333333","24.9941116666667","6500400","永和區"
"234015","745-BX","2017/12/05 12:39:43","新北市永和區福和路1號","121.526421666667","25.00957","6500400","永和區"
"234028","746-BX","2017/12/05 12:39:50","新北市永和區福和路1號","121.525395","25.009275","6500400","永和區"
"234060","AAD-866","2017/12/05 12:39:48","新北市永和區環河東路二段92號","121.524423333333","25.0106516666667","6500400","永和區"
"234040","862-TW","2017/12/05 12:39:52","新北市永和區福和路378號","121.514176666667","25.0078466666667","6500400","永和區"
"234048","863-TW","2017/12/05 12:39:55","新北市永和區豫溪街217巷7號","121.525068333333","25.00983","6500400","永和區"
"234025","9371-KE","2017/12/05 12:39:44","新北市永和區福和路1號","121.525655","25.0094533333333","6500400","永和區"
"234010","9373-KE","2017/12/05 12:39:55","新北市永和區福和路1號","121.525575","25.0093633333333","6500400","永和區"
"234076","969-R7","2017/12/05 12:39:42","新北市永和區中正路70號","121.513538333333","24.9950566666667","6500400","永和區"
"234072","AAC-211","2017/12/05 12:39:43","新北市永和區福和路1號","121.526143333333","25.00952","6500400","永和區"
"231025","0293-UT","2017/12/05 12:39:42","新北市新店區安華路28-1號","121.519638333333","24.960545","6500600","新店區"
"231030","047-UY","2017/12/05 12:39:53","新北市新店區安華路28-1號","121.51924","24.9609616666667","6500600","新店區"
"231029","106-UY","2017/12/05 12:39:39","新北市新店區安華路28-1號","121.51972","24.96092","6500600","新店區"
"231015","KEA-2219","2017/12/05 12:39:54","新北市新店區安華路28-1號","121.520231666667","24.961125","6500600","新店區"
"231036","512-UM","2017/12/05 12:39:42","新北市新店區安華路28-1號","121.51931","24.96122","6500600","新店區"
"231001","619-UM","2017/12/05 12:39:53","新北市新店區安華路28-1號","121.519385","24.9607166666667","6500600","新店區"
"231037","AKT-0513","2017/12/05 12:39:44","新北市新店區安華路28-1號","121.51948","24.9605883333333","6500600","新店區"
"235031","255-BX","2017/12/05 12:39:45","新北市中和區新生街41號","121.483306666667","25.003135","6500300","中和區"
"235025","378-QA","2017/12/05 03:50:06","新北市中和區員山路36巷13號","121.484066666667","24.991605","6500300","中和區"
"228004","212-TW","2017/12/05 12:39:54","新北市貢寮區吉林里枋腳街6號","121.887166666667","25.0046233333333","6502600","貢寮區"
"228005","828-UM","2017/12/05 12:39:40","新北市貢寮區福連里蓬萊街14號","121.994993333333","25.0030133333333","6502600","貢寮區"
"208002","742-BX","2017/12/05 12:39:35","新北市金山區民生路151-2號","121.643798333333","25.22344","6502700","金山區"
"207002","749-BX","2017/12/05 12:39:45","新北市萬里區雙興里太和路7-2號","121.658603333333","25.1740783333333","6502800","萬里區"
"221012","276-VK","2017/12/05 12:39:44","新北市汐止區中正路195號","121.658645","25.0689683333333","6501100","汐止區"
