"lineid","car","time","location","longitude","latitude","cityid","cityname"
"234046","148-BY","2017/12/05 13:09:56","新北市永和區永元路18巷37號","121.524043333333","25.0002816666667","6500400","永和區"
"234012","149-BY","2017/12/05 13:09:45","新北市永和區保福路二段85號","121.510633333333","25.0126683333333","6500400","永和區"
"234005","207-UY","2017/12/05 13:09:41","新北市永和區中山路一段211號","121.508811666667","25.00837","6500400","永和區"
"234078","298-R6","2017/12/05 13:09:49","新北市永和區永貞路39巷9弄5號","121.522143333333","25.0068333333333","6500400","永和區"
"234036","336-UY","2017/12/05 13:09:52","","121.527441666667","24.997795","6500400","永和區"
"234062","337-UY","2017/12/05 13:09:40","新北市永和區秀朗路二段63號","121.522033333333","25.0020516666667","6500400","永和區"
"234084","338-UY","2017/12/05 13:09:39","新北市永和區永貞路90號","121.519621666667","25.0046783333333","6500400","永和區"
"234068","552-UM","2017/12/05 13:09:46","新北市永和區豫溪街135號","121.519691666667","25.010195","6500400","永和區"
"234052","553-UM","2017/12/05 13:09:54","新北市永和區中興街133巷8號","121.518588333333","25.012615","6500400","永和區"
"234015","745-BX","2017/12/05 13:09:43","新北市永和區文化路90巷15弄1號","121.513833333333","25.0158666666667","6500400","永和區"
"234028","746-BX","2017/12/05 13:09:50","新北市永和區四維街115號","121.523378333333","24.9982716666667","6500400","永和區"
"234060","AAD-866","2017/12/05 13:09:48","新北市永和區安樂路340號","121.514433333333","25.00617","6500400","永和區"
"234040","862-TW","2017/12/05 13:09:52","新北市永和區保平路95號","121.511468333333","25.0069833333333","6500400","永和區"
"234048","863-TW","2017/12/05 13:09:55","新北市永和區文化路135巷26弄1號","121.510603333333","25.0143983333333","6500400","永和區"
"234025","9371-KE","2017/12/05 13:09:44","新北市永和區秀朗路一段10巷19號","121.5135","25.006125","6500400","永和區"
"234010","9373-KE","2017/12/05 13:09:35","新北市永和區仁愛路73巷2弄1號","121.51336","25.0128866666667","6500400","永和區"
"248017","225-UY","2017/12/05 13:09:38","新北市五股區西雲路2號","121.44264","25.0896683333333","6501500","五股區"
"234022","9380-KE","2017/12/05 13:09:51","新北市永和區中興街10巷7號","121.515456666667","25.0113116666667","6500400","永和區"
"234076","969-R7","2017/12/05 13:09:42","新北市永和區民光街2號","121.515183333333","24.9963966666667","6500400","永和區"
"234072","AAC-211","2017/12/05 13:09:53","","121.520506666667","25.0095366666667","6500400","永和區"
"234067","AAC-212","2017/12/05 13:09:45","新北市永和區保平路5號","121.51311","25.00757","6500400","永和區"
"234001","AAC-295","2017/12/05 13:09:54","","121.513046666667","25.009935","6500400","永和區"
"244002","248-BX","2017/12/05 13:09:53","新北市林口區頭湖73-3號","121.371925","25.088005","6501700","林口區"
"231002","001-UM","2017/12/05 13:09:38","新北市新店區安華路1-1號","121.520018333333","24.9603916666667","6500600","新店區"
"231027","0291-UT","2017/12/05 13:09:50","","121.519243333333","24.960685","6500600","新店區"
"231025","0293-UT","2017/12/05 13:09:43","新北市新店區安華路28-1號","121.519605","24.960515","6500600","新店區"
"231028","046-UY","2017/12/05 13:09:51","新北市新店區安華路28-1號","121.519795","24.9609466666667","6500600","新店區"
"231030","047-UY","2017/12/05 13:09:53","新北市新店區安華路28-1號","121.51903","24.9609316666667","6500600","新店區"
"231029","106-UY","2017/12/05 13:09:39","新北市新店區安華路28-1號","121.519875","24.961005","6500600","新店區"
"231018","107-UY","2017/12/05 13:09:55","新北市新店區安康路一段355-3號","121.519616666667","24.9615283333333","6500600","新店區"
"231012","108-UY","2017/12/05 04:19:59","新北市新店區安華路28-1號","121.519556666667","24.9608516666667","6500600","新店區"
"231020","187-VK","2017/12/05 13:09:44","新北市新店區安華路28-1號","121.519708333333","24.9612466666667","6500600","新店區"
"231015","KEA-2219","2017/12/05 13:09:54","新北市新店區安華路28-1號","121.520035","24.96135","6500600","新店區"
"231034","268-BY","2017/12/05 13:09:37","新北市新店區安華路28-1號","121.519478333333","24.9606733333333","6500600","新店區"
"231010","278-BY","2017/12/05 12:44:35","新北市新店區安華路28-1號","121.51976","24.9613266666667","6500600","新店區"
"231023","AAD-862","2017/12/05 13:09:45","新北市新店區安華路28-1號","121.519968333333","24.9607666666667","6500600","新店區"
"231027","3712-VJ","2017/12/05 12:59:03","新北市新店區安華路28-1號","121.519016666667","24.9606983333333","6500600","新店區"
"231024","4716-K9","2017/12/05 13:09:40","新北市新店區安華路28-1號","121.519625","24.961045","6500600","新店區"
"231038","4715-K9","2017/12/05 13:09:36","新北市新店區安華路1-1號","121.519495","24.960495","6500600","新店區"
"231036","512-UM","2017/12/05 13:09:42","新北市新店區安華路28-1號","121.519405","24.9612833333333","6500600","新店區"
"231035","515-UM","2017/12/05 00:55:37","新北市新店區安華路28-1號","121.52001","24.9609916666667","6500600","新店區"
"231006","617-UM","2017/12/05 13:08:55","新北市新店區安華路28-1號","121.519506666667","24.961005","6500600","新店區"
"231001","619-UM","2017/12/05 13:09:53","","121.519785","24.960845","6500600","新店區"
"231003","641-BX","2017/12/05 13:09:47","新北市新店區安華路28-1號","121.51961","24.9607266666667","6500600","新店區"
"231013","719-UM","2017/12/05 13:09:39","新北市新店區安華路28-1號","121.519536666667","24.9614133333333","6500600","新店區"
"231032","720-UM","2017/12/05 13:09:52","新北市新店區安華路28-1號","121.519246666667","24.9612816666667","6500600","新店區"
"231005","897-TW","2017/12/05 13:09:44","新北市新店區安華路28-1號","121.51962","24.9609483333333","6500600","新店區"
"231004","899-TW","2017/12/05 13:09:48","新北市新店區安華路28-1號","121.519138333333","24.9608783333333","6500600","新店區"
"231037","AKT-0513","2017/12/05 13:09:44","新北市新店區安華路1-1號","121.519503333333","24.96052","6500600","新店區"
"241005","262-UM","2017/12/05 13:08:55","新北市三重區重新路四段121號","121.484815","25.052235","6500200","三重區"
"235030","003-UY","2017/12/05 13:09:37","新北市中和區中和路98號","121.501396666667","25.00038","6500300","中和區"
"235027","006-UY","2017/12/05 13:09:52","新北市中和區員山路36巷16-3號","121.48509","24.9913866666667","6500300","中和區"
"235003","097-UM","2017/12/05 13:09:57","新北市中和區和城路一段271巷1號","121.485508333333","24.991815","6500300","中和區"
"235029","098-UM","2017/12/05 13:09:45","新北市中和區景平路693號","121.496556666667","25.0031966666667","6500300","中和區"
"235004","150-BY","2017/12/05 13:09:55","新北市中和區錦和路350-1號","121.490448333333","24.99358","6500300","中和區"
"235022","151-BY","2017/12/05 13:09:40","新北市中和區圓通路367巷33弄23號","121.494935","24.985385","6500300","中和區"
"235002","185-VK","2017/12/05 13:09:51","新北市中和區景平路71-7號","121.518321666667","24.991785","6500300","中和區"
"235031","255-BX","2017/12/05 13:09:43","新北市中和區新生街187號","121.483715","25.00041","6500300","中和區"
"235025","378-QA","2017/12/05 13:09:24","新北市中和區連城路523巷13弄28號","121.482443333333","24.9934183333333","6500300","中和區"
"235035","269-TV","2017/12/05 13:09:45","新北市中和區板南路520巷8號","121.483933333333","25.0088066666667","6500300","中和區"
"235014","4979-A6","2017/12/05 13:09:42","新北市中和區錦和路350-1號","121.490556666667","24.99359","6500300","中和區"
"235033","4980-A6","2017/12/05 13:09:36","新北市中和區員山路36巷16-6號","121.485318333333","24.9920116666667","6500300","中和區"
"235006","551-UM","2017/12/05 13:09:55","新北市中和區景平路159巷56號","121.51286","24.991205","6500300","中和區"
"235009","565-BX","2017/12/05 13:09:42","新北市中和區中正路637巷60弄61號","121.485461666667","24.99274","6500300","中和區"
"235018","640-BX","2017/12/05 13:09:48","新北市中和區連城路506號","121.477668333333","24.9928116666667","6500300","中和區"
"235026","800-TS","2017/12/05 13:09:54","新北市中和區錦和路73號","121.489445","24.9978583333333","6500300","中和區"
"235021","801-TS","2017/12/05 13:09:37","新北市中和區員山路36巷16-3號","121.484931666667","24.9918533333333","6500300","中和區"
"235016","805-TS","2017/12/05 13:09:38","新北市中和區和城路一段271巷1號","121.485406666667","24.9919183333333","6500300","中和區"
"235017","900-TW","2017/12/05 13:09:47","新北市中和區員山路36巷16-3號","121.484966666667","24.991855","6500300","中和區"
"235028","911-UM","2017/12/05 13:09:34","新北市中和區員山路36巷16-3號","121.485148333333","24.991115","6500300","中和區"
"235015","157-BY","2017/12/05 13:09:36","新北市中和區中正路271號","121.495905","24.993625","6500300","中和區"
"235001","AAC-213","2017/12/05 13:09:53","","121.509546666667","24.9927916666667","6500300","中和區"
"235023","AAC-215","2017/12/05 00:30:07","新北市中和區員山路36巷16-3號","121.485023333333","24.9912766666667","6500300","中和區"
"228004","212-TW","2017/12/05 13:09:34","新北市貢寮區吉林里內寮街71-1號","121.892885","24.97361","6502600","貢寮區"
"228005","828-UM","2017/12/05 13:09:40","新北市貢寮區仁理村仁和路202號","121.923606666667","25.052835","6502600","貢寮區"
"208004","AAC-292","2017/12/05 13:09:45","新北市金山區中正路6號","121.636453333333","25.2224583333333","6502700","金山區"
"208002","742-BX","2017/12/05 13:09:35","基隆市安樂區基金一路129巷2號","121.710935","25.1379466666667","6502700","金山區"
"207002","749-BX","2017/12/05 13:09:45","新北市萬里區崁腳里內崁路4號","121.643511666667","25.1592883333333","6502800","萬里區"
"207001","662-BX","2017/12/05 13:09:55","新北市萬里區萬里里瑪鋉路85號","121.688483333333","25.1769016666667","6502800","萬里區"
"252005","AAC-283","2017/12/05 13:09:50","","121.513151666667","25.2367933333333","6502100","三芝區"
"236006","498-BY","2017/12/05 13:09:52","新北市土城區亞洲路68號","121.435063333333","24.9732166666667","6501300","土城區"
"238026","308-TH","2017/12/05 13:09:46","新北市樹林區東豐街49巷22弄37號","121.414036666667","24.9747666666667","6500700","樹林區"
"221012","276-VK","2017/12/05 13:09:44","新北市汐止區汐萬路一段124號","121.653708333333","25.0712216666667","6501100","汐止區"
"221032","280-BY","2017/12/05 13:09:52","新北市汐止區龍安路173號","121.653593333333","25.0631016666667","6501100","汐止區"
