"lineid","car","time","location","longitude","latitude","cityid","cityname"
"234046","148-BY","2017/12/05 18:59:42","新北市永和區得和路373巷31弄4號","121.524918333333","25.0005283333333","6500400","永和區"
"234013","149-BY","2017/12/05 18:59:49","新北市永和區中山路一段62號","121.512866666667","25.0107283333333","6500400","永和區"
"234007","207-UY","2017/12/05 18:59:49","新北市永和區中山路一段51號","121.512933333333","25.0105333333333","6500400","永和區"
"234081","298-R6","2017/12/05 18:59:42","新北市永和區永亨路59號","121.521021666667","25.006085","6500400","永和區"
"234038","336-UY","2017/12/05 18:59:41","新北市永和區成功路二段207號","121.5266","24.995925","6500400","永和區"
"234064","337-UY","2017/12/05 18:59:47","新北市永和區秀朗路一段154號","121.518316666667","25.0033166666667","6500400","永和區"
"234086","338-UY","2017/12/05 18:59:43","新北市永和區永寧街121號","121.518058333333","25.0057366666667","6500400","永和區"
"234070","552-UM","2017/12/05 18:59:46","新北市永和區中興街68巷5弄1號","121.517708333333","25.0114383333333","6500400","永和區"
"234054","553-UM","2017/12/05 18:59:51","新北市永和區竹林路66巷4號","121.518148333333","25.013365","6500400","永和區"
"234017","745-BX","2017/12/05 18:59:50","新北市永和區永和路二段299號","121.516061666667","25.0162283333333","6500400","永和區"
"234030","746-BX","2017/12/05 18:59:53","新北市永和區四維街71號","121.525471666667","24.9980316666667","6500400","永和區"
"234061","AAD-866","2017/12/05 18:59:37","新北市永和區福和路311-1號","121.516218333333","25.006985","6500400","永和區"
"234042","862-TW","2017/12/05 18:59:46","新北市永和區永貞路310號","121.511791666667","25.0049133333333","6500400","永和區"
"234050","863-TW","2017/12/05 18:59:52","新北市永和區文化路153號","121.510568333333","25.016315","6500400","永和區"
"234026","9371-KE","2017/12/05 18:59:38","新北市永和區安樂路453號","121.514286666667","25.0049816666667","6500400","永和區"
"234011","9373-KE","2017/12/05 18:59:48","新北市永和區文化路121巷1號","121.512568333333","25.0151683333333","6500400","永和區"
"249005","172-UM","2017/12/05 18:59:54","新北市八里區長道坑11號","121.39495","25.122825","6502300","八里區"
"249001","173-UM","2017/12/05 18:59:36","新北市八里區龍米路二段228-1號","121.432748333333","25.1584383333333","6502300","八里區"
"248016","026-BX","2017/12/05 18:59:51","新北市五股區成泰路三段543巷18號","121.450875","25.1022333333333","6501500","五股區"
"248006","077-UY","2017/12/05 18:59:56","新北市五股區中興路一段68號","121.467353333333","25.0729366666667","6501500","五股區"
"248008","095-VK","2017/12/05 18:59:57","新北市五股區中興路一段118巷6弄1號","121.466255","25.0740316666667","6501500","五股區"
"248020","225-UY","2017/12/05 18:59:45","新北市五股區凌雲路三段57號","121.4253","25.1250216666667","6501500","五股區"
"248012","247-BX","2017/12/05 18:59:40","新北市五股區成泰路二段101號","121.43835","25.0842383333333","6501500","五股區"
"248010","272-BY","2017/12/05 18:59:55","新北市五股區水碓七路81號","121.429798333333","25.072145","6501500","五股區"
"248004","677-BX","2017/12/05 18:59:42","新北市五股區民義路二段73號","121.408973333333","25.105635","6501500","五股區"
"248002","678-BX","2017/12/05 18:59:40","新北市五股區凌雲路一段144號","121.4494","25.1022916666667","6501500","五股區"
"234023","9380-KE","2017/12/05 18:59:54","新北市永和區環河東路一段122號","121.520746666667","25.0155216666667","6500400","永和區"
"234077","969-R7","2017/12/05 18:59:39","新北市永和區智光街24號","121.518046666667","24.99914","6500400","永和區"
"234074","AAC-211","2017/12/05 18:59:46","新北市永和區環河東路二段100號","121.524123333333","25.01033","6500400","永和區"
"234067","AAC-212","2017/12/05 18:59:50","新北市永和區永和路一段22號","121.513055","25.0048116666667","6500400","永和區"
"234003","AAC-295","2017/12/05 18:59:42","新北市永和區保福路一段68-1號","121.512726666667","25.0099416666667","6500400","永和區"
"232011","375-UM","2017/12/05 18:59:51","新北市坪林區水聳淒坑27號","121.711341666667","24.934065","6502000","坪林區"
"244013","069-UM","2017/12/05 18:59:51","新北市林口區麗園二街1巷2-3號","121.377001666667","25.07009","6501700","林口區"
"244019","403-UM","2017/12/05 18:59:52","新北市林口區忠孝路646巷35號","121.379426666667","25.0671266666667","6501700","林口區"
"244009","410-SL","2017/12/05 18:59:43","新北市林口區竹林路446巷2弄1號","121.388348333333","25.085475","6501700","林口區"
"244023","483-VK","2017/12/05 18:59:45","新北市林口區文林六街62巷26號","121.371771666667","25.0818083333333","6501700","林口區"
"244017","485-VK","2017/12/05 18:59:51","新北市林口區公園路103號","121.368803333333","25.069925","6501700","林口區"
"244011","701-TV","2017/12/05 18:59:51","新北市林口區中興街3-1號","121.389145","25.0776716666667","6501700","林口區"
"244025","837-TS","2017/12/05 18:59:52","新北市林口區仁愛二路101-1號","121.367793333333","25.0750933333333","6501700","林口區"
"243011","267-VK","2017/12/05 18:59:45","新北市泰山區明志路二段279號","121.426808333333","25.047115","6501600","泰山區"
"243012","AAD-798","2017/12/05 18:59:55","新北市泰山區仁德路108號","121.432621666667","25.05689","6501600","泰山區"
"243009","297-R6","2017/12/05 18:59:47","新北市泰山區福德街7號","121.432415","25.0624916666667","6501600","泰山區"
"243015","380-SR","2017/12/05 18:59:29","新北市泰山區泰林路二段233號","121.432213333333","25.06202","6501600","泰山區"
"243014","421-VK","2017/12/05 18:59:43","新北市泰山區黎明路23號","121.420895","25.0625983333333","6501600","泰山區"
"243010","KEA-2215","2017/12/05 18:59:57","新北市泰山區辭修路24號","121.429006666667","25.058185","6501600","泰山區"
"243013","646-TV","2017/12/05 18:59:48","新北市泰山區明志路三段351巷22號","121.422666666667","25.0348466666667","6501600","泰山區"
"243016","680-BX","2017/12/05 18:59:38","新北市泰山區明志路二段137號","121.427603333333","25.050705","6501600","泰山區"
"222003","436-BY","2017/12/05 18:59:51","新北市深坑區深南路51-1號","121.621371666667","25.0101633333333","6501800","深坑區"
"222002","659-BX","2017/12/05 18:59:40","新北市深坑區文山路一段33號","121.629558333333","25.00404","6501800","深坑區"
"231041","001-UM","2017/12/05 18:59:47","新北市新店區環河路62號","121.537123333333","24.9626916666667","6500600","新店區"
"231027","0291-UT","2017/12/05 15:22:00","新北市新店區安華路28-1號","121.519228333333","24.9606966666667","6500600","新店區"
"231059","046-UY","2017/12/05 18:59:44","新北市新店區安康路一段266巷4號","121.519791666667","24.9640816666667","6500600","新店區"
"231061","047-UY","2017/12/05 18:59:56","新北市新店區安康路一段353號","121.519143333333","24.9639383333333","6500600","新店區"
"231060","106-UY","2017/12/05 18:59:49","新北市新店區安豐路49號","121.500228333333","24.9541016666667","6500600","新店區"
"231051","107-UY","2017/12/05 18:59:56","新北市新店區百忍街10巷2號","121.534951666667","24.97559","6500600","新店區"
"231048","108-UY","2017/12/05 18:59:51","新北市新店區德正街27巷29弄28號","121.545766666667","24.9722866666667","6500600","新店區"
"231053","187-VK","2017/12/05 18:59:51","新北市新店區屈尺路28號","121.548423333333","24.9226716666667","6500600","新店區"
"231050","KEA-2219","2017/12/05 18:59:46","新北市新店區新烏路一段11巷17號","121.547723333333","24.9509533333333","6500600","新店區"
"231063","268-BY","2017/12/05 18:59:34","新北市新店區車子路110號","121.50522","24.9520866666667","6500600","新店區"
"231046","278-BY","2017/12/05 18:59:45","新北市新店區直潭五街28號","121.534171666667","24.941465","6500600","新店區"
"231054","AAD-862","2017/12/05 18:59:53","新北市新店區新店路27-1號","121.53998","24.952745","6500600","新店區"
"231058","3712-VJ","2017/12/05 18:59:51","新北市新店區中興路一段121號","121.541605","24.9630483333333","6500600","新店區"
"231056","3713-VJ","2017/12/05 18:59:41","新北市新店區大同街8巷2號","121.539738333333","24.9800983333333","6500600","新店區"
"231055","4716-K9","2017/12/05 18:59:51","新北市新店區新生街30-1號","121.53955","24.9668183333333","6500600","新店區"
"231067","4772-VM","2017/12/05 18:59:55","新北市新店區安康路一段263巷33號","121.523955","24.9613833333333","6500600","新店區"
"231065","512-UM","2017/12/05 18:59:47","新北市新店區安祥路147巷84號","121.475583333333","24.955385","6500600","新店區"
"231064","515-UM","2017/12/05 18:59:41","新北市新店區安康路一段351-1號","121.519743333333","24.96405","6500600","新店區"
"231045","617-UM","2017/12/05 18:59:44","新北市新店區北新路一段75號","121.538468333333","24.9604466666667","6500600","新店區"
"231040","619-UM","2017/12/05 18:59:48","新北市新店區中正路376號","121.534895","24.9768216666667","6500600","新店區"
"231042","641-BX","2017/12/05 18:59:52","新北市新店區中興路一段280號","121.545541666667","24.9685016666667","6500600","新店區"
"231049","719-UM","2017/12/05 18:59:55","新北市新店區中正路454-5號","121.53445","24.97904","6500600","新店區"
"231062","720-UM","2017/12/05 18:59:44","新北市新店區吉安街39號","121.515441666667","24.9661183333333","6500600","新店區"
"231044","897-TW","2017/12/05 18:59:48","新北市新店區寶中路72號","121.547875","24.98058","6500600","新店區"
"231043","899-TW","2017/12/05 18:59:46","新北市新店區北新路二段2號","121.542576666667","24.9706416666667","6500600","新店區"
"231066","AKT-0513","2017/12/05 18:59:55","新北市新店區安祥路96號","121.488338333333","24.96026","6500600","新店區"
"241020","413-TH","2017/12/05 18:59:42","新北市三重區忠孝路二段6號","121.4863","25.0711933333333","6500200","三重區"
"241035","462-BY","2017/12/05 18:59:53","新北市三重區重新路四段121號","121.48488","25.0520033333333","6500200","三重區"
"241029","942-UM","2017/12/05 18:59:49","新北市三重區重安街15-1號","121.490356666667","25.057705","6500200","三重區"
"235066","003-UY","2017/12/05 18:59:56","新北市中和區中山路二段131巷5弄5號","121.502883333333","25.0028783333333","6500300","中和區"
"235063","006-UY","2017/12/05 18:59:53","新北市中和區中正路530號","121.48777","24.994425","6500300","中和區"
"235047","031-BX","2017/12/05 18:59:45","新北市中和區興南路一段117巷1弄2號","121.509351666667","24.9877216666667","6500300","中和區"
"235056","096-UM","2017/12/05 18:59:51","新北市中和區員山路466巷17弄39號","121.480433333333","25.0075616666667","6500300","中和區"
"235039","097-UM","2017/12/05 18:59:39","新北市中和區安樂路217巷32號","121.513583333333","24.998225","6500300","中和區"
"235065","098-UM","2017/12/05 18:59:51","新北市中和區勝利路35巷3弄10號","121.499525","25.007135","6500300","中和區"
"235040","150-BY","2017/12/05 18:59:40","新北市中和區宜安路7號","121.513453333333","24.99547","6500300","中和區"
"235058","151-BY","2017/12/05 18:59:14","新北市中和區員山路75號","121.48064","24.994255","6500300","中和區"
"235055","183-VK","2017/12/05 18:59:42","新北市中和區民德路25巷4號","121.46915","25.0026966666667","6500300","中和區"
"235038","185-VK","2017/12/05 18:59:36","新北市中和區立人街24-5號","121.518685","24.9941066666667","6500300","中和區"
"235049","186-VK","2017/12/05 18:59:39","新北市中和區景安路167巷32號","121.506875","24.9948466666667","6500300","中和區"
"235067","255-BX","2017/12/05 18:59:45","新北市中和區中正路899號","121.48416","25.0048216666667","6500300","中和區"
"235044","293-VK","2017/12/05 18:59:34","新北市中和區中興街161巷6弄2號","121.500686666667","24.9908716666667","6500300","中和區"
"235072","301-VK","2017/12/05 18:59:41","新北市中和區中山路二段189號","121.500248333333","25.0027316666667","6500300","中和區"
"235043","352-BY","2017/12/05 18:59:49","新北市中和區成功路67號","121.52614","24.9925333333333","6500300","中和區"
"235068","377-QA","2017/12/05 18:59:10","新北市中和區圓通路240巷10弄1號","121.494695","24.9931983333333","6500300","中和區"
"235061","378-QA","2017/12/05 18:59:54","新北市中和區民治街21巷1號","121.475358333333","25.0024216666667","6500300","中和區"
"235071","269-TV","2017/12/05 18:59:43","新北市中和區員山路36巷16-2號","121.485176666667","24.991765","6500300","中和區"
"235050","4979-A6","2017/12/05 18:59:36","新北市中和區華新街50巷10號","121.507626666667","24.9839333333333","6500300","中和區"
"235069","4980-A6","2017/12/05 18:59:44","新北市中和區圓通路6號","121.501813333333","24.9980516666667","6500300","中和區"
"235042","551-UM","2017/12/05 18:59:43","新北市中和區秀朗路三段50巷4弄2號","121.525721666667","24.9956283333333","6500300","中和區"
"235070","558-UM","2017/12/05 18:59:54","新北市中和區中和路255號","121.50498","24.9997283333333","6500300","中和區"
"235045","565-BX","2017/12/05 18:59:39","新北市中和區景新街467巷4號","121.513631666667","24.9881266666667","6500300","中和區"
"235054","640-BX","2017/12/05 18:59:48","新北市中和區民享街6-2號","121.474021666667","25.0047566666667","6500300","中和區"
"235060","647-TV","2017/12/05 18:59:49","新北市中和區民治街5巷1號","121.475011666667","25.0051433333333","6500300","中和區"
"235047","732-UM","2017/12/05 18:59:51","新北市中和區興南路二段101號","121.505973333333","24.9845983333333","6500300","中和區"
"235062","800-TS","2017/12/05 18:59:44","新北市中和區中山路二段383號","121.487071666667","25.004855","6500300","中和區"
"235057","801-TS","2017/12/05 18:59:50","新北市中和區民安街53-3號","121.47922","24.999985","6500300","中和區"
"235041","802-TS","2017/12/05 18:59:42","新北市中和區安平路132號","121.512028333333","24.997875","6500300","中和區"
"235052","805-TS","2017/12/05 18:59:48","新北市中和區興南路二段164號","121.50373","24.9826933333333","6500300","中和區"
"235048","896-TW","2017/12/05 18:59:52","新北市中和區華新街40號","121.507886666667","24.9843116666667","6500300","中和區"
"235053","900-TW","2017/12/05 18:59:41","新北市中和區華順街128號","121.46508","24.99626","6500300","中和區"
"235064","911-UM","2017/12/05 18:59:48","新北市中和區連勝街7號","121.49904","24.998415","6500300","中和區"
"235051","157-BY","2017/12/05 18:59:53","新北市中和區忠孝街106巷44號","121.513403333333","24.984275","6500300","中和區"
"235037","AAC-213","2017/12/05 18:59:54","新北市中和區自立路17號","121.52218","24.9959683333333","6500300","中和區"
"235059","AAC-215","2017/12/05 18:59:48","新北市中和區圓通路367巷20弄7號","121.491893333333","24.988485","6500300","中和區"
"220068","013-TV","2017/12/05 18:59:49","新北市板橋區縣民大道三段260號","121.477888333333","25.0231816666667","6500100","板橋區"
"220065","072-UY","2017/12/05 18:59:42","新北市板橋區民族路287巷3號","121.471123333333","25.0071083333333","6500100","板橋區"
"220086","073-UY","2017/12/05 18:59:49","新北市板橋區中正路170號","121.456455","25.0170933333333","6500100","板橋區"
"220106","075-UY","2017/12/05 18:59:54","新北市板橋區莊敬路66號","121.47182","25.0253616666667","6500100","板橋區"
"220069","AAD-861","2017/12/05 18:59:50","新北市板橋區華興街64號","121.45755","25.0048983333333","6500100","板橋區"
"220102","120-SR","2017/12/05 18:59:56","新北市板橋區懷德街233巷6號","121.480891666667","25.028585","6500100","板橋區"
"226004","205-ST","2017/12/05 18:59:35","新北市平溪區靜安路二段530巷7號","121.744901666667","25.0273766666667","6502400","平溪區"
"228001","212-TW","2017/12/05 18:59:41","新北市貢寮區仁理村保健街85號","121.92388","25.0520966666667","6502600","貢寮區"
"228002","663-BX","2017/12/05 18:59:43","新北市貢寮區福隆里東興街106巷25弄1號","121.9464","25.0183283333333","6502600","貢寮區"
"228003","828-UM","2017/12/05 18:59:55","新北市貢寮區和美里龍洞街24-1號","121.918511666667","25.1094766666667","6502600","貢寮區"
"224010","AGQ-8101","2017/12/05 18:59:39","新北市瑞芳區基山街109號","121.844476666667","25.1085916666667","6501200","瑞芳區"
"224006","676-BX","2017/12/05 18:59:39","新北市瑞芳區中正路51-1號","121.806756666667","25.1073066666667","6501200","瑞芳區"
"224009","285-BY","2017/12/05 18:59:41","新北市瑞芳區五號路253-1號","121.856018333333","25.1134983333333","6501200","瑞芳區"
"224008","275-VK","2017/12/05 18:59:53","新北市瑞芳區瑞芳街92號","121.802116666667","25.1102983333333","6501200","瑞芳區"
"224007","273-VK","2017/12/05 18:59:56","新北市瑞芳區中央路47號","121.761968333333","25.1029283333333","6501200","瑞芳區"
"224005","271-BY","2017/12/05 18:59:37","新北市瑞芳區岳王路90-1號","121.810818333333","25.111415","6501200","瑞芳區"
"227003","642-TC","2017/12/05 18:59:46","新北市雙溪區平林里康福家園17號","121.858846666667","25.0373433333333","6502500","雙溪區"
"227009","030-BX","2017/12/05 18:59:40","新北市雙溪區牡丹里中正路58巷23號","121.866415","25.0416333333333","6502500","雙溪區"
"253005","032-BX","2017/12/05 18:59:42","新北市石門區中央路37-5號","121.569993333333","25.2965583333333","6502200","石門區"
"253006","295-VK","2017/12/05 18:59:56","新北市石門區八甲3號","121.521738333333","25.2844733333333","6502200","石門區"
"222001","KEA-2212","2017/12/05 18:59:48","新北市深坑區北深路一段300號","121.624243333333","25.0057783333333","6501800","深坑區"
"208002","742-BX","2017/12/05 18:59:45","新北市金山區仁愛路37-12號","121.635766666667","25.2200166666667","6502700","金山區"
"208003","665-BX","2017/12/05 18:59:44","新北市金山區中正路26號","121.635803333333","25.2221766666667","6502700","金山區"
"208001","761-BX","2017/12/05 18:59:51","新北市金山區中山路79號","121.640301666667","25.2187433333333","6502700","金山區"
"251014","180-VK","2017/12/05 18:59:34","新北市淡水區小中寮32-1號","121.491353333333","25.2261666666667","6501000","淡水區"
"251010","413-VK","2017/12/05 18:59:58","新北市淡水區中正路一段156巷57號","121.422188333333","25.1811566666667","6501000","淡水區"
"251016","442-VK","2017/12/05 18:59:52","新北市淡水區埤島27號","121.446628333333","25.1996116666667","6501000","淡水區"
"251001","559-UM","2017/12/05 18:59:52","新北市淡水區自強路60號","121.463153333333","25.1276433333333","6501000","淡水區"
"251006","561-UM","2017/12/05 18:59:36","新北市淡水區下圭柔山91-2號","121.43063","25.20939","6501000","淡水區"
"251009","575-R6","2017/12/05 18:59:51","新北市淡水區重建街36號","121.43998","25.1712383333333","6501000","淡水區"
"251007","577-R6","2017/12/05 18:59:56","新北市淡水區民生路113巷1弄47號","121.46266","25.1385933333333","6501000","淡水區"
"251002","672-BX","2017/12/05 18:59:42","新北市淡水區中正東路71號","121.447416666667","25.1677566666667","6501000","淡水區"
"251003","673-BX","2017/12/05 18:59:46","新北市淡水區中山北路一段149巷24號","121.442913333333","25.1780516666667","6501000","淡水區"
"207003","550-UM","2017/12/05 18:59:54","新北市萬里區大鵬里頂社1號","121.656806666667","25.2096716666667","6502800","萬里區"
"207004","225-TW","2017/12/05 18:59:52","新北市萬里區萬里里獅頭路23號","121.693188333333","25.1782633333333","6502800","萬里區"
"252002","178-VK","2017/12/05 18:59:48","新北市三芝區中正路一段67-1號","121.503991666667","25.2574033333333","6502100","三芝區"
"252003","249-BX","2017/12/05 18:59:51","新北市三芝區後厝里北勢子12-1號","121.474806666667","25.25512","6502100","三芝區"
"252001","292-VK","2017/12/05 18:59:35","新北市三芝區中興街二段260號","121.501723333333","25.2530416666667","6502100","三芝區"
"237004","078-UY","2017/12/05 18:59:54","新北市三峽區有木205-1號","121.439026666667","24.851495","6500900","三峽區"
"237007","153-BY","2017/12/05 18:59:55","新北市三峽區中正路二段331-1號","121.365816666667","24.9098833333333","6500900","三峽區"
"237013","252-BX","2017/12/05 18:59:43","新北市三峽區大同路48巷17弄8-1號","121.376755","24.92909","6500900","三峽區"
"237012","275-BY","2017/12/05 18:59:46","新北市三峽區三樹路222巷47號","121.382723333333","24.9423216666667","6500900","三峽區"
"237008","302-VK","2017/12/05 18:59:47","新北市三峽區中正路一段470號","121.370525","24.9213983333333","6500900","三峽區"
"237014","433-BY","2017/12/05 18:59:46","新北市三峽區隆恩街551號","121.357376666667","24.9399766666667","6500900","三峽區"
"237006","5529-G3","2017/12/05 18:59:35","新北市三峽區溪東路233巷4弄23號","121.407346666667","24.933945","6500900","三峽區"
"237011","572-TV","2017/12/05 18:00:31","新北市三峽區橫溪路1號","121.396028333333","24.9362","6500900","三峽區"
"237016","649-BX","2017/12/05 18:59:42","新北市三峽區安坑34-8號","121.451171666667","24.92988","6500900","三峽區"
"237010","706-TV","2017/12/05 18:59:52","新北市三峽區國光街51號","121.374608333333","24.9378833333333","6500900","三峽區"
"237005","AKY-6261","2017/12/05 18:59:40","新北市三峽區中山路459巷163-3號","121.348663333333","24.9329233333333","6500900","三峽區"
"236070","105-UM","2017/12/05 18:59:56","新北市土城區清水路68號","121.456248333333","24.9816816666667","6501300","土城區"
"236043","107-UM","2017/12/05 18:59:41","新北市土城區學府路一段256巷2弄2號","121.451221666667","24.9846516666667","6501300","土城區"
"236079","166-UM","2017/12/05 18:59:44","新北市土城區中央路四段125巷2弄18號","121.416325","24.9569016666667","6501300","土城區"
"236031","253-BX","2017/12/05 18:59:39","新北市土城區慶利街9號","121.43956","24.97365","6501300","土城區"
"236027","269-VK","2017/12/05 18:59:47","新北市土城區中央路二段246號","121.441956666667","24.9748566666667","6501300","土城區"
"236015","270-VK","2017/12/05 18:59:53","新北市土城區立德路103號","121.463331666667","24.9876","6501300","土城區"
"236038","271-VK","2017/12/05 18:59:58","新北市土城區仁愛路54巷18號","121.461608333333","24.9783033333333","6501300","土城區"
"236023","401-BY","2017/12/05 18:59:49","新北市土城區延吉街168巷9號","121.468068333333","24.985855","6501300","土城區"
"236059","912-UM","2017/12/05 18:59:42","新北市土城區金城路一段118號","121.445661666667","24.9743116666667","6501300","土城區"
"236049","913-UM","2017/12/05 18:59:53","新北市土城區明德路一段280-1號","121.457165","24.9775566666667","6501300","土城區"
"236063","915-UM","2017/12/05 18:59:45","新北市土城區延和路43號","121.466126666667","24.9893783333333","6501300","土城區"
"236055","AAC-216","2017/12/05 18:59:55","新北市土城區學成路164號","121.44805","24.9891333333333","6501300","土城區"
"242025","615-BX","2017/12/05 18:36:01","新北市新莊區新泰路255巷83號","121.442336666667","25.038795","6500500","新莊區"
"238023","601-UM","2017/12/05 18:59:52","新北市樹林區工興街14巷18號","121.399753333333","25.0132183333333","6500700","樹林區"
"238019","599-UM","2017/12/05 18:59:38","新北市樹林區東榮街144號","121.41485","24.9820733333333","6500700","樹林區"
"238018","571-TV","2017/12/05 18:59:43","新北市樹林區中華路120號","121.417686666667","24.9808","6500700","樹林區"
"238021","KEA-2217","2017/12/05 18:59:39","新北市樹林區西圳街二段79號","121.386491666667","24.959235","6500700","樹林區"
"238022","KEA-2213","2017/12/05 18:59:49","新北市樹林區東興街43號","121.410645","24.97762","6500700","樹林區"
"238025","303-VK","2017/12/05 18:59:44","新北市樹林區民和街83巷10號","121.378805","24.9730133333333","6500700","樹林區"
"238017","283-BY","2017/12/05 18:59:43","新北市樹林區光興街50號","121.409883333333","25.0027","6500700","樹林區"
"238014","282-BY","2017/12/05 18:59:51","新北市樹林區潭興街125號","121.425325","24.9993183333333","6500700","樹林區"
"238020","268-VK","2017/12/05 18:59:40","新北市樹林區俊英街282號","121.423733333333","25.0133366666667","6500700","樹林區"
"238026","172-UY","2017/12/05 18:59:55","新北市樹林區佳園路一段75巷16號","121.394118333333","24.9702716666667","6500700","樹林區"
"238016","169-UY","2017/12/05 18:59:37","新北市樹林區文化街28號","121.419291666667","24.9877216666667","6500700","樹林區"
"239007","AAC-297","2017/12/05 18:59:54","新北市鶯歌區中正一路269巷34號","121.35578","24.9585483333333","6500800","鶯歌區"
"239006","891-R6","2017/12/05 18:59:36","新北市鶯歌區永智街132號","121.337031666667","24.95204","6500800","鶯歌區"
"239008","527-UM","2017/12/05 18:59:41","新北市鶯歌區國際二路18巷31號","121.337953333333","24.9756233333333","6500800","鶯歌區"
"239005","526-UM","2017/12/05 18:59:44","新北市鶯歌區大湖路349號","121.338145","24.9721333333333","6500800","鶯歌區"
"239001","417-VK","2017/12/05 18:59:46","新北市鶯歌區陽明街7號","121.341141666667","24.9564883333333","6500800","鶯歌區"
"239003","360-BY","2017/12/05 18:59:35","新北市鶯歌區鶯桃路501號","121.331601666667","24.9665533333333","6500800","鶯歌區"
"239002","359-BY","2017/12/05 18:59:50","新北市鶯歌區中山路109號","121.350215","24.9569416666667","6500800","鶯歌區"
"239004","193-VK","2017/12/05 18:59:44","新北市鶯歌區中正三路388巷1弄2號","121.326456666667","24.93497","6500800","鶯歌區"
"221008","489-VK","2017/12/05 18:59:48","新北市汐止區康寧街753巷2弄22號","121.640196666667","25.0746016666667","6501100","汐止區"
"221036","130-UY","2017/12/05 18:59:50","新北市汐止區忠孝東路304號","121.664246666667","25.0687933333333","6501100","汐止區"
"221010","269-BY","2017/12/05 18:59:40","新北市汐止區康寧街901號","121.651316666667","25.0750316666667","6501100","汐止區"
"221012","276-VK","2017/12/05 13:24:26","新北市汐止區汐萬路一段256巷3號","121.653461666667","25.0746616666667","6501100","汐止區"
"221012","278-VK","2017/12/05 18:59:41","新北市汐止區康寧街901號","121.650828333333","25.0752666666667","6501100","汐止區"
"221023","279-VK","2017/12/05 18:59:53","新北市汐止區康寧街901號","121.65099","25.0752233333333","6501100","汐止區"
"221032","280-BY","2017/12/05 18:59:36","新北市汐止區橫科路407巷30弄28號","121.62729","25.048285","6501100","汐止區"
"221027","281-BY","2017/12/05 18:59:54","新北市汐止區康寧街901號","121.651421666667","25.0749916666667","6501100","汐止區"
"221029","298-VK","2017/12/05 18:59:51","新北市汐止區樟樹一路258號","121.642323333333","25.0674333333333","6501100","汐止區"
"221021","299-VK","2017/12/05 18:59:58","新北市汐止區康寧街901號","121.651581666667","25.0750716666667","6501100","汐止區"
"221031","353-TW","2017/12/05 18:59:50","新北市汐止區福德二路185號","121.63023","25.0647433333333","6501100","汐止區"
"221015","567-BX","2017/12/05 18:59:51","新北市汐止區汐萬路一段312號","121.650571666667","25.0753266666667","6501100","汐止區"
"221025","623-UM","2017/12/05 18:59:42","新北市汐止區康寧街901號","121.651611666667","25.0749633333333","6501100","汐止區"
"221038","646-BX","2017/12/05 18:59:41","新北市汐止區汐萬路一段312號","121.650701666667","25.0752433333333","6501100","汐止區"
"221033","647-BX","2017/12/05 18:59:44","新北市汐止區南勢街1巷1號","121.627053333333","25.0374066666667","6501100","汐止區"
"221002","707-TV","2017/12/05 18:59:46","新北市汐止區大同路一段4號","121.621106666667","25.0550066666667","6501100","汐止區"
"221018","753-BX","2017/12/05 18:59:44","新北市汐止區大同路二段364號","121.657445","25.06724","6501100","汐止區"
"220079","145-BY","2017/12/05 18:59:45","新北市板橋區民權路202巷9弄62號","121.459066666667","25.01574","6500100","板橋區"
"220037","201-UY","2017/12/05 18:59:46","新北市板橋區民生路二段89-6號","121.470665","25.0192866666667","6500100","板橋區"
"220082","610-BX","2017/12/05 18:59:36","新北市板橋區滿平街111號","121.428408333333","24.9886016666667","6500100","板橋區"
"220080","256-TC","2017/12/05 18:59:49","新北市板橋區大觀路二段265巷1弄14號","121.443485","24.99847","6500100","板橋區"
"220091","267-BY","2017/12/05 18:59:48","新北市板橋區雙十路二段47巷38號","121.475278333333","25.025665","6500100","板橋區"
"220056","276-BY","2017/12/05 18:59:56","新北市板橋區信義路150巷38號","121.457255","24.9918016666667","6500100","板橋區"
"220072","277-BY","2017/12/05 18:59:37","新北市板橋區溪北路164號","121.430778333333","24.9881266666667","6500100","板橋區"
"220101","280-UM","2017/12/05 18:59:51","新北市板橋區文化路二段182巷11號","121.47205","25.0267583333333","6500100","板橋區"
"220071","283-VK","2017/12/05 18:59:45","新北市板橋區重慶路239號","121.46306","25.0007733333333","6500100","板橋區"
"220094","285-UM","2017/12/05 18:59:52","新北市板橋區文化路二段76號","121.469473333333","25.0249683333333","6500100","板橋區"
"220053","285-VK","2017/12/05 18:59:47","新北市板橋區中山路二段89巷45號","121.473646666667","25.0172433333333","6500100","板橋區"
"220083","286-VK","2017/12/05 18:59:55","新北市板橋區大觀路一段38巷156弄9號","121.442425","25.0050133333333","6500100","板橋區"
"220081","287-VK","2017/12/05 18:59:56","新北市板橋區光華街19巷31號","121.453046666667","25.0118883333333","6500100","板橋區"
"220090","288-VK","2017/12/05 18:59:50","新北市板橋區四維路177巷2弄2號","121.464215","25.0264016666667","6500100","板橋區"
"220061","293-UM","2017/12/05 18:59:41","新北市板橋區富山街87號","121.47662","25.02187","6500100","板橋區"
"220084","296-UM","2017/12/05 18:59:50","新北市板橋區龍興街44號","121.443166666667","25.0008133333333","6500100","板橋區"
"220075","297-UM","2017/12/05 18:59:36","新北市板橋區館前西路150號","121.455563333333","25.0083783333333","6500100","板橋區"
"220062","305-R5","2017/12/05 18:59:41","新北市板橋區民享街138號","121.477886666667","25.016435","6500100","板橋區"
"220092","307-R5","2017/12/05 18:59:48","新北市板橋區漢生東路3號","121.46464","25.0176766666667","6500100","板橋區"
"220098","317-R6","2017/12/05 18:59:46","新北市板橋區民有街32號","121.465985","25.0254166666667","6500100","板橋區"
"220064","486-VK","2017/12/05 18:59:51","新北市板橋區縣民大道二段106號","121.466781666667","25.0153433333333","6500100","板橋區"
"220089","487-VK","2017/12/05 18:59:39","新北市板橋區文化路二段315號","121.472103333333","25.029685","6500100","板橋區"
"220088","491-VK","2017/12/05 18:59:47","新北市板橋區民生路二段222號","121.469141666667","25.0217483333333","6500100","板橋區"
"220035","560-BX","2017/12/05 18:59:53","新北市板橋區中正路341巷21號","121.454281666667","25.0201166666667","6500100","板橋區"
"220103","561-BX","2017/12/05 18:59:43","新北市板橋區介壽街119號","121.470543333333","25.0186016666667","6500100","板橋區"
"220063","609-BX","2017/12/05 18:59:45","新北市板橋區中山路二段132號","121.476323333333","25.0168783333333","6500100","板橋區"
"220057","686-BX","2017/12/05 18:59:42","新北市板橋區館前西路49號","121.45784","25.0066766666667","6500100","板橋區"
"220077","687-BX","2017/12/05 18:59:37","新北市板橋區龍興街24號","121.442985","25.0002733333333","6500100","板橋區"
"220093","689-BX","2017/12/05 18:59:43","新北市板橋區文化路一段479巷42號","121.467896666667","25.0234916666667","6500100","板橋區"
"220054","741-BX","2017/12/05 18:59:44","新北市板橋區重慶路139巷2號","121.462523333333","25.0044466666667","6500100","板橋區"
"220055","827-TW","2017/12/05 18:59:50","新北市板橋區新站路3號","121.466953333333","25.0115316666667","6500100","板橋區"
"220067","829-TW","2017/12/05 18:59:47","新北市板橋區三民路二段正隆巷12弄18號","121.477641666667","25.0135716666667","6500100","板橋區"
"220096","831-TW","2017/12/05 18:59:56","新北市板橋區莒光路76號","121.471478333333","25.0240983333333","6500100","板橋區"
"220074","895-R6","2017/12/05 18:59:48","新北市板橋區林園街7-1號","121.454085","25.0092816666667","6500100","板橋區"
"220073","985-R7","2017/12/05 18:59:52","新北市板橋區民權路226號","121.458586666667","25.014335","6500100","板橋區"
"220097","AAC-210","2017/12/05 18:59:40","新北市板橋區四維路137巷31號","121.463755","25.02463","6500100","板橋區"
"220070","AAC-253","2017/12/05 18:59:35","新北市板橋區四川路一段294號","121.458641666667","25.0006","6500100","板橋區"
