"lineid","car","time","location","longitude","latitude","cityid","cityname"
"234046","148-BY","2017/12/05 19:29:42","新北市永和區秀朗路二段245號","121.526331666667","24.9996183333333","6500400","永和區"
"234013","149-BY","2017/12/05 19:29:49","新北市永和區信義路14-1號","121.514353333333","25.012065","6500400","永和區"
"234007","207-UY","2017/12/05 19:29:49","新北市永和區永和路一段127號","121.514023333333","25.00836","6500400","永和區"
"234081","298-R6","2017/12/05 19:29:56","新北市永和區福和路7巷15弄20號","121.526196666667","25.0073233333333","6500400","永和區"
"234038","336-UY","2017/12/05 19:29:41","新北市永和區民樂街41巷1號","121.52744","25.0001616666667","6500400","永和區"
"234064","337-UY","2017/12/05 19:29:47","新北市永和區中正路368巷1弄88號","121.52049","25.0007416666667","6500400","永和區"
"234086","338-UY","2017/12/05 19:29:50","新北市永和區林森路31-1號","121.52597","25.005065","6500400","永和區"
"234070","552-UM","2017/12/05 19:29:46","新北市永和區中正路666巷66號","121.51897","25.00906","6500400","永和區"
"234054","553-UM","2017/12/05 19:29:51","新北市永和區復興街21號","121.516076666667","25.0130916666667","6500400","永和區"
"234017","745-BX","2017/12/05 19:29:49","新北市永和區環河西路一段87號","121.512285","25.0179083333333","6500400","永和區"
"234030","746-BX","2017/12/05 19:29:37","新北市永和區民生路14號","121.522653333333","24.997645","6500400","永和區"
"234061","AAD-866","2017/12/05 19:29:37","新北市永和區中正路568號","121.517106666667","25.0061383333333","6500400","永和區"
"234042","862-TW","2017/12/05 19:29:46","新北市永和區中和路591號","121.512211666667","25.0040033333333","6500400","永和區"
"234050","863-TW","2017/12/05 19:29:41","新北市永和區仁愛路96號","121.512308333333","25.013185","6500400","永和區"
"234026","9371-KE","2017/12/05 19:29:57","新北市永和區安樂路108號","121.514181666667","24.999665","6500400","永和區"
"234011","9373-KE","2017/12/05 19:29:57","新北市永和區保福路二段106號","121.50994","25.0137366666667","6500400","永和區"
"249002","305-UY","2017/12/05 19:29:39","新北市八里區龍形一街33巷6-2號","121.449313333333","25.1294633333333","6502300","八里區"
"249003","759-BX","2017/12/05 19:29:57","新北市八里區華峰三街5號","121.400118333333","25.1464466666667","6502300","八里區"
"248008","095-VK","2017/12/05 19:29:36","新北市五股區中興路一段95巷20號","121.466536666667","25.0723083333333","6501500","五股區"
"248020","225-UY","2017/12/05 19:29:36","新北市五股區凌雲路三段94-2號","121.426416666667","25.1219333333333","6501500","五股區"
"248012","247-BX","2017/12/05 19:29:40","新北市五股區中興路四段48巷16號","121.438596666667","25.0834633333333","6501500","五股區"
"248014","261-SL","2017/12/05 19:29:54","新北市五股區民義路一段183巷14號","121.430995","25.0872316666667","6501500","五股區"
"248010","272-BY","2017/12/05 19:29:35","新北市五股區水碓一路23號","121.430676666667","25.0713133333333","6501500","五股區"
"248004","677-BX","2017/12/05 19:29:42","新北市五股區五福路77號","121.432488333333","25.0901966666667","6501500","五股區"
"248002","678-BX","2017/12/05 19:29:40","新北市五股區凌雲路一段158巷6號","121.447793333333","25.1030333333333","6501500","五股區"
"234023","9380-KE","2017/12/05 19:29:54","新北市永和區竹林路91巷21弄11號","121.52084","25.012505","6500400","永和區"
"234077","969-R7","2017/12/05 19:29:39","新北市永和區民族街43巷8號","121.518936666667","24.9983083333333","6500400","永和區"
"234074","AAC-211","2017/12/05 19:29:52","新北市永和區環河東路二段60號","121.523585","25.0111816666667","6500400","永和區"
"234067","AAC-212","2017/12/05 19:29:50","新北市永和區保平路115號","121.51085","25.0065566666667","6500400","永和區"
"234003","AAC-295","2017/12/05 19:29:37","新北市永和區福和路352號","121.514758333333","25.0073083333333","6500400","永和區"
"244019","403-UM","2017/12/05 19:29:52","新北市林口區麗園二街3巷6-3號","121.37861","25.0701016666667","6501700","林口區"
"244023","483-VK","2017/12/05 19:29:45","新北市林口區仁愛路二段688號","121.369758333333","25.0803666666667","6501700","林口區"
"243011","267-VK","2017/12/05 19:29:45","新北市泰山區貴子路67巷2號","121.4309","25.0404783333333","6501600","泰山區"
"243012","AAD-798","2017/12/05 19:29:45","新北市泰山區仁愛路36-1號","121.43145","25.0541783333333","6501600","泰山區"
"243009","297-R6","2017/12/05 19:29:47","新北市泰山區美寧街58號","121.430758333333","25.0647483333333","6501600","泰山區"
"243015","380-SR","2017/12/05 19:29:50","新北市泰山區明志路二段103-1號","121.428236666667","25.0517533333333","6501600","泰山區"
"243014","421-VK","2017/12/05 19:29:43","新北市泰山區中港西路420號","121.433838333333","25.05388","6501600","泰山區"
"243010","KEA-2215","2017/12/05 19:29:57","新北市泰山區民生路17巷43號","121.429491666667","25.05143","6501600","泰山區"
"243013","646-TV","2017/12/05 19:29:48","新北市泰山區貴子路36巷16號","121.425903333333","25.0411183333333","6501600","泰山區"
"243016","680-BX","2017/12/05 19:29:50","新北市泰山區明志路三段339號","121.422135","25.0354783333333","6501600","泰山區"
"222003","436-BY","2017/12/05 19:29:51","新北市深坑區深南路88巷1號","121.620963333333","25.0117266666667","6501800","深坑區"
"222002","659-BX","2017/12/05 19:29:40","新北市深坑區北深路一段210號","121.632606666667","25.010935","6501800","深坑區"
"231041","001-UM","2017/12/05 19:29:47","新北市新店區中正路616號","121.533946666667","24.988705","6500600","新店區"
"231027","0291-UT","2017/12/05 15:22:00","新北市新店區安華路28-1號","121.519228333333","24.9606966666667","6500600","新店區"
"231059","046-UY","2017/12/05 19:29:44","新北市新店區安和路三段126號","121.516695","24.985655","6500600","新店區"
"231061","047-UY","2017/12/05 19:29:56","新北市新店區安康路二段1-5號","121.517251666667","24.9640016666667","6500600","新店區"
"231060","106-UY","2017/12/05 19:29:49","新北市新店區安康路二段96號","121.513676666667","24.963045","6500600","新店區"
"231051","107-UY","2017/12/05 19:29:56","新北市新店區中央五街21號","121.529376666667","24.974515","6500600","新店區"
"231048","108-UY","2017/12/05 19:29:47","新北市新店區五峰路63巷16號","121.546746666667","24.9687633333333","6500600","新店區"
"231053","187-VK","2017/12/05 19:29:51","新北市新店區廣興路60巷8弄2-1號","121.542733333333","24.9127983333333","6500600","新店區"
"231050","KEA-2219","2017/12/05 19:29:06","新北市新店區秀水路31號","121.554896666667","24.9552183333333","6500600","新店區"
"231057","256-BX","2017/12/05 19:29:41","新北市新店區花園一路二段11號","121.55029","24.9335583333333","6500600","新店區"
"231063","268-BY","2017/12/05 19:29:54","新北市新店區達觀路16號","121.503071666667","24.9408966666667","6500600","新店區"
"231046","278-BY","2017/12/05 19:29:38","新北市新店區光明街175號","121.539583333333","24.9628033333333","6500600","新店區"
"231054","AAD-862","2017/12/05 19:29:35","新北市新店區文中路40號","121.539635","24.956595","6500600","新店區"
"231058","3712-VJ","2017/12/05 19:29:51","新北市新店區寶橋路85巷21號","121.545465","24.9762066666667","6500600","新店區"
"231055","4716-K9","2017/12/05 19:29:51","新北市新店區新生街13巷42-1號","121.538876666667","24.96651","6500600","新店區"
"231065","512-UM","2017/12/05 19:29:47","新北市新店區安祥路109巷1弄57號","121.477598333333","24.96082","6500600","新店區"
"231064","515-UM","2017/12/05 19:29:41","新北市新店區安忠路57巷9弄2號","121.513456666667","24.9582583333333","6500600","新店區"
"231045","617-UM","2017/12/05 19:29:44","新北市新店區北宜路二段207號","121.55311","24.953285","6500600","新店區"
"231040","619-UM","2017/12/05 19:29:48","新北市新店區北新路一段14號","121.540746666667","24.9656116666667","6500600","新店區"
"231042","641-BX","2017/12/05 19:29:52","新北市新店區中興路一段196號","121.543556666667","24.965235","6500600","新店區"
"231049","719-UM","2017/12/05 19:29:55","新北市新店區北新路三段65巷34弄28號","121.540053333333","24.9819333333333","6500600","新店區"
"231062","720-UM","2017/12/05 19:29:51","新北市新店區精忠路2號","121.532928333333","24.9598533333333","6500600","新店區"
"231044","897-TW","2017/12/05 19:29:48","新北市新店區中興路三段173號","121.544228333333","24.9806266666667","6500600","新店區"
"231043","899-TW","2017/12/05 19:29:46","新北市新店區北新路二段175號","121.542765","24.9770183333333","6500600","新店區"
"231066","AKT-0513","2017/12/05 19:29:54","新北市新店區安康路三段165巷2弄9號","121.489051666667","24.9512766666667","6500600","新店區"
"241028","022-UY","2017/12/05 19:29:45","新北市三重區中寮街90號","121.493211666667","25.0580116666667","6500200","三重區"
"241008","059-VK","2017/12/05 19:29:56","新北市三重區永福街135巷40號","121.477181666667","25.0772616666667","6500200","三重區"
"241009","060-VK","2017/12/05 19:29:42","新北市三重區仁美街123號","121.485578333333","25.08128","6500200","三重區"
"241031","061-VK","2017/12/05 19:29:41","新北市三重區重新路四段244巷52號","121.48818","25.0537116666667","6500200","三重區"
"241017","063-VK","2017/12/05 19:29:43","新北市三重區中正北路25巷25弄2號","121.493233333333","25.0626166666667","6500200","三重區"
"241026","066-VK","2017/12/05 19:29:52","新北市三重區文化南路47巷17號","121.499645","25.06128","6500200","三重區"
"241022","267-UM","2017/12/05 19:29:52","新北市三重區三民街157巷2號","121.483751666667","25.0646516666667","6500200","三重區"
"241013","270-UM","2017/12/05 19:29:39","新北市三重區仁愛街118號","121.49524","25.0746283333333","6500200","三重區"
"241025","271-UM","2017/12/05 19:29:51","新北市三重區頂崁街210巷28弄9號","121.47578","25.06718","6500200","三重區"
"241007","398-BY","2017/12/05 19:29:43","新北市三重區溪尾街124-1號","121.489513333333","25.07939","6500200","三重區"
"241006","KEA-2210","2017/12/05 19:29:54","新北市三重區三和路四段272號","121.485533333333","25.07721","6500200","三重區"
"241020","413-TH","2017/12/05 19:29:42","新北市三重區三和路四段20巷38號","121.489546666667","25.07354","6500200","三重區"
"241035","462-BY","2017/12/05 19:29:53","新北市三重區信義西街1巷11號","121.498066666667","25.0651366666667","6500200","三重區"
"241023","545-UM","2017/12/05 19:29:48","新北市三重區頂崁街99號","121.478008333333","25.0638483333333","6500200","三重區"
"241030","887-TS","2017/12/05 19:29:54","新北市三重區環河南路254巷32號","121.49009","25.051105","6500200","三重區"
"241029","942-UM","2017/12/05 19:29:49","新北市三重區大同南路161巷68號","121.495065","25.0551716666667","6500200","三重區"
"235066","003-UY","2017/12/05 19:29:36","新北市中和區景新街38號","121.503443333333","24.999265","6500300","中和區"
"235063","006-UY","2017/12/05 19:29:53","新北市中和區連城路225號","121.494136666667","24.997615","6500300","中和區"
"235047","031-BX","2017/12/05 19:29:45","新北市中和區忠孝街37巷52號","121.511085","24.9849216666667","6500300","中和區"
"235056","096-UM","2017/12/05 19:29:51","新北市中和區民富街8號","121.476971666667","25.0061916666667","6500300","中和區"
"235039","097-UM","2017/12/05 19:29:39","新北市中和區秀峰街91號","121.521111666667","24.990235","6500300","中和區"
"235065","098-UM","2017/12/05 19:29:45","新北市中和區中山路二段2巷13弄1號","121.503926666667","25.006755","6500300","中和區"
"235040","150-BY","2017/12/05 19:29:40","新北市中和區保健路46巷26弄24號","121.507931666667","24.99568","6500300","中和區"
"235058","151-BY","2017/12/05 19:29:54","新北市中和區員山路36巷16-2號","121.485183333333","24.9913833333333","6500300","中和區"
"235055","183-VK","2017/12/05 19:29:22","新北市中和區莒光路120巷17弄1號","121.471678333333","25.0010116666667","6500300","中和區"
"235038","185-VK","2017/12/05 19:29:57","新北市中和區立人街27號","121.521216666667","24.9941266666667","6500300","中和區"
"235049","186-VK","2017/12/05 19:29:39","新北市中和區景新街285巷20號","121.510633333333","24.9936316666667","6500300","中和區"
"235067","255-BX","2017/12/05 19:29:45","新北市中和區民樂路36號","121.483028333333","25.0012083333333","6500300","中和區"
"235044","293-VK","2017/12/05 19:29:34","新北市中和區捷運路122號","121.505313333333","24.9913966666667","6500300","中和區"
"235072","301-VK","2017/12/05 19:29:41","新北市中和區連城路263巷8弄7號","121.491776666667","24.99518","6500300","中和區"
"235043","352-BY","2017/12/05 19:29:49","新北市中和區南山路165號","121.502735","24.9952533333333","6500300","中和區"
"235068","377-QA","2017/12/05 19:29:50","新北市中和區連勝街57巷15號","121.498198333333","24.9969483333333","6500300","中和區"
"235061","378-QA","2017/12/05 19:29:54","新北市中和區員山路352號","121.481088333333","25.0035633333333","6500300","中和區"
"235071","269-TV","2017/12/05 19:29:43","新北市中和區新生街286號","121.483658333333","24.9966216666667","6500300","中和區"
"235050","4979-A6","2017/12/05 19:29:36","新北市中和區中正路434號","121.491225","24.9942166666667","6500300","中和區"
"235042","551-UM","2017/12/05 19:29:57","新北市中和區中安街182號","121.511196666667","24.9995716666667","6500300","中和區"
"235070","558-UM","2017/12/05 19:29:54","新北市中和區中山路二段231號","121.498253333333","25.0024833333333","6500300","中和區"
"235045","565-BX","2017/12/05 19:29:38","新北市中和區景新街425號","121.513108333333","24.9892366666667","6500300","中和區"
"235054","640-BX","2017/12/05 19:29:48","新北市中和區國光街112巷11弄1號","121.469706666667","25.001685","6500300","中和區"
"235060","647-TV","2017/12/05 19:29:40","新北市中和區員山路266巷39號","121.482861666667","25.0017966666667","6500300","中和區"
"235047","732-UM","2017/12/05 19:29:51","新北市中和區景平路259巷43號","121.506383333333","24.99283","6500300","中和區"
"235057","801-TS","2017/12/05 19:29:43","新北市中和區台新街43號","121.47978","25.0048683333333","6500300","中和區"
"235041","802-TS","2017/12/05 19:29:42","新北市中和區中和路350巷15弄2號","121.510531666667","25.0008633333333","6500300","中和區"
"235052","805-TS","2017/12/05 19:29:48","新北市中和區華新街143巷71弄35號","121.507736666667","24.9792183333333","6500300","中和區"
"235048","896-TW","2017/12/05 19:29:52","新北市中和區忠孝街129號","121.512723333333","24.988035","6500300","中和區"
"235053","900-TW","2017/12/05 19:29:41","新北市中和區華順街55號","121.466536666667","24.9985116666667","6500300","中和區"
"235064","911-UM","2017/12/05 19:29:48","新北市中和區連城路2號","121.499303333333","25.0023716666667","6500300","中和區"
"235051","157-BY","2017/12/05 19:29:53","新北市中和區景平路239巷3號","121.509976666667","24.9926466666667","6500300","中和區"
"235037","AAC-213","2017/12/05 19:29:54","新北市中和區秀朗路三段10巷14弄17號","121.524658333333","24.9965","6500300","中和區"
"235059","AAC-215","2017/12/05 19:29:47","新北市中和區圓通路252巷4號","121.49315","24.9916383333333","6500300","中和區"
"220068","013-TV","2017/12/05 19:29:50","新北市板橋區林森街1巷24號","121.4826","25.0242366666667","6500100","板橋區"
"220065","072-UY","2017/12/05 19:29:42","新北市板橋區實踐路93巷86號","121.466953333333","25.0047283333333","6500100","板橋區"
"220086","073-UY","2017/12/05 19:29:49","新北市板橋區中正路236巷78號","121.458123333333","25.0194216666667","6500100","板橋區"
"220106","075-UY","2017/12/05 19:29:34","新北市板橋區江寧路三段119號","121.473358333333","25.0331416666667","6500100","板橋區"
"220069","AAD-861","2017/12/05 19:29:50","新北市板橋區貴興路57號","121.457371666667","25.003135","6500100","板橋區"
"220102","120-SR","2017/12/05 19:29:58","新北市板橋區松柏街22巷5號","121.474721666667","25.029625","6500100","板橋區"
"247008","341-TH","2017/12/05 19:29:54","新北市蘆洲區永安南路二段238號","121.460408333333","25.0797283333333","6501400","蘆洲區"
"247004","336-TH","2017/12/05 19:29:50","新北市蘆洲區長安街154號","121.45963","25.0827","6501400","蘆洲區"
"226004","205-ST","2017/12/05 19:29:55","新北市平溪區靜安路三段392巷3號","121.784413333333","25.049565","6502400","平溪區"
"228001","212-TW","2017/12/05 19:29:41","新北市貢寮區真理里延平街68號","121.925365","25.05742","6502600","貢寮區"
"228003","828-UM","2017/12/05 19:29:55","新北市貢寮區和美里和美街27-1號","121.91336","25.08274","6502600","貢寮區"
"224010","AGQ-8101","2017/12/05 19:29:19","新北市瑞芳區基山街4號","121.845118333333","25.1097333333333","6501200","瑞芳區"
"224002","639-TC","2017/12/05 19:29:48","新北市瑞芳區三爪子坑路13巷25號","121.814111666667","25.1069666666667","6501200","瑞芳區"
"227003","642-TC","2017/12/05 19:29:46","新北市雙溪區雙溪里光復街16號","121.865086666667","25.0354583333333","6502500","雙溪區"
"227009","030-BX","2017/12/05 19:29:40","新北市雙溪區新基里新基北街43號","121.868193333333","25.0397333333333","6502500","雙溪區"
"222001","KEA-2212","2017/12/05 19:29:48","新北市深坑區北深路二段134號","121.615855","25.0028733333333","6501800","深坑區"
"208002","742-BX","2017/12/05 19:29:45","新北市金山區仁愛路59號","121.63522","25.2208616666667","6502700","金山區"
"208003","665-BX","2017/12/05 19:29:43","新北市金山區中山路263巷10號","121.63634","25.2216766666667","6502700","金山區"
"208001","761-BX","2017/12/05 19:29:53","新北市金山區南勢49號","121.628003333333","25.2206733333333","6502700","金山區"
"251005","010-UM","2017/12/05 19:29:41","新北市淡水區水源街一段53巷12號","121.444073333333","25.172935","6501000","淡水區"
"251014","180-VK","2017/12/05 19:29:54","新北市淡水區小中寮19-7號","121.484713333333","25.2297216666667","6501000","淡水區"
"251008","181-VK","2017/12/05 19:29:48","新北市淡水區中正路一段102號","121.423996666667","25.1777716666667","6501000","淡水區"
"251010","413-VK","2017/12/05 19:29:41","新北市淡水區中正路二段142-7號","121.422443333333","25.1875916666667","6501000","淡水區"
"251012","441-VK","2017/12/05 19:29:50","新北市淡水區中山北路三段164號","121.44568","25.1966016666667","6501000","淡水區"
"251016","442-VK","2017/12/05 19:29:52","新北市淡水區下圭柔山119-51號","121.450803333333","25.2084033333333","6501000","淡水區"
"251001","559-UM","2017/12/05 19:29:52","新北市淡水區民權路139號","121.460081666667","25.1365233333333","6501000","淡水區"
"251006","561-UM","2017/12/05 19:29:56","新北市淡水區中山北路一段207巷37弄8號","121.44288","25.17882","6501000","淡水區"
"251009","575-R6","2017/12/05 19:29:51","新北市淡水區大忠街5巷8號","121.443375","25.1765066666667","6501000","淡水區"
"251007","577-R6","2017/12/05 19:29:36","新北市淡水區坪頂路52巷18號","121.457705","25.16242","6501000","淡水區"
"251011","650-BX","2017/12/05 19:29:47","新北市淡水區中正東路二段143巷2弄3號","121.460635","25.147005","6501000","淡水區"
"251003","673-BX","2017/12/05 19:29:46","新北市淡水區中山北路三段116號","121.443828333333","25.1938066666667","6501000","淡水區"
"207003","550-UM","2017/12/05 19:29:54","新北市萬里區大鵬里萬里加投205號","121.643946666667","25.2151066666667","6502800","萬里區"
"207004","225-TW","2017/12/05 19:29:52","新北市萬里區萬里里瑪鋉路127-8號","121.688883333333","25.1778416666667","6502800","萬里區"
"252002","178-VK","2017/12/05 19:29:48","新北市三芝區淡金路二段18-1號","121.502703333333","25.2595366666667","6502100","三芝區"
"252001","292-VK","2017/12/05 19:29:51","新北市三芝區長勤街50-1號","121.500283333333","25.2554466666667","6502100","三芝區"
"237004","078-UY","2017/12/05 19:29:54","新北市三峽區有木143號","121.438726666667","24.8523033333333","6500900","三峽區"
"237007","153-BY","2017/12/05 19:29:55","新北市三峽區中正路二段584巷4弄5號","121.359078333333","24.906745","6500900","三峽區"
"237009","210-TH","2017/12/05 19:29:46","新北市三峽區民權街117號","121.369041666667","24.9323383333333","6500900","三峽區"
"237013","252-BX","2017/12/05 19:29:54","新北市三峽區介壽路一段316號","121.380671666667","24.930205","6500900","三峽區"
"237012","275-BY","2017/12/05 19:29:42","新北市三峽區三樹路98巷169號","121.384556666667","24.9394816666667","6500900","三峽區"
"237008","302-VK","2017/12/05 19:29:47","新北市三峽區大同路154號","121.373113333333","24.926765","6500900","三峽區"
"237014","433-BY","2017/12/05 19:29:46","新北市三峽區中園街121號","121.367501666667","24.9238416666667","6500900","三峽區"
"237006","5529-G3","2017/12/05 19:29:35","新北市三峽區中正路一段336巷15弄2號","121.369971666667","24.9249583333333","6500900","三峽區"
"237016","649-BX","2017/12/05 19:29:42","新北市三峽區成福路319號","121.429936666667","24.9237516666667","6500900","三峽區"
"237010","706-TV","2017/12/05 19:05:52","新北市三峽區復興路30-4號","121.374236666667","24.9361933333333","6500900","三峽區"
"237005","AKY-6261","2017/12/05 19:29:40","新北市三峽區復興路367巷1弄15號","121.364111666667","24.9380116666667","6500900","三峽區"
"236070","105-UM","2017/12/05 19:29:51","新北市土城區裕民路185巷36弄2號","121.45466","24.984755","6501300","土城區"
"236079","166-UM","2017/12/05 19:22:24","新北市土城區中央路四段281-9號","121.412158333333","24.9533766666667","6501300","土城區"
"236031","253-BX","2017/12/05 19:29:39","新北市土城區中央路一段332號","121.443128333333","24.9813716666667","6501300","土城區"
"236027","269-VK","2017/12/05 19:29:47","新北市土城區中央路二段61巷22號","121.443161666667","24.9787383333333","6501300","土城區"
"236023","401-BY","2017/12/05 19:29:49","新北市土城區峰廷街3號","121.469048333333","24.987345","6501300","土城區"
"236059","912-UM","2017/12/05 19:29:43","新北市土城區中央路二段280號","121.440841666667","24.9739916666667","6501300","土城區"
"236049","913-UM","2017/12/05 19:29:53","新北市土城區清水路231號","121.461138333333","24.98274","6501300","土城區"
"236055","AAC-216","2017/12/05 19:29:55","新北市土城區學府路一段276號","121.450005","24.9830516666667","6501300","土城區"
"242025","615-BX","2017/12/05 19:29:58","新北市新莊區三和路12-21號","121.44218","25.038615","6500500","新莊區"
"242009","173-VK","2017/12/05 19:29:55","新北市新莊區三和路12-21號","121.441965","25.0386283333333","6500500","新莊區"
"242019","348-TH","2017/12/05 19:29:40","新北市新莊區新泰路357巷3弄57號","121.442208333333","25.0391766666667","6500500","新莊區"
"238015","755-BX","2017/12/05 19:29:56","新北市樹林區復興路279號","121.418826666667","24.9893733333333","6500700","樹林區"
"238023","601-UM","2017/12/05 19:29:51","新北市樹林區中正路825號","121.409348333333","25.0171533333333","6500700","樹林區"
"238019","599-UM","2017/12/05 19:29:38","新北市樹林區大同街3號","121.418706666667","24.9827983333333","6500700","樹林區"
"238018","571-TV","2017/12/05 19:29:43","新北市樹林區中華路7號","121.424528333333","24.9837466666667","6500700","樹林區"
"238024","5061-A6","2017/12/05 19:29:43","新北市樹林區中山路三段155巷2號","121.395618333333","24.9725433333333","6500700","樹林區"
"238021","KEA-2217","2017/12/05 19:29:39","新北市樹林區柑園街二段303巷1號","121.371446666667","24.9503633333333","6500700","樹林區"
"238022","KEA-2213","2017/12/05 19:29:49","新北市樹林區名園街45號","121.419751666667","24.9786383333333","6500700","樹林區"
"238025","303-VK","2017/12/05 19:29:56","新北市樹林區保安二街29號","121.424788333333","24.9938483333333","6500700","樹林區"
"238017","283-BY","2017/12/05 19:29:43","新北市樹林區光興街63巷1號","121.410805","25.0024666666667","6500700","樹林區"
"238014","282-BY","2017/12/05 19:29:50","新北市樹林區保安二街64巷5弄3號","121.424438333333","24.9959933333333","6500700","樹林區"
"238020","268-VK","2017/12/05 19:29:40","新北市樹林區俊英街123巷38號","121.423563333333","25.0104383333333","6500700","樹林區"
"238026","172-UY","2017/12/05 19:29:55","新北市樹林區佳園路二段127號","121.390238333333","24.9580466666667","6500700","樹林區"
"238016","169-UY","2017/12/05 19:29:57","新北市樹林區復興路408號","121.414535","24.9850016666667","6500700","樹林區"
"239007","AAC-297","2017/12/05 19:29:54","新北市鶯歌區大湖路109巷9號","121.341401666667","24.963515","6500800","鶯歌區"
"239006","891-R6","2017/12/05 19:29:36","新北市鶯歌區文化路233號","121.353886666667","24.9532716666667","6500800","鶯歌區"
"239001","417-VK","2017/12/05 19:29:46","新北市鶯歌區鶯桃路21號","121.343795","24.9504","6500800","鶯歌區"
"239003","360-BY","2017/12/05 19:29:55","新北市鶯歌區文化路55號","121.358956666667","24.95542","6500800","鶯歌區"
"239002","359-BY","2017/12/05 19:29:50","新北市鶯歌區大湖路141-1號","121.343106666667","24.9655566666667","6500800","鶯歌區"
"239004","193-VK","2017/12/05 19:29:43","新北市鶯歌區二甲路83-1號","121.338856666667","24.933435","6500800","鶯歌區"
"221008","489-VK","2017/12/05 19:29:48","新北市汐止區康寧街145號","121.622078333333","25.06667","6501100","汐止區"
"221036","130-UY","2017/12/05 19:29:50","新北市汐止區汐萬路一段256巷1號","121.651701666667","25.0748716666667","6501100","汐止區"
"221010","269-BY","2017/12/05 19:29:40","新北市汐止區連峰街5巷2號","121.646518333333","25.0770666666667","6501100","汐止區"
"221012","276-VK","2017/12/05 13:24:26","新北市汐止區汐萬路一段256巷3號","121.653461666667","25.0746616666667","6501100","汐止區"
"221012","278-VK","2017/12/05 19:29:46","新北市汐止區大同路三段184號","121.674278333333","25.07466","6501100","汐止區"
"221023","279-VK","2017/12/05 19:29:53","新北市汐止區康寧街537號","121.634031666667","25.0689233333333","6501100","汐止區"
"221032","280-BY","2017/12/05 19:29:56","新北市汐止區康寧街901號","121.651393333333","25.0750366666667","6501100","汐止區"
"221027","281-BY","2017/12/05 19:29:54","新北市汐止區忠孝東路9號","121.65829","25.0659316666667","6501100","汐止區"
"221029","298-VK","2017/12/05 19:29:51","新北市汐止區康寧街901號","121.651625","25.0749216666667","6501100","汐止區"
"221021","299-VK","2017/12/05 19:29:58","新北市汐止區康寧街901號","121.651503333333","25.0750483333333","6501100","汐止區"
"221031","353-TW","2017/12/05 19:27:08","新北市汐止區康寧街901號","121.651386666667","25.0749916666667","6501100","汐止區"
"221015","567-BX","2017/12/05 19:29:51","新北市汐止區康寧街901號","121.651568333333","25.07494","6501100","汐止區"
"221025","623-UM","2017/12/05 19:29:42","新北市汐止區新台五路二段10號","121.660306666667","25.0650366666667","6501100","汐止區"
"221038","646-BX","2017/12/05 19:29:41","新北市汐止區汐萬路一段191號","121.652481666667","25.0716716666667","6501100","汐止區"
"221033","647-BX","2017/12/05 19:29:44","新北市汐止區南勢街1巷2號","121.626963333333","25.0375183333333","6501100","汐止區"
"221002","707-TV","2017/12/05 19:29:46","新北市汐止區大同路一段339-2號","121.638153333333","25.0598483333333","6501100","汐止區"
"221018","753-BX","2017/12/05 19:29:44","新北市汐止區康寧街901號","121.651601666667","25.074905","6501100","汐止區"
"220079","145-BY","2017/12/05 19:29:45","新北市板橋區民權路310號","121.457171666667","25.016285","6500100","板橋區"
"220037","201-UY","2017/12/05 19:01:19","新北市板橋區民生路二段120號","121.470398333333","25.0195716666667","6500100","板橋區"
"220082","610-BX","2017/12/05 19:29:56","新北市板橋區金門街96-2號","121.433095","24.9923883333333","6500100","板橋區"
"220080","256-TC","2017/12/05 19:29:49","新北市板橋區大觀路二段37巷130號","121.449411666667","25.0020583333333","6500100","板橋區"
"220091","267-BY","2017/12/05 19:29:48","新北市板橋區文聖街149巷23弄16號","121.479205","25.0289666666667","6500100","板橋區"
"220056","276-BY","2017/12/05 19:29:38","新北市板橋區信義路1巷26弄31號","121.458663333333","24.9966633333333","6500100","板橋區"
"220072","277-BY","2017/12/05 19:29:37","新北市板橋區金門街253巷12號","121.432915","24.9882833333333","6500100","板橋區"
"220101","280-UM","2017/12/05 19:29:51","新北市板橋區縣民大道三段133巷26號","121.47732","25.0237016666667","6500100","板橋區"
"220071","283-VK","2017/12/05 19:29:56","新北市板橋區忠孝路24巷7號","121.460163333333","25.001475","6500100","板橋區"
"220094","285-UM","2017/12/05 19:29:52","新北市板橋區吳鳳路50巷7號","121.467868333333","25.030505","6500100","板橋區"
"220053","285-VK","2017/12/05 19:29:47","新北市板橋區永豐街245號","121.477596666667","25.0213233333333","6500100","板橋區"
"220083","286-VK","2017/12/05 19:29:46","新北市板橋區大觀路二段174巷173弄11號","121.441233333333","25.0038633333333","6500100","板橋區"
"220081","287-VK","2017/12/05 19:29:36","新北市板橋區大觀路一段28巷1弄102號","121.451738333333","25.00644","6500100","板橋區"
"220090","288-VK","2017/12/05 19:29:50","新北市板橋區長江路一段98號","121.459281666667","25.029475","6500100","板橋區"
"220061","293-UM","2017/12/05 19:29:41","新北市板橋區中山路二段251號","121.477175","25.01784","6500100","板橋區"
"220084","296-UM","2017/12/05 19:29:55","新北市板橋區篤行路三段玉平巷76弄7號","121.42749","24.9858466666667","6500100","板橋區"
"220075","297-UM","2017/12/05 19:29:36","新北市板橋區中正路275巷36號","121.454355","25.0186583333333","6500100","板橋區"
"220062","305-R5","2017/12/05 19:29:41","新北市板橋區三民路二段123巷1號","121.479523333333","25.0156316666667","6500100","板橋區"
"220092","307-R5","2017/12/05 19:29:52","新北市板橋區光武街4巷11號","121.468216666667","25.02548","6500100","板橋區"
"220098","317-R6","2017/12/05 19:29:41","新北市板橋區民生路三段263巷2弄2號","121.463941666667","25.0294233333333","6500100","板橋區"
"220064","486-VK","2017/12/05 19:29:51","新北市板橋區重慶路8號","121.460703333333","25.0080483333333","6500100","板橋區"
"220089","487-VK","2017/12/05 19:29:39","新北市板橋區文化路一段31號","121.460206666667","25.012955","6500100","板橋區"
"220088","491-VK","2017/12/05 19:29:55","新北市板橋區雙十路二段167號","121.474218333333","25.0285266666667","6500100","板橋區"
"220035","560-BX","2017/12/05 19:29:53","新北市板橋區中正路332-9號","121.454348333333","25.022855","6500100","板橋區"
"220103","561-BX","2017/12/05 19:29:45","新北市板橋區文化路一段268號","121.467375","25.0208883333333","6500100","板橋區"
"220063","609-BX","2017/12/05 19:29:45","新北市板橋區萬安街53巷8號","121.483435","25.0236516666667","6500100","板橋區"
"220057","686-BX","2017/12/05 19:29:42","新北市板橋區五權街30巷1號","121.464795","24.99339","6500100","板橋區"
"220077","687-BX","2017/12/05 19:29:37","新北市板橋區僑中二街108巷2號","121.445898333333","25.0073916666667","6500100","板橋區"
"220093","689-BX","2017/12/05 19:29:43","新北市板橋區英士路49-1號","121.461135","25.0245233333333","6500100","板橋區"
"220054","741-BX","2017/12/05 19:29:37","新北市板橋區光明街71號","121.461968333333","25.0028216666667","6500100","板橋區"
"220055","827-TW","2017/12/05 19:29:41","新北市板橋區重慶路278巷5號","121.462658333333","24.9996516666667","6500100","板橋區"
"220067","829-TW","2017/12/05 19:29:47","新北市板橋區漢生東路313巷6號","121.472426666667","25.0083016666667","6500100","板橋區"
"220096","831-TW","2017/12/05 19:29:55","新北市板橋區雙十路二段47巷15號","121.475713333333","25.0257216666667","6500100","板橋區"
"220074","895-R6","2017/12/05 19:29:48","新北市板橋區後菜園街4號","121.457723333333","25.0104866666667","6500100","板橋區"
"220073","985-R7","2017/12/05 19:29:38","新北市板橋區國光路3號","121.45639","25.01734","6500100","板橋區"
"220097","AAC-210","2017/12/05 19:29:44","新北市板橋區陽明街133號","121.46328","25.0239983333333","6500100","板橋區"
"220070","AAC-253","2017/12/05 19:29:55","新北市板橋區四川路一段137號","121.459838333333","25.004465","6500100","板橋區"
