"lineid","car","time","location","longitude","latitude","cityid","cityname"
"231007","189-VK","2017/10/10 08:49:31","新北市新店區新潭路三段200號","121.506971666667","24.9047916666667","6500600","新店區"
"231009","192-VK","2017/10/10 08:49:42","新北市新店區新烏路三段寶島巷2弄3號","121.551958333333","24.8986483333333","6500600","新店區"
"220034","015-TV","2017/10/10 08:49:40","新北市新莊區瓊泰路77巷15號","121.442308333333","25.02894","6500100","板橋區"
"226005","5620-A6","2017/10/10 08:49:39","新北市平溪區望古里灰3-1號","121.756023333333","25.0305866666667","6502400","平溪區"
"226002","7418-A5","2017/10/10 08:49:50","新北市平溪區東勢里芊蓁坑2號","121.746958333333","25.0057783333333","6502400","平溪區"
"226003","AGD-0702","2017/10/10 08:49:47","新北市平溪區十分里十分街240號","121.778038333333","25.0442183333333","6502400","平溪區"
"223002","198-BX","2017/10/10 08:49:11","新北市石碇區石崁1號","121.651551666667","25.0022766666667","6501900","石碇區"
"223003","205-TH","2017/10/10 08:49:19","新北市石碇區北宜路五段81號","121.64555","24.9519466666667","6501900","石碇區"
"223008","406-TH","2017/10/10 08:49:52","新北市石碇區光明路10-3號","121.680728333333","25.0285733333333","6501900","石碇區"
"223001","437-BY","2017/10/10 08:49:35","新北市石碇區北宜路六段水底寮巷3號","121.653461666667","24.946405","6501900","石碇區"
"223004","660-BX","2017/10/10 08:49:48","新北市石碇區磨石坑39-3號","121.688995","24.965535","6501900","石碇區"
"223007","661-BX","2017/10/10 08:49:45","新北市石碇區光明路2號","121.675003333333","25.0282016666667","6501900","石碇區"
"223005","677-TV","2017/10/10 08:49:38","新北市石碇區崩山58號","121.686861666667","24.9658166666667","6501900","石碇區"
"227006","282-VK","2017/10/10 08:49:45","新北市雙溪區上林里大瀨8號","121.827165","25.0240183333333","6502500","雙溪區"
"227012","030-BX","2017/10/10 08:49:42","新北市雙溪區泰平里料角坑32號","121.795683333333","24.97695","6502500","雙溪區"
"252004","702-TV","2017/10/10 08:49:47","新北市三芝區興華里田心子31號","121.48886","25.2004233333333","6502100","三芝區"
"252007","AAC-283","2017/10/10 08:49:26","新北市三芝區後厝里番子崙6號","121.486385","25.2417166666667","6502100","三芝區"
"237001","159-UY","2017/10/10 08:49:44","新北市三峽區大學路156號","121.373755","24.945725","6500900","三峽區"
"236008","165-UM","2017/10/10 08:49:47","新北市土城區中央路三段184巷9-1號","121.429665","24.9656866666667","6501300","土城區"
"236002","339-SR","2017/10/10 07:38:45","新北市土城區南天母路139號","121.450881666667","24.9507133333333","6501300","土城區"
"236006","498-BY","2017/10/10 08:49:33","新北市土城區承天路4巷45號","121.435753333333","24.9596016666667","6501300","土城區"
