"lineid","car","time","location","longitude","latitude","cityid","cityname"
"231007","189-VK","2017/10/10 09:59:51","新北市新店區新潭路三段215巷25號","121.508161666667","24.9040933333333","6500600","新店區"
"231009","192-VK","2017/10/10 09:43:20","新北市新店區平廣路一段256號","121.50787","24.8883016666667","6500600","新店區"
"227006","282-VK","2017/10/10 09:45:45","新北市雙溪區長源里柑腳58-1號","121.793963333333","25.0067883333333","6502500","雙溪區"
"227012","030-BX","2017/10/10 09:59:42","新北市雙溪區泰平里烏山路15號","121.79457","24.9502766666667","6502500","雙溪區"
"252004","702-TV","2017/10/10 09:59:47","新北市三芝區中興街二段76號","121.499991666667","25.2545833333333","6502100","三芝區"
"252007","AAC-283","2017/10/10 09:59:46","新北市三芝區新庄里新庄子57-4號","121.507795","25.2785233333333","6502100","三芝區"
"237001","159-UY","2017/10/10 09:59:44","新北市三峽區中山路459巷52-1號","121.356286666667","24.9363733333333","6500900","三峽區"
"236002","339-SR","2017/10/10 07:38:45","新北市土城區南天母路139號","121.450881666667","24.9507133333333","6501300","土城區"
"236006","498-BY","2017/10/10 09:59:53","新北市土城區光明街1號","121.442076666667","24.974965","6501300","土城區"
