"lineid","car","time","location","longitude","latitude","cityid","cityname"
"231007","189-VK","2017/10/10 10:29:51","新北市新店區小坑三路52-1號","121.51719","24.90836","6500600","新店區"
"231009","192-VK","2017/10/10 10:28:22","新北市新店區小坑一路21-1號","121.530778333333","24.911295","6500600","新店區"
"227006","282-VK","2017/10/10 10:29:45","新北市雙溪區上林里新寮子13-5號","121.838963333333","25.0334533333333","6502500","雙溪區"
"227012","030-BX","2017/10/10 10:29:42","新北市雙溪區泰平里料角坑40號","121.793068333333","24.95965","6502500","雙溪區"
"252007","AAC-283","2017/10/10 10:29:46","新北市三芝區埔坪里埔頭坑41號","121.504603333333","25.2645366666667","6502100","三芝區"
"236002","339-SR","2017/10/10 07:38:45","新北市土城區南天母路139號","121.450881666667","24.9507133333333","6501300","土城區"
