"lineid","car","time","location","longitude","latitude","cityid","cityname"
"234046","148-BY","2017/10/10 13:59:40","新北市永和區永亨路166號","121.52617","25.0034566666667","6500400","永和區"
"234012","149-BY","2017/10/10 13:59:50","新北市永和區保生路55號","121.504713333333","25.0105583333333","6500400","永和區"
"234005","207-UY","2017/10/10 13:59:33","新北市中和區中和路262號","121.508375","24.9995233333333","6500400","永和區"
"234078","298-R6","2017/10/10 13:59:53","新北市永和區國中路1號","121.52396","25.004425","6500400","永和區"
"234036","336-UY","2017/10/10 13:59:31","新北市永和區成功路二段152-2號","121.526513333333","24.9966883333333","6500400","永和區"
"234062","337-UY","2017/10/10 13:59:45","新北市永和區中正路368巷1弄47號","121.519198333333","25.00127","6500400","永和區"
"234084","338-UY","2017/10/10 13:59:42","新北市永和區福和路81號","121.522376666667","25.007935","6500400","永和區"
"234068","552-UM","2017/10/10 13:59:36","新北市永和區國光路39-2號","121.519116666667","25.008015","6500400","永和區"
"234052","553-UM","2017/10/10 13:59:51","新北市永和區竹林路39巷25號","121.519253333333","25.0149666666667","6500400","永和區"
"234015","745-BX","2017/10/10 13:59:48","新北市永和區文化路22號","121.51526","25.0151066666667","6500400","永和區"
"234028","746-BX","2017/10/10 13:59:43","新北市永和區四維街75號","121.52516","24.9979083333333","6500400","永和區"
"234060","AAD-866","2017/10/10 13:59:50","新北市永和區中正路151巷10號","121.515766666667","24.9987616666667","6500400","永和區"
"234040","862-TW","2017/10/10 13:59:51","新北市永和區中和路421巷5弄29號","121.508245","25.0005716666667","6500400","永和區"
"234048","863-TW","2017/10/10 13:59:41","新北市永和區保安路254號","121.506266666667","25.012485","6500400","永和區"
"234025","9371-KE","2017/10/10 13:59:50","新北市永和區安樂路465號","121.514243333333","25.005385","6500400","永和區"
"234010","9373-KE","2017/10/10 13:59:43","新北市永和區保生路55號","121.504741666667","25.010645","6500400","永和區"
"248017","225-UY","2017/10/10 13:59:43","新北市五股區民義路一段238-7號","121.428855","25.0913283333333","6501500","五股區"
"234022","9380-KE","2017/10/10 13:59:43","新北市永和區永和路二段271號","121.515921666667","25.0154733333333","6500400","永和區"
"234076","969-R7","2017/10/10 13:59:48","新北市永和區民族街43巷11號","121.51903","24.9984516666667","6500400","永和區"
"234072","AAC-211","2017/10/10 13:59:31","新北市永和區豫溪街185號","121.522478333333","25.0103983333333","6500400","永和區"
"234066","AAC-212","2017/10/10 13:59:43","新北市永和區永貞路362號","121.51022","25.0067033333333","6500400","永和區"
"234001","AAC-295","2017/10/10 13:59:36","新北市永和區福和路326號","121.515648333333","25.0072683333333","6500400","永和區"
"244002","657-BX","2017/10/10 13:59:33","新北市林口區南勢里31號","121.352123333333","25.0704816666667","6501700","林口區"
"231028","046-UY","2017/10/10 13:59:50","新北市新店區安和路三段85號","121.51785","24.9839","6500600","新店區"
"231030","047-UY","2017/10/10 13:59:37","新北市新店區安民街65巷21-2號","121.515218333333","24.9674616666667","6500600","新店區"
"231029","106-UY","2017/10/10 13:59:35","新北市新店區安康路一段355-4號","121.517318333333","24.9639433333333","6500600","新店區"
"231012","108-UY","2017/10/10 13:59:49","新北市新店區五峰路71號","121.54639","24.9681416666667","6500600","新店區"
"231018","110-UY","2017/10/10 13:59:30","新北市新店區中央路196號","121.530815","24.9746066666667","6500600","新店區"
"231020","187-VK","2017/10/10 13:59:37","新北市新店區湖子內路22號","121.542323333333","24.9308516666667","6500600","新店區"
"231069","189-VK","2017/10/10 11:52:26","新北市新店區安華路28-1號","121.519555","24.960925","6500600","新店區"
"231015","215-TC","2017/10/10 13:59:39","新北市新店區郵政路4巷10號","121.556213333333","24.95182","6500600","新店區"
"231026","256-BX","2017/10/10 13:59:37","新北市新店區安康路一段3-1號","121.534138333333","24.960755","6500600","新店區"
"231023","AAD-862","2017/10/10 13:59:44","新北市新店區文中路35巷12號","121.539835","24.9568466666667","6500600","新店區"
"231002","355-BY","2017/10/10 13:59:41","新北市新店區中正路629號","121.533896666667","24.9891166666667","6500600","新店區"
"231027","3712-VJ","2017/10/10 13:59:30","新北市新店區北宜路一段3號","121.538588333333","24.9585016666667","6500600","新店區"
"231024","3713-VJ","2017/10/10 13:59:39","新北市新店區新生街13巷24號","121.538958333333","24.96631","6500600","新店區"
"231025","4716-K9","2017/10/10 13:59:44","新北市新店區中正路277號","121.537653333333","24.9743766666667","6500600","新店區"
"231038","4715-K9","2017/10/10 13:59:48","新北市新店區溪洲路121號","121.531425","24.9626566666667","6500600","新店區"
"231036","513-UM","2017/10/10 13:59:50","新北市新店區安祥路110巷30弄5號","121.473815","24.956875","6500600","新店區"
"231035","515-UM","2017/10/10 13:59:42","新北市新店區安康路二段1-5號","121.516978333333","24.9639183333333","6500600","新店區"
"231001","619-UM","2017/10/10 13:59:52","新北市新店區三民路24號","121.537148333333","24.9710283333333","6500600","新店區"
"231003","641-BX","2017/10/10 13:59:35","新北市新店區北宜路一段3號","121.53839","24.958525","6500600","新店區"
"231034","645-TV","2017/10/10 13:59:40","新北市新店區達觀路43號","121.50296","24.938175","6500600","新店區"
"231013","719-UM","2017/10/10 13:59:29","新北市新店區明德路66號","121.541561666667","24.9795483333333","6500600","新店區"
"231032","720-UM","2017/10/10 13:59:40","新北市新店區華城路36巷1-3號","121.527576666667","24.95542","6500600","新店區"
"231005","897-TW","2017/10/10 13:59:37","新北市新店區中興路三段248號","121.542961666667","24.98393","6500600","新店區"
"231006","898-TW","2017/10/10 13:59:38","新北市新店區北宜路二段213號","121.55325","24.95335","6500600","新店區"
"231004","899-TW","2017/10/10 13:59:51","新北市新店區北新路二段167號","121.542843333333","24.97634","6500600","新店區"
"231037","AKT-0513","2017/10/10 13:59:40","新北市新店區安康路三段207巷15號","121.4884","24.95083","6500600","新店區"
"235030","003-UY","2017/10/10 13:59:38","新北市中和區中山路二段131巷5弄4號","121.5029","25.00287","6500300","中和區"
"235028","005-UY","2017/10/10 13:59:36","新北市中和區泰和街44巷16號","121.498691666667","25.0004116666667","6500300","中和區"
"235027","006-UY","2017/10/10 13:59:38","新北市中和區中正路572號","121.48641","24.9947783333333","6500300","中和區"
"235020","096-UM","2017/10/10 13:59:40","新北市中和區員山路514巷13號","121.479563333333","25.0097083333333","6500300","中和區"
"235003","097-UM","2017/10/10 13:59:52","新北市中和區景平路64巷18號","121.522333333333","24.9913233333333","6500300","中和區"
"235029","098-UM","2017/10/10 13:59:32","新北市中和區勝利路35巷1弄36號","121.500395","25.00801","6500300","中和區"
"235004","150-BY","2017/10/10 13:59:52","新北市中和區保健路61巷7號","121.509695","24.9974633333333","6500300","中和區"
"235022","151-BY","2017/10/10 13:59:50","新北市中和區員山路100號","121.480955","24.9947866666667","6500300","中和區"
"235019","183-VK","2017/10/10 13:59:36","新北市中和區中山路三段208號","121.471513333333","25.0065316666667","6500300","中和區"
"235002","185-VK","2017/10/10 13:59:38","新北市中和區大勇街43巷11號","121.517101666667","24.9946266666667","6500300","中和區"
"235013","186-VK","2017/10/10 13:59:47","新北市中和區景安路100號","121.505418333333","24.99559","6500300","中和區"
"235031","255-BX","2017/10/10 13:59:44","新北市中和區新生街260號","121.483803333333","24.9973166666667","6500300","中和區"
"235008","293-VK","2017/10/10 13:59:45","新北市中和區中興街161巷3弄1號","121.500428333333","24.9909383333333","6500300","中和區"
"235036","301-VK","2017/10/10 13:59:34","新北市中和區中山路二段108號","121.5031","25.004","6500300","中和區"
"235007","352-BY","2017/10/10 13:59:44","新北市中和區秀朗路三段72號","121.526325","24.9944016666667","6500300","中和區"
"235032","375-QA","2017/10/10 13:59:39","新北市中和區圓通路162巷1號","121.497188333333","24.9953566666667","6500300","中和區"
"235015","376-QA","2017/10/10 13:59:37","新北市中和區忠孝街19巷14號","121.510098333333","24.9832466666667","6500300","中和區"
"235025","378-QA","2017/10/10 13:59:37","新北市中和區自治街42號","121.475351666667","25.0032933333333","6500300","中和區"
"235035","269-TV","2017/10/10 13:59:42","新北市中和區建一路126號","121.488001666667","24.99996","6500300","中和區"
"235014","4979-A6","2017/10/10 13:59:31","新北市中和區華新街50巷6號","121.507693333333","24.9840316666667","6500300","中和區"
"235033","4980-A6","2017/10/10 13:59:38","新北市中和區中和路217巷10號","121.504313333333","25.000515","6500300","中和區"
"235006","551-UM","2017/10/10 13:59:42","新北市中和區秀朗路三段22巷22號","121.525383333333","24.996145","6500300","中和區"
"235034","558-UM","2017/10/10 13:59:30","新北市中和區廣福路112巷6號","121.502256666667","25.0014666666667","6500300","中和區"
"235009","565-BX","2017/10/10 13:59:45","新北市中和區南山路208巷1弄4號","121.505961666667","24.9900183333333","6500300","中和區"
"235018","640-BX","2017/10/10 13:59:42","新北市中和區中山路三段147號","121.473711666667","25.0061233333333","6500300","中和區"
"235024","647-TV","2017/10/10 13:59:42","新北市中和區自治街38號","121.475188333333","25.0031566666667","6500300","中和區"
"235011","732-UM","2017/10/10 13:59:44","新北市中和區興南路二段92號","121.505261666667","24.98444","6500300","中和區"
"235010","733-UM","2017/10/10 13:59:39","新北市中和區興南路一段135巷17號","121.509363333333","24.9869933333333","6500300","中和區"
"235026","800-TS","2017/10/10 13:59:41","新北市中和區中山路二段366巷15號","121.491595","25.0046366666667","6500300","中和區"
"235021","801-TS","2017/10/10 13:59:51","新北市中和區民安街53-1號","121.479243333333","24.9999816666667","6500300","中和區"
"235005","802-TS","2017/10/10 13:59:50","新北市中和區永貞路239巷15號","121.512646666667","25.0030916666667","6500300","中和區"
"235016","805-TS","2017/10/10 13:59:44","新北市中和區興南路二段261巷6-3號","121.502535","24.97957","6500300","中和區"
"235012","896-TW","2017/10/10 13:59:39","新北市中和區華新街35號","121.507766666667","24.9846633333333","6500300","中和區"
"235017","900-TW","2017/10/10 13:59:49","新北市中和區華順街135巷9號","121.46579","24.9961383333333","6500300","中和區"
"235001","AAC-213","2017/10/10 13:59:41","新北市中和區自立路99巷13號","121.5227","24.9947716666667","6500300","中和區"
"235023","AAC-215","2017/10/10 13:59:37","新北市中和區圓通路367巷18-5號","121.491753333333","24.9884566666667","6500300","中和區"
"220013","072-UY","2017/10/10 13:59:38","新北市板橋區漢生東路340巷10號","121.471426666667","25.007355","6500100","板橋區"
"220034","073-UY","2017/10/10 13:59:40","新北市板橋區民權路209號","121.45796","25.0149116666667","6500100","板橋區"
"220105","075-UY","2017/10/10 13:59:41","新北市板橋區文化路二段22號","121.468901666667","25.0244616666667","6500100","板橋區"
"220017","AAD-861","2017/10/10 13:59:43","新北市板橋區華興街90號","121.456826666667","25.0054866666667","6500100","板橋區"
"220016","120-SR","2017/10/10 13:59:50","新北市板橋區中山路二段465巷34號","121.481423333333","25.0212533333333","6500100","板橋區"
"247019","500-BY","2017/10/10 13:59:41","新北市蘆洲區民族路422巷35-1號","121.473481666667","25.093785","6501400","蘆洲區"
"247007","341-TH","2017/10/10 13:59:47","新北市三重區國道路一段139號","121.47527","25.0737483333333","6501400","蘆洲區"
"247001","337-TH","2017/10/10 13:59:30","新北市蘆洲區三民路607號","121.460655","25.09383","6501400","蘆洲區"
"247003","336-TH","2017/10/10 13:59:46","新北市蘆洲區長安街106號","121.46181","25.08141","6501400","蘆洲區"
"247015","057-VK","2017/10/10 13:59:48","新北市蘆洲區光華路42號","121.468908333333","25.0831566666667","6501400","蘆洲區"
"247005","056-VK","2017/10/10 13:59:39","新北市蘆洲區永安南路二段44-1號","121.466481666667","25.07753","6501400","蘆洲區"
"247013","007-UY","2017/10/10 13:59:34","新北市蘆洲區中正路140號","121.468985","25.0851933333333","6501400","蘆洲區"
"247017","001-UY","2017/10/10 13:59:48","新北市蘆洲區仁愛街35巷26號","121.475481666667","25.0889483333333","6501400","蘆洲區"
"228005","097-TW","2017/10/10 13:55:26","新北市貢寮區美豐里雞母嶺街52號","121.889803333333","25.0679983333333","6502600","貢寮區"
"228004","212-TW","2017/10/10 13:59:44","新北市貢寮區龍崗里嵩陽街35-1號","121.906751666667","25.017535","6502600","貢寮區"
"227009","400-TW","2017/10/10 12:53:56","新北市雙溪區三貂里政光路3-1號","121.850938333333","25.0630816666667","6502500","雙溪區"
"208004","AAC-292","2017/10/10 13:59:40","新北市金山區中信南路8巷2號","121.59825","25.2018283333333","6502700","金山區"
"207002","749-BX","2017/10/10 13:59:49","新北市萬里區溪底里溪底路8號","121.621433333333","25.1485583333333","6502800","萬里區"
"252005","073-UM","2017/10/10 13:59:46","新北市三芝區橫山里橫山34號","121.539625","25.2586916666667","6502100","三芝區"
"207001","662-BX","2017/10/10 13:59:38","新北市萬里區磺潭里清水18號","121.63783","25.1978633333333","6502800","萬里區"
"236041","107-UM","2017/10/10 13:59:49","新北市土城區裕生路61號","121.447615","24.9860933333333","6501300","土城區"
"236065","165-UM","2017/10/10 13:59:36","新北市土城區和平路54號","121.445196666667","24.9689833333333","6501300","土城區"
"236075","166-UM","2017/10/10 13:59:48","新北市土城區永寧路32巷10弄27號","121.428746666667","24.9610616666667","6501300","土城區"
"236029","253-BX","2017/10/10 13:59:37","新北市土城區城林路6巷80號","121.438551666667","24.9798216666667","6501300","土城區"
"236025","269-VK","2017/10/10 13:59:40","新北市土城區承天路18號","121.439438333333","24.9634766666667","6501300","土城區"
"236013","270-VK","2017/10/10 13:59:33","新北市土城區城林路6巷80號","121.438398333333","24.9795666666667","6501300","土城區"
"236034","271-VK","2017/10/10 13:59:34","新北市土城區城林路6巷80號","121.438425","24.9798283333333","6501300","土城區"
"236017","401-BY","2017/10/10 13:59:45","新北市土城區城林路6巷80號","121.438613333333","24.9797716666667","6501300","土城區"
"236006","498-BY","2017/10/10 13:59:46","新北市土城區中華路一段50號","121.445978333333","24.9888716666667","6501300","土城區"
"236057","912-UM","2017/10/10 13:59:46","新北市土城區中央路三段188號","121.430461666667","24.96487","6501300","土城區"
"236045","913-UM","2017/10/10 13:58:35","新北市土城區員林街76號","121.444445","24.9767483333333","6501300","土城區"
"236061","915-UM","2017/10/10 13:59:51","新北市土城區城林路6巷80號","121.438403333333","24.9798166666667","6501300","土城區"
"236054","AAC-216","2017/10/10 13:59:32","新北市土城區城林路6巷80號","121.438348333333","24.979775","6501300","土城區"
"238021","KEA-2217","2017/10/10 13:59:46","新北市樹林區中山路三段210-2號","121.380756666667","24.9670566666667","6500700","樹林區"
"221012","276-VK","2017/10/10 13:17:13","新北市汐止區汐萬路一段256巷3號","121.653465","25.0746433333333","6501100","汐止區"
"221018","753-BX","2017/10/10 13:59:42","新北市五股區成泰路一段98巷152號","121.449845","25.0722666666667","6501100","汐止區"
"220027","145-BY","2017/10/10 13:59:49","新北市板橋區民權路260巷1弄17號","121.458328333333","25.0159116666667","6500100","板橋區"
"220030","610-BX","2017/10/10 13:59:36","新北市板橋區篤行路二段136號","121.429821666667","24.9884766666667","6500100","板橋區"
"220020","256-TC","2017/10/10 13:59:41","新北市板橋區大觀路三段5-4號","121.432836666667","24.99594","6500100","板橋區"
"220040","267-BY","2017/10/10 13:59:36","新北市板橋區莊敬路221號","121.471686666667","25.021845","6500100","板橋區"
"220004","276-BY","2017/10/10 13:59:38","新北市板橋區信義路112號","121.458376666667","24.9926466666667","6500100","板橋區"
"220050","280-UM","2017/10/10 13:59:32","新北市板橋區文化路二段16-2號","121.468768333333","25.024335","6500100","板橋區"
"220043","283-UM","2017/10/10 13:59:41","新北市板橋區莒光路16巷13號","121.469493333333","25.0240516666667","6500100","板橋區"
"220019","283-VK","2017/10/10 13:59:51","新北市板橋區重慶路235號","121.463081666667","25.00095","6500100","板橋區"
"220001","285-VK","2017/10/10 13:59:38","新北市板橋區中山路二段89巷66號","121.473636666667","25.017645","6500100","板橋區"
"220031","286-VK","2017/10/10 13:59:51","新北市板橋區大觀路一段38巷156弄51號","121.442753333333","25.0062333333333","6500100","板橋區"
"220029","287-VK","2017/10/10 13:46:33","新北市板橋區大觀路一段43號","121.447991666667","25.0079633333333","6500100","板橋區"
"220039","288-VK","2017/10/10 13:59:39","新北市板橋區四維路171號","121.464655","25.0261566666667","6500100","板橋區"
"220009","293-UM","2017/10/10 13:59:38","新北市板橋區永豐街211號","121.476623333333","25.0211416666667","6500100","板橋區"
"220045","295-UM","2017/10/10 13:59:37","新北市板橋區莊敬路221號","121.471743333333","25.0218516666667","6500100","板橋區"
"220032","296-UM","2017/10/10 13:59:45","新北市板橋區龍興街63巷2號","121.442998333333","25.0013433333333","6500100","板橋區"
"220023","297-UM","2017/10/10 13:59:46","新北市板橋區館前西路213巷8號","121.454378333333","25.008235","6500100","板橋區"
"220047","299-UM","2017/10/10 13:59:44","新北市板橋區民生路三段106號","121.466693333333","25.026145","6500100","板橋區"
"220010","303-R5","2017/10/10 13:59:45","新北市板橋區三民路二段253-1號","121.478983333333","25.011675","6500100","板橋區"
"220041","307-R5","2017/10/10 13:59:49","新北市板橋區文化路一段245號","121.464276666667","25.017875","6500100","板橋區"
"220028","461-BY","2017/10/10 13:59:47","新北市板橋區大觀路二段文和巷102號","121.445011666667","24.9980383333333","6500100","板橋區"
"220012","486-VK","2017/10/10 13:59:46","新北市板橋區板新路229號","121.467953333333","25.0158783333333","6500100","板橋區"
"220038","487-VK","2017/10/10 13:59:30","新北市板橋區民生路二段250號","121.468466666667","25.0232716666667","6500100","板橋區"
"220037","491-VK","2017/10/10 13:59:42","新北市板橋區民生路二段216號","121.46937","25.0216316666667","6500100","板橋區"
"220104","560-BX","2017/10/10 13:59:33","新北市板橋區中正路379巷3弄6號","121.45329","25.02139","6500100","板橋區"
"220052","561-BX","2017/10/10 13:59:42","新北市板橋區縣民大道二段279號","121.47007","25.0178233333333","6500100","板橋區"
"220002","568-UM","2017/10/10 13:59:48","新北市板橋區後埔街46號","121.46048","25.0060816666667","6500100","板橋區"
"220011","609-BX","2017/10/10 13:59:50","新北市板橋區中山路二段213號","121.476603333333","25.017125","6500100","板橋區"
"220005","686-BX","2017/10/10 13:59:52","新北市板橋區館前東路80號","121.461698333333","25.0074966666667","6500100","板橋區"
"220025","687-BX","2017/10/10 13:59:48","新北市板橋區大觀路二段174巷165弄2號","121.441925","25.0034083333333","6500100","板橋區"
"220042","689-BX","2017/10/10 13:59:36","新北市板橋區民生路三段12號","121.467706666667","25.0244566666667","6500100","板橋區"
"220003","827-TW","2017/10/10 13:59:36","新北市板橋區中山路一段158巷27-4號","121.466473333333","25.011135","6500100","板橋區"
"220014","829-TW","2017/10/10 13:59:49","新北市板橋區三民路二段正隆巷12弄22號","121.477483333333","25.0137333333333","6500100","板橋區"
"220051","830-TW","2017/10/10 13:59:37","新北市板橋區雙十路一段44巷36號","121.477198333333","25.02484","6500100","板橋區"
"220022","895-R6","2017/10/10 13:59:34","新北市板橋區南雅南路一段2號","121.456275","25.0069733333333","6500100","板橋區"
"220021","985-R7","2017/10/10 13:59:32","新北市板橋區林園街7-1號","121.453978333333","25.0092","6500100","板橋區"
"220046","AAC-210","2017/10/10 13:59:42","新北市板橋區民生路三段46號","121.467266666667","25.0250433333333","6500100","板橋區"
"220018","AAC-253","2017/10/10 13:59:50","新北市板橋區四川路一段281號","121.45942","25.0020066666667","6500100","板橋區"
