"lineid","car","time","location","longitude","latitude","cityid","cityname"
"234046","148-BY","2017/10/10 14:19:40","新北市永和區得和路382-1號","121.52486","24.999205","6500400","永和區"
"234012","149-BY","2017/10/10 14:19:50","新北市永和區保生路54號","121.505441666667","25.00874","6500400","永和區"
"234005","207-UY","2017/10/10 14:19:53","新北市永和區中正路644號","121.516956666667","25.00833","6500400","永和區"
"234078","298-R6","2017/10/10 14:19:53","新北市永和區國中路134號","121.523451666667","25.0068266666667","6500400","永和區"
"234036","336-UY","2017/10/10 14:19:51","新北市永和區成功路一段91號","121.527155","25.00275","6500400","永和區"
"234062","337-UY","2017/10/10 14:19:45","新北市永和區得和路129號","121.519023333333","25.00026","6500400","永和區"
"234084","338-UY","2017/10/10 14:19:37","新北市永和區永和路二段93號","121.51484","25.0115333333333","6500400","永和區"
"234068","552-UM","2017/10/10 14:19:56","新北市永和區福和路263巷5號","121.518021666667","25.0071033333333","6500400","永和區"
"234052","553-UM","2017/10/10 14:19:51","新北市永和區光復街2巷13號","121.517065","25.016605","6500400","永和區"
"234028","746-BX","2017/10/10 14:19:43","新北市永和區民權路49巷16號","121.520963333333","24.9973116666667","6500400","永和區"
"234060","AAD-866","2017/10/10 14:19:53","新北市永和區安樂路194巷17弄11號","121.516145","25.0014216666667","6500400","永和區"
"234040","862-TW","2017/10/10 14:19:50","新北市中和區中安街226號","121.512275","24.9986633333333","6500400","永和區"
"234048","863-TW","2017/10/10 14:19:41","新北市永和區新生路53巷2弄1號","121.509033333333","25.01622","6500400","永和區"
"234025","9371-KE","2017/10/10 14:19:50","新北市中和區安樂路159號","121.514683333333","24.9972316666667","6500400","永和區"
"234010","9373-KE","2017/10/10 14:19:43","新北市永和區仁愛路352巷122弄13號","121.500723333333","25.0088366666667","6500400","永和區"
"248017","225-UY","2017/10/10 14:17:43","新北市五股區壟路16-1號","121.414558333333","25.08537","6501500","五股區"
"234076","969-R7","2017/10/10 14:19:48","新北市永和區民族街81巷58號","121.520048333333","24.9964133333333","6500400","永和區"
"234072","AAC-211","2017/10/10 14:19:51","新北市永和區豫溪街191巷7弄28號","121.523113333333","25.01124","6500400","永和區"
"234066","AAC-212","2017/10/10 14:19:43","新北市永和區保平路292巷13弄6號","121.507128333333","25.0054583333333","6500400","永和區"
"234001","AAC-295","2017/10/10 14:19:36","新北市永和區中正路628號","121.517033333333","25.008","6500400","永和區"
"244002","657-BX","2017/10/10 14:19:53","新北市林口區南勢里10鄰34-2號","121.352201666667","25.0705033333333","6501700","林口區"
"231028","046-UY","2017/10/10 14:19:50","新北市新店區安康路二段46-1號","121.515385","24.9637016666667","6500600","新店區"
"231030","047-UY","2017/10/10 14:19:37","新北市新店區安民街13號","121.51531","24.9645416666667","6500600","新店區"
"231029","106-UY","2017/10/10 14:19:55","新北市新店區安康路二段159巷2號","121.510283333333","24.95933","6500600","新店區"
"231012","108-UY","2017/10/10 14:19:49","新北市新店區五峰路61巷2號","121.547391666667","24.9701","6500600","新店區"
"231018","110-UY","2017/10/10 14:19:50","新北市新店區中央四街29號","121.52868","24.9744616666667","6500600","新店區"
"231020","187-VK","2017/10/10 14:19:37","新北市新店區屈尺路78號","121.546593333333","24.9226","6500600","新店區"
"231069","189-VK","2017/10/10 11:52:26","新北市新店區安華路28-1號","121.519555","24.960925","6500600","新店區"
"231015","215-TC","2017/10/10 14:19:39","新北市新店區北宜路三段50號","121.572615","24.9507416666667","6500600","新店區"
"231023","AAD-862","2017/10/10 14:19:44","新北市新店區光明街140號","121.539388333333","24.96132","6500600","新店區"
"231002","355-BY","2017/10/10 14:19:41","新北市新店區中央路210-1號","121.530048333333","24.9735066666667","6500600","新店區"
"231027","3712-VJ","2017/10/10 14:19:50","新北市新店區光明街286巷6-3號","121.540758333333","24.96369","6500600","新店區"
"231025","4716-K9","2017/10/10 14:19:43","新北市新店區二十張路105巷16號","121.53683","24.97911","6500600","新店區"
"231038","4715-K9","2017/10/10 14:19:48","新北市新店區溪洲路61號","121.533556666667","24.9609283333333","6500600","新店區"
"231036","513-UM","2017/10/10 14:19:50","新北市新店區安祥路109巷85弄39號","121.478633333333","24.9598266666667","6500600","新店區"
"231035","515-UM","2017/10/10 14:19:42","新北市新店區碧安街5號","121.516933333333","24.967815","6500600","新店區"
"231001","619-UM","2017/10/10 14:19:54","新北市新店區北新路一段98號","121.54224","24.96899","6500600","新店區"
"231003","641-BX","2017/10/10 14:19:55","新北市新店區中興路一段216號","121.54376","24.96574","6500600","新店區"
"231034","645-TV","2017/10/10 14:19:40","新北市新店區黎明路3號","121.503513333333","24.9524833333333","6500600","新店區"
"231013","719-UM","2017/10/10 14:19:49","新北市新店區民權路89號","121.537593333333","24.982885","6500600","新店區"
"231032","720-UM","2017/10/10 14:19:40","新北市新店區碧潭路5號","121.53486","24.9562616666667","6500600","新店區"
"231005","897-TW","2017/10/10 14:19:37","新北市新店區寶強路6號","121.543376666667","24.9786816666667","6500600","新店區"
"231006","898-TW","2017/10/10 14:19:38","新北市新店區北宜路二段431-1號","121.560845","24.9543266666667","6500600","新店區"
"231004","899-TW","2017/10/10 14:19:51","新北市新店區中正路215號","121.539778333333","24.9729116666667","6500600","新店區"
"231037","AKT-0513","2017/10/10 14:19:40","新北市新店區車子路67號","121.503601666667","24.95129","6500600","新店區"
"235030","003-UY","2017/10/10 14:19:38","新北市中和區中和路136號","121.503471666667","24.9995266666667","6500300","中和區"
"235028","005-UY","2017/10/10 14:19:56","新北市中和區連城路2號","121.499271666667","25.002335","6500300","中和區"
"235027","006-UY","2017/10/10 14:19:38","新北市中和區圓通路198巷6號","121.495635","24.9944383333333","6500300","中和區"
"235020","096-UM","2017/10/10 14:19:40","新北市中和區民富街68號","121.476561666667","25.007615","6500300","中和區"
"235003","097-UM","2017/10/10 14:19:52","新北市中和區秀峰街103巷8弄14號","121.519661666667","24.9897266666667","6500300","中和區"
"235029","098-UM","2017/10/10 14:19:52","新北市中和區莊敬路4號","121.499546666667","25.0042616666667","6500300","中和區"
"235004","150-BY","2017/10/10 14:19:53","新北市中和區保健路60號","121.510858333333","24.9964683333333","6500300","中和區"
"235022","151-BY","2017/10/10 14:19:50","新北市中和區員山路36巷16-2號","121.48526","24.991655","6500300","中和區"
"235019","183-VK","2017/10/10 14:19:36","新北市中和區中山路三段179巷5號","121.472953333333","25.0057933333333","6500300","中和區"
"235002","185-VK","2017/10/10 14:19:38","新北市中和區大仁街10巷27弄6號","121.519221666667","24.9927816666667","6500300","中和區"
"235013","186-VK","2017/10/10 14:19:47","新北市中和區景新街230巷3號","121.508176666667","24.9940866666667","6500300","中和區"
"235031","255-BX","2017/10/10 14:19:44","新北市中和區新生街199號","121.483856666667","25.0000716666667","6500300","中和區"
"235008","293-VK","2017/10/10 14:19:45","新北市中和區中興街250號","121.499345","24.9880266666667","6500300","中和區"
"235036","301-VK","2017/10/10 14:19:34","新北市中和區保平路326巷28號","121.506228333333","25.00494","6500300","中和區"
"235007","352-BY","2017/10/10 14:19:44","新北市中和區景平路296號","121.513031666667","24.9925766666667","6500300","中和區"
"235032","375-QA","2017/10/10 14:19:39","新北市中和區景平路493巷2弄12號","121.49914","24.9971583333333","6500300","中和區"
"235015","376-QA","2017/10/10 14:19:37","新北市中和區興南路一段56巷9號","121.510276666667","24.99108","6500300","中和區"
"235025","378-QA","2017/10/10 14:19:37","新北市中和區員山路140號","121.481271666667","24.9965083333333","6500300","中和區"
"235035","269-TV","2017/10/10 14:19:42","新北市中和區立德街13-9號","121.489671666667","25.0065866666667","6500300","中和區"
"235014","4979-A6","2017/10/10 14:19:50","新北市中和區中正路204號","121.497075","24.993985","6500300","中和區"
"235033","4980-A6","2017/10/10 14:19:48","新北市中和區連城路134巷16-1號","121.49543","24.99985","6500300","中和區"
"235006","551-UM","2017/10/10 14:19:42","新北市永和區中正路105號","121.51546","24.9975316666667","6500300","中和區"
"235034","558-UM","2017/10/10 14:19:50","新北市中和區廟美街6巷4號","121.50137","25.0012983333333","6500300","中和區"
"235009","565-BX","2017/10/10 14:19:34","新北市中和區景新街467巷35弄15號","121.514058333333","24.9888733333333","6500300","中和區"
"235018","640-BX","2017/10/10 14:19:41","新北市中和區民德路105號","121.468956666667","25.0008283333333","6500300","中和區"
"235024","647-TV","2017/10/10 14:19:42","新北市中和區員山路395號","121.481198333333","25.00296","6500300","中和區"
"235011","732-UM","2017/10/10 14:19:44","新北市中和區景平路241巷53號","121.508148333333","24.9921466666667","6500300","中和區"
"235010","733-UM","2017/10/10 14:19:39","新北市中和區忠孝街2巷14弄10號","121.510713333333","24.981385","6500300","中和區"
"235026","800-TS","2017/10/10 14:19:41","新北市中和區中山路二段365號","121.48767","25.0047866666667","6500300","中和區"
"235021","801-TS","2017/10/10 14:19:51","新北市中和區民利街34號","121.479735","24.9990216666667","6500300","中和區"
"235005","802-TS","2017/10/10 14:19:50","新北市中和區安平路132號","121.512083333333","24.99786","6500300","中和區"
"235016","805-TS","2017/10/10 14:19:44","新北市中和區興南路二段142巷17弄2號","121.503441666667","24.9833833333333","6500300","中和區"
"235012","896-TW","2017/10/10 14:19:39","新北市中和區華新街109巷22號","121.50844","24.9809116666667","6500300","中和區"
"235017","900-TW","2017/10/10 14:19:49","新北市中和區華福街59號","121.466765","24.99679","6500300","中和區"
"235001","AAC-213","2017/10/10 14:19:41","新北市中和區秀朗路三段50巷12弄8號","121.524085","24.9954766666667","6500300","中和區"
"235023","AAC-215","2017/10/10 14:19:37","新北市中和區圓通路286巷16-5號","121.491598333333","24.9914016666667","6500300","中和區"
"220013","072-UY","2017/10/10 14:19:38","新北市板橋區國泰街39巷4弄34號","121.467721666667","25.00594","6500100","板橋區"
"220034","073-UY","2017/10/10 14:19:43","新北市板橋區中正路216巷117號","121.459571666667","25.0194233333333","6500100","板橋區"
"220105","075-UY","2017/10/10 14:19:41","新北市板橋區雙十路三段66號","121.470606666667","25.0318366666667","6500100","板橋區"
"220017","AAD-861","2017/10/10 14:19:53","新北市板橋區貴興路41號","121.457493333333","25.0036883333333","6500100","板橋區"
"220016","120-SR","2017/10/10 14:19:50","新北市板橋區翠華街10巷1號","121.482741666667","25.0249733333333","6500100","板橋區"
"247021","893-R6","2017/10/10 14:19:49","新北市蘆洲區中正路476巷5號","121.463143333333","25.095815","6501400","蘆洲區"
"247011","546-UM","2017/10/10 14:19:41","新北市蘆洲區民權路38巷10號","121.476475","25.086635","6501400","蘆洲區"
"247019","500-BY","2017/10/10 14:19:41","新北市蘆洲區仁愛街32號","121.472135","25.0932016666667","6501400","蘆洲區"
"247007","341-TH","2017/10/10 14:19:47","新北市蘆洲區中山一路211號","121.473976666667","25.08072","6501400","蘆洲區"
"247009","339-TH","2017/10/10 14:19:42","新北市蘆洲區三民路26巷33號","121.476928333333","25.08288","6501400","蘆洲區"
"247001","337-TH","2017/10/10 14:19:50","新北市蘆洲區永樂街108號","121.455903333333","25.0888916666667","6501400","蘆洲區"
"247003","336-TH","2017/10/10 14:19:40","新北市蘆洲區中原路5巷2號","121.461236666667","25.08343","6501400","蘆洲區"
"247015","057-VK","2017/10/10 14:19:48","新北市蘆洲區中正路185巷25弄2號","121.466661666667","25.0841866666667","6501400","蘆洲區"
"247005","056-VK","2017/10/10 14:19:51","新北市蘆洲區長安街23巷3號","121.463776666667","25.07875","6501400","蘆洲區"
"247013","007-UY","2017/10/10 14:19:55","新北市蘆洲區成功路70號","121.47322","25.0809683333333","6501400","蘆洲區"
"247023","002-UY","2017/10/10 14:19:48","新北市蘆洲區三民路581號","121.461733333333","25.0930333333333","6501400","蘆洲區"
"247017","001-UY","2017/10/10 14:19:48","新北市蘆洲區民權路113號","121.47249","25.0894383333333","6501400","蘆洲區"
"228005","097-TW","2017/10/10 14:19:46","新北市貢寮區美豐里雞母嶺街6-2號","121.899206666667","25.0632166666667","6502600","貢寮區"
"228004","212-TW","2017/10/10 14:19:44","新北市貢寮區雙玉里田寮洋街39號","121.924895","25.0138983333333","6502600","貢寮區"
"227009","400-TW","2017/10/10 12:53:56","新北市雙溪區三貂里政光路3-1號","121.850938333333","25.0630816666667","6502500","雙溪區"
"208004","AAC-292","2017/10/10 14:19:40","新北市金山區六股里下六股65號","121.61442","25.2236333333333","6502700","金山區"
"207002","749-BX","2017/10/10 14:19:49","新北市萬里區溪底里溪底路21號","121.611863333333","25.14862","6502800","萬里區"
"252005","073-UM","2017/10/10 14:19:46","新北市三芝區橫山里大坑82-5號","121.527731666667","25.25798","6502100","三芝區"
"207001","662-BX","2017/10/10 14:19:38","新北市萬里區磺潭里清水18號","121.637796666667","25.1978433333333","6502800","萬里區"
"236041","107-UM","2017/10/10 14:19:49","新北市土城區裕生路21巷6弄23號","121.44882","24.9868033333333","6501300","土城區"
"236065","165-UM","2017/10/10 14:19:38","新北市土城區明德路一段128巷1號","121.463443333333","24.979095","6501300","土城區"
"236075","166-UM","2017/10/10 14:19:48","新北市土城區永平街15巷10號","121.428656666667","24.96251","6501300","土城區"
"236029","253-BX","2017/10/10 14:19:37","新北市土城區順風路64-2號","121.440265","24.9774083333333","6501300","土城區"
"236025","269-VK","2017/10/10 14:19:40","新北市土城區承天路67號","121.439505","24.9635833333333","6501300","土城區"
"236013","270-VK","2017/10/10 14:19:53","新北市土城區青雲路39巷7號","121.46035","24.98743","6501300","土城區"
"236034","271-VK","2017/10/10 14:19:54","新北市土城區青雲路451巷8弄9號","121.459641666667","24.9744183333333","6501300","土城區"
"236017","401-BY","2017/10/10 14:19:45","新北市土城區中央路一段264-2號","121.443965","24.9837666666667","6501300","土城區"
"236057","912-UM","2017/10/10 14:19:46","新北市土城區中央路四段193號","121.414755","24.9565133333333","6501300","土城區"
"236045","913-UM","2017/10/10 14:19:15","新北市土城區明德路一段375-1號","121.455105","24.97766","6501300","土城區"
"236061","915-UM","2017/10/10 14:19:51","新北市土城區金城路二段392號","121.46368","24.9856833333333","6501300","土城區"
"236054","AAC-216","2017/10/10 14:19:52","新北市土城區中華路二段98號","121.438085","24.974465","6501300","土城區"
"238021","KEA-2217","2017/10/10 14:18:26","新北市樹林區中山路三段214號","121.379955","24.9678383333333","6500700","樹林區"
"221012","276-VK","2017/10/10 13:17:13","新北市汐止區汐萬路一段256巷3號","121.653465","25.0746433333333","6501100","汐止區"
"221018","753-BX","2017/10/10 14:19:42","新北市八里區中山路三段382號","121.368601666667","25.135795","6501100","汐止區"
"220027","145-BY","2017/10/10 14:19:53","新北市板橋區民權路202巷17弄16號","121.46012","25.0166466666667","6500100","板橋區"
"220030","610-BX","2017/10/10 14:19:56","新北市板橋區篤行路三段91號","121.426475","24.9848433333333","6500100","板橋區"
"220020","256-TC","2017/10/10 14:19:41","新北市板橋區金門街280巷12號","121.429141666667","24.9862666666667","6500100","板橋區"
"220040","267-BY","2017/10/10 14:19:36","新北市板橋區縣民大道三段187巷8號","121.479331666667","25.0249933333333","6500100","板橋區"
"220004","276-BY","2017/10/10 14:19:51","新北市板橋區國慶路8號","121.458353333333","24.994425","6500100","板橋區"
"220050","280-UM","2017/10/10 14:19:52","新北市板橋區莊敬路21號","121.473753333333","25.0279916666667","6500100","板橋區"
"220043","283-UM","2017/10/10 14:19:41","新北市板橋區吳鳳路82號","121.466963333333","25.0313016666667","6500100","板橋區"
"220019","283-VK","2017/10/10 14:19:39","新北市板橋區大豐街125號","121.460861666667","25.001015","6500100","板橋區"
"220001","285-VK","2017/10/10 14:19:37","新北市板橋區富山街12號","121.478593333333","25.0218966666667","6500100","板橋區"
"220031","286-VK","2017/10/10 14:19:39","新北市板橋區大觀路二段174巷166弄1號","121.44217","25.0032216666667","6500100","板橋區"
"220029","287-VK","2017/10/10 13:46:33","新北市板橋區大觀路一段43號","121.447991666667","25.0079633333333","6500100","板橋區"
"220039","288-VK","2017/10/10 14:19:39","新北市板橋區長江路一段106巷13弄35號","121.461351666667","25.0297766666667","6500100","板橋區"
"220009","293-UM","2017/10/10 14:19:38","新北市板橋區中山路二段255巷7號","121.477021666667","25.017915","6500100","板橋區"
"220045","295-UM","2017/10/10 14:19:37","新北市板橋區大同街26巷9號","121.478186666667","25.0269866666667","6500100","板橋區"
"220032","296-UM","2017/10/10 14:19:48","新北市板橋區滿平街110巷10號","121.428031666667","24.9882933333333","6500100","板橋區"
"220023","297-UM","2017/10/10 14:19:46","新北市板橋區南雅南路一段1巷27號","121.457321666667","25.00665","6500100","板橋區"
"220047","299-UM","2017/10/10 14:19:44","新北市板橋區四維路266巷2弄25-1號","121.464095","25.0281166666667","6500100","板橋區"
"220010","303-R5","2017/10/10 14:19:45","新北市板橋區三民路二段居仁巷26號","121.480028333333","25.0130966666667","6500100","板橋區"
"220041","307-R5","2017/10/10 14:19:49","新北市板橋區松江街64號","121.468726666667","25.02761","6500100","板橋區"
"220028","461-BY","2017/10/10 14:19:47","新北市板橋區大觀路二段19巷91號","121.449513333333","25.0028283333333","6500100","板橋區"
"220012","486-VK","2017/10/10 14:19:47","新北市板橋區中山路一段137號","121.462488333333","25.0106283333333","6500100","板橋區"
"220038","487-VK","2017/10/10 14:19:50","新北市板橋區文化路二段13號","121.468646666667","25.0243566666667","6500100","板橋區"
"220037","491-VK","2017/10/10 14:19:42","新北市板橋區文化路二段182巷1弄30號","121.47195","25.028355","6500100","板橋區"
"220104","560-BX","2017/10/10 14:19:53","新北市板橋區中正路413巷15號","121.453493333333","25.0225133333333","6500100","板橋區"
"220052","561-BX","2017/10/10 14:19:46","新北市板橋區文化路一段188巷7弄41號","121.468206666667","25.019495","6500100","板橋區"
"220002","568-UM","2017/10/10 14:19:48","新北市板橋區四川路一段203-1號","121.460556666667","25.0037333333333","6500100","板橋區"
"220011","609-BX","2017/10/10 14:19:50","新北市板橋區三民路二段204-3號","121.47897","25.0123066666667","6500100","板橋區"
"220005","686-BX","2017/10/10 14:19:44","新北市板橋區國慶路201號","121.463296666667","24.99681","6500100","板橋區"
"220025","687-BX","2017/10/10 14:19:46","新北市板橋區大觀路二段111號","121.446051666667","25.0016066666667","6500100","板橋區"
"220042","689-BX","2017/10/10 14:19:57","新北市板橋區文化路一段413號","121.467531666667","25.022275","6500100","板橋區"
"220003","827-TW","2017/10/10 14:19:36","新北市板橋區館前東路156巷21號","121.46427","25.0069166666667","6500100","板橋區"
"220014","829-TW","2017/10/10 14:19:49","新北市板橋區長安街138巷7弄34號","121.47383","25.0088716666667","6500100","板橋區"
"220051","830-TW","2017/10/10 14:19:37","新北市板橋區文聖街207號","121.479811666667","25.026375","6500100","板橋區"
"220022","895-R6","2017/10/10 14:19:56","新北市板橋區文化路一段17號","121.457881666667","25.010085","6500100","板橋區"
"220021","985-R7","2017/10/10 14:19:52","新北市板橋區新生街89巷2號","121.458216666667","25.0219516666667","6500100","板橋區"
"220046","AAC-210","2017/10/10 14:19:43","新北市板橋區漢生西路89巷5弄18號","121.461046666667","25.0196733333333","6500100","板橋區"
"220018","AAC-253","2017/10/10 14:19:50","新北市板橋區忠孝路48巷2號","121.460698333333","25.0017266666667","6500100","板橋區"
