"lineid","car","time","location","longitude","latitude","cityid","cityname"
"234062","337-UY","2017/10/10 14:45:05","新北市永和區中和路573號","121.511635","25.00347","6500400","永和區"
"234028","746-BX","2017/10/10 14:49:43","新北市新店區安康路二段320巷15弄2號","121.504683333333","24.9598866666667","6500400","永和區"
"234025","9371-KE","2017/10/10 14:49:50","新北市永和區雙和街25巷4號","121.508876666667","25.00193","6500400","永和區"
"248017","225-UY","2017/10/10 14:27:23","新北市五股區外寮路6-1號","121.425156666667","25.0752066666667","6501500","五股區"
"234072","AAC-211","2017/10/10 14:49:51","新北市永和區福和路1號","121.526248333333","25.0096366666667","6500400","永和區"
"244002","657-BX","2017/10/10 14:49:53","新北市林口區南勢里10鄰34-2號","121.352213333333","25.0705283333333","6501700","林口區"
"231028","046-UY","2017/10/10 14:49:50","新北市新店區安康路二段278號","121.508276666667","24.95869","6500600","新店區"
"231030","047-UY","2017/10/10 14:49:37","新北市新店區安民街348號","121.516888333333","24.9755816666667","6500600","新店區"
"231029","106-UY","2017/10/10 14:49:35","新北市新店區錦秀路11巷96弄2號","121.48012","24.942165","6500600","新店區"
"231012","108-UY","2017/10/10 14:49:49","新北市新店區永華街45號","121.54417","24.97603","6500600","新店區"
"231018","110-UY","2017/10/10 14:49:50","新北市新店區中央二街5巷1號","121.529186666667","24.9727933333333","6500600","新店區"
"231020","187-VK","2017/10/10 14:49:37","新北市新店區櫻花街55巷26號","121.548703333333","24.9261483333333","6500600","新店區"
"231069","189-VK","2017/10/10 11:52:26","新北市新店區安華路28-1號","121.519555","24.960925","6500600","新店區"
"231015","215-TC","2017/10/10 14:49:39","新北市新店區北宜路三段132號","121.58356","24.9500433333333","6500600","新店區"
"231026","256-BX","2017/10/10 14:49:35","新北市新店區安康路一段355號","121.519883333333","24.9634283333333","6500600","新店區"
"231023","AAD-862","2017/10/10 14:49:44","新北市新店區檳榔路109號","121.54452","24.9617583333333","6500600","新店區"
"231002","355-BY","2017/10/10 14:49:43","新北市新店區民權路42-1號","121.540271666667","24.982905","6500600","新店區"
"231027","3712-VJ","2017/10/10 14:49:50","新北市新店區中正路444號","121.534093333333","24.9785383333333","6500600","新店區"
"231024","3713-VJ","2017/10/10 14:49:39","新北市新店區新生街1號","121.540405","24.9656816666667","6500600","新店區"
"231025","4716-K9","2017/10/10 14:49:43","新北市新店區建國路140號","121.538896666667","24.9789866666667","6500600","新店區"
"231036","513-UM","2017/10/10 14:49:50","新北市新店區安祥路104-10號","121.479178333333","24.9621233333333","6500600","新店區"
"231035","515-UM","2017/10/10 14:49:42","新北市新店區安和路二段160號","121.519786666667","24.9734583333333","6500600","新店區"
"231001","619-UM","2017/10/10 14:49:32","新北市新店區中華路147號","121.538453333333","24.9706183333333","6500600","新店區"
"231003","641-BX","2017/10/10 14:49:35","新北市新店區中興路一段302號","121.546256666667","24.969585","6500600","新店區"
"231034","645-TV","2017/10/10 14:49:40","新北市新店區車子路1-1號","121.504808333333","24.9578366666667","6500600","新店區"
"231039","718-UY","2017/10/10 14:49:42","新北市新店區安華路28-1號","121.51973","24.9615283333333","6500600","新店區"
"231013","719-UM","2017/10/10 14:49:49","新北市新店區北新路二段35號","121.542685","24.97257","6500600","新店區"
"231005","897-TW","2017/10/10 14:49:37","新北市新店區復興路2號","121.53235","24.98832","6500600","新店區"
"231006","898-TW","2017/10/10 14:49:47","新北市新店區北宜路二段129號","121.550915","24.9529533333333","6500600","新店區"
"231004","899-TW","2017/10/10 14:49:51","新北市新店區建國路133號","121.539291666667","24.9781566666667","6500600","新店區"
"235030","003-UY","2017/10/10 14:49:38","新北市中和區中山路二段10號","121.505026666667","25.0056016666667","6500300","中和區"
"235027","006-UY","2017/10/10 14:49:38","新北市中和區連城路263巷21號","121.492603333333","24.9948866666667","6500300","中和區"
"235020","096-UM","2017/10/10 14:49:40","新北市中和區中山路三段114巷71號","121.476056666667","25.0079833333333","6500300","中和區"
"235003","097-UM","2017/10/10 14:49:52","新北市中和區安平路202號","121.513428333333","24.9995216666667","6500300","中和區"
"235029","098-UM","2017/10/10 14:49:52","新北市中和區永和路90巷9號","121.497541666667","25.0060683333333","6500300","中和區"
"235004","150-BY","2017/10/10 14:49:52","新北市中和區安平路38號","121.509736666667","24.9949883333333","6500300","中和區"
"235022","151-BY","2017/10/10 14:49:50","新北市中和區員山路237號","121.481253333333","24.9983166666667","6500300","中和區"
"235019","183-VK","2017/10/10 14:49:36","新北市中和區德光路70號","121.469411666667","25.0038616666667","6500300","中和區"
"235002","185-VK","2017/10/10 14:49:38","新北市中和區自立路139巷7號","121.522608333333","24.9938566666667","6500300","中和區"
"235013","186-VK","2017/10/10 14:49:47","新北市中和區中正路76號","121.500746666667","24.993775","6500300","中和區"
"235031","255-BX","2017/10/10 14:49:44","新北市中和區新生街220巷29弄2號","121.482526666667","24.998545","6500300","中和區"
"235008","293-VK","2017/10/10 14:49:45","新北市中和區南山路305號","121.50478","24.9916366666667","6500300","中和區"
"235036","301-VK","2017/10/10 14:49:34","新北市中和區連城路160-1號","121.494131666667","24.9980166666667","6500300","中和區"
"235007","352-BY","2017/10/10 14:49:44","新北市中和區景平路336號","121.511825","24.9927116666667","6500300","中和區"
"235032","375-QA","2017/10/10 14:49:39","新北市中和區永和路39巷14號","121.497518333333","25.00496","6500300","中和區"
"235015","376-QA","2017/10/10 14:49:37","新北市中和區中興街233巷8弄6號","121.501263333333","24.9894833333333","6500300","中和區"
"235014","4979-A6","2017/10/10 14:49:50","新北市中和區景平路239巷3號","121.510021666667","24.9927516666667","6500300","中和區"
"235033","4980-A6","2017/10/10 14:49:38","新北市中和區南山路37巷8弄1號","121.502626666667","24.9987933333333","6500300","中和區"
"235006","551-UM","2017/10/10 14:49:42","新北市中和區安平路82號","121.511148333333","24.9966433333333","6500300","中和區"
"235034","558-UM","2017/10/10 14:49:50","新北市中和區景平路543號","121.49866","24.999405","6500300","中和區"
"235009","565-BX","2017/10/10 14:49:34","新北市中和區景平路183號","121.511673333333","24.9924416666667","6500300","中和區"
"235018","640-BX","2017/10/10 14:49:41","新北市中和區莒光路127號","121.472661666667","25.0019183333333","6500300","中和區"
"235024","647-TV","2017/10/10 14:49:42","新北市中和區員山路372號","121.480695","25.0040933333333","6500300","中和區"
"235011","732-UM","2017/10/10 14:49:44","新北市中和區板南路122號","121.503015","24.9925866666667","6500300","中和區"
"235010","733-UM","2017/10/10 14:49:39","新北市中和區仁愛街33號","121.510933333333","24.9886916666667","6500300","中和區"
"235026","800-TS","2017/10/10 14:49:41","新北市中和區橋和路120號","121.492273333333","25.0058066666667","6500300","中和區"
"235021","801-TS","2017/10/10 14:49:45","新北市中和區員山路146-4號","121.48128","24.9970733333333","6500300","中和區"
"235005","802-TS","2017/10/10 14:47:45","新北市中和區中和路430號","121.511895","25.0032966666667","6500300","中和區"
"235016","805-TS","2017/10/10 14:49:44","新北市中和區華新街85號","121.508385","24.98356","6500300","中和區"
"235012","896-TW","2017/10/10 14:49:39","新北市中和區忠孝街122-1號","121.512213333333","24.98588","6500300","中和區"
"235017","900-TW","2017/10/10 14:49:49","新北市中和區民德路148號","121.468663333333","25.0003933333333","6500300","中和區"
"235001","AAC-213","2017/10/10 14:49:41","新北市中和區秀朗路三段128巷1弄22號","121.523648333333","24.9917033333333","6500300","中和區"
"235023","AAC-215","2017/10/10 14:49:47","新北市中和區圓通路305巷5弄9號","121.493893333333","24.990345","6500300","中和區"
"220013","072-UY","2017/10/10 14:49:38","新北市板橋區民族路276巷1弄1號","121.46991","25.0066716666667","6500100","板橋區"
"220034","073-UY","2017/10/10 14:49:40","新北市板橋區中正路162號","121.456536666667","25.0168333333333","6500100","板橋區"
"220105","075-UY","2017/10/10 14:49:41","新北市板橋區文化路二段650巷19號","121.478116666667","25.0348283333333","6500100","板橋區"
"220017","AAD-861","2017/10/10 14:49:33","新北市板橋區大明街13號","121.458893333333","25.0024616666667","6500100","板橋區"
"220016","120-SR","2017/10/10 14:49:31","新北市板橋區中山路二段光榮巷30弄8號","121.484625","25.020575","6500100","板橋區"
"247009","339-TH","2017/10/10 14:49:42","新北市五股區中興路三段163號","121.449555","25.080595","6501400","蘆洲區"
"247001","337-TH","2017/10/10 14:49:50","新北市蘆洲區永康街2巷10號","121.4593","25.0861983333333","6501400","蘆洲區"
"247015","057-VK","2017/10/10 14:49:48","新北市蘆洲區光華路143巷10號","121.466003333333","25.081965","6501400","蘆洲區"
"247023","002-UY","2017/10/10 14:49:35","新北市五股區四維路185巷6-5號","121.466753333333","25.0761916666667","6501400","蘆洲區"
"228005","097-TW","2017/10/10 14:49:46","新北市貢寮區美豐里文秀坑1-3號","121.905635","25.05493","6502600","貢寮區"
"228004","212-TW","2017/10/10 14:49:52","新北市貢寮區福隆里裕隆街3-1號","121.946233333333","25.015955","6502600","貢寮區"
"227009","400-TW","2017/10/10 12:53:56","新北市雙溪區三貂里政光路3-1號","121.850938333333","25.0630816666667","6502500","雙溪區"
"208004","AAC-292","2017/10/10 14:49:40","新北市金山區兩湖里倒照湖46號","121.594913333333","25.2367683333333","6502700","金山區"
"207002","749-BX","2017/10/10 14:49:49","新北市萬里區崁腳里崁腳路106-4號","121.64603","25.158725","6502800","萬里區"
"252005","073-UM","2017/10/10 14:49:46","新北市三芝區埔頭里埔頭5號","121.505606666667","25.2511883333333","6502100","三芝區"
"207001","662-BX","2017/10/10 14:49:38","新北市萬里區雙興里二坪路1-2號","121.648988333333","25.1780483333333","6502800","萬里區"
"236041","107-UM","2017/10/10 14:49:49","新北市土城區裕民路114巷15號","121.450523333333","24.9859583333333","6501300","土城區"
"236065","165-UM","2017/10/10 14:49:36","新北市土城區明德路二段99巷2弄4號","121.450271666667","24.9811483333333","6501300","土城區"
"236075","166-UM","2017/10/10 14:49:28","新北市土城區中央路四段185巷23號","121.4156","24.9558583333333","6501300","土城區"
"236029","253-BX","2017/10/10 14:49:37","新北市土城區千歲路3巷12號","121.441041666667","24.9703116666667","6501300","土城區"
"236025","269-VK","2017/10/10 14:49:40","新北市土城區慶安街38號","121.441358333333","24.9733916666667","6501300","土城區"
"236013","270-VK","2017/10/10 14:49:53","新北市土城區金城路二段354巷4號","121.461183333333","24.9850066666667","6501300","土城區"
"236034","271-VK","2017/10/10 14:49:51","新北市土城區明德路一段195巷1弄2號","121.464038333333","24.9787116666667","6501300","土城區"
"236017","401-BY","2017/10/10 14:49:45","新北市土城區延吉街253巷27號","121.468078333333","24.983755","6501300","土城區"
"236057","912-UM","2017/10/10 14:49:46","新北市土城區中央路三段153號","121.43212","24.9654233333333","6501300","土城區"
"236045","913-UM","2017/10/10 14:48:27","新北市土城區青雲路2號","121.460145","24.98984","6501300","土城區"
"236061","915-UM","2017/10/10 14:49:37","新北市土城區金城路三段207巷6弄14號","121.470698333333","24.9902066666667","6501300","土城區"
"236054","AAC-216","2017/10/10 14:49:32","新北市土城區裕民路129號","121.451406666667","24.98651","6501300","土城區"
"221012","276-VK","2017/10/10 13:17:13","新北市汐止區汐萬路一段256巷3號","121.653465","25.0746433333333","6501100","汐止區"
"220027","145-BY","2017/10/10 14:49:36","新北市板橋區中正路135巷12弄1號","121.455678333333","25.01551","6500100","板橋區"
"220030","610-BX","2017/10/10 14:49:36","新北市板橋區溪崑一街86號","121.429078333333","24.9895183333333","6500100","板橋區"
"220020","256-TC","2017/10/10 14:49:41","新北市板橋區金門街215巷31號","121.433056666667","24.989795","6500100","板橋區"
"220040","267-BY","2017/10/10 14:49:47","新北市板橋區懷德街127巷15號","121.479316666667","25.0311566666667","6500100","板橋區"
"220050","280-UM","2017/10/10 14:49:33","新北市板橋區莒光路229巷2號","121.47423","25.02219","6500100","板橋區"
"220043","283-UM","2017/10/10 14:49:41","新北市板橋區長江路二段140號","121.466121666667","25.03169","6500100","板橋區"
"220019","283-VK","2017/10/10 14:49:39","新北市板橋區五權街63號","121.464913333333","24.9933633333333","6500100","板橋區"
"220001","285-VK","2017/10/10 14:49:37","新北市板橋區中山路二段90巷24號","121.475696666667","25.0156833333333","6500100","板橋區"
"220031","286-VK","2017/10/10 14:49:38","新北市板橋區僑中二街10巷30號","121.445766666667","25.0111316666667","6500100","板橋區"
"220029","287-VK","2017/10/10 13:46:33","新北市板橋區大觀路一段43號","121.447991666667","25.0079633333333","6500100","板橋區"
"220039","288-VK","2017/10/10 14:49:39","新北市板橋區龍泉街72巷4-3號","121.456146666667","25.026225","6500100","板橋區"
"220009","293-UM","2017/10/10 14:49:42","新北市板橋區觀光街33巷17號","121.471073333333","25.0158216666667","6500100","板橋區"
"220045","295-UM","2017/10/10 14:49:36","新北市板橋區民生路二段234巷24弄1號","121.47041","25.022535","6500100","板橋區"
"220032","296-UM","2017/10/10 14:49:48","新北市板橋區溪崑二街90號","121.426871666667","24.989225","6500100","板橋區"
"220023","297-UM","2017/10/10 14:49:45","新北市板橋區金華街3號","121.455488333333","25.02013","6500100","板橋區"
"220047","299-UM","2017/10/10 14:49:44","新北市板橋區英士路199號","121.458665","25.0235533333333","6500100","板橋區"
"220010","303-R5","2017/10/10 14:49:45","新北市板橋區光復街58號","121.482153333333","25.0183366666667","6500100","板橋區"
"220041","307-R5","2017/10/10 14:49:49","新北市板橋區互助街32號","121.46214","25.027335","6500100","板橋區"
"220028","461-BY","2017/10/10 14:49:47","新北市板橋區大觀路二段37巷28號","121.447746666667","25.0026716666667","6500100","板橋區"
"220012","486-VK","2017/10/10 14:49:36","新北市板橋區實踐路25號","121.463705","25.00721","6500100","板橋區"
"220038","487-VK","2017/10/10 14:49:50","新北市板橋區綠堤街39-4號","121.455355","25.0263816666667","6500100","板橋區"
"220037","491-VK","2017/10/10 14:49:52","新北市板橋區民治街79號","121.479636666667","25.0322933333333","6500100","板橋區"
"220104","560-BX","2017/10/10 14:49:33","新北市板橋區新生街45號","121.457091666667","25.02107","6500100","板橋區"
"220052","561-BX","2017/10/10 14:49:44","新北市板橋區陽明街46-5號","121.465565","25.022065","6500100","板橋區"
"220002","568-UM","2017/10/10 14:49:51","新北市板橋區忠孝路忠義巷15弄2號","121.466008333333","25.0037683333333","6500100","板橋區"
"220011","609-BX","2017/10/10 14:49:33","新北市板橋區中山路二段485號","121.482348333333","25.020735","6500100","板橋區"
"220005","686-BX","2017/10/10 14:49:44","新北市板橋區廣權路1號","121.460453333333","24.9911166666667","6500100","板橋區"
"220025","687-BX","2017/10/10 14:49:48","新北市板橋區僑中一街122號","121.445945","25.0119333333333","6500100","板橋區"
"220042","689-BX","2017/10/10 14:49:36","新北市板橋區民生路三段321號","121.462996666667","25.0310866666667","6500100","板橋區"
"220003","827-TW","2017/10/10 14:49:49","新北市板橋區仁愛路55號","121.460316666667","24.99959","6500100","板橋區"
"220014","829-TW","2017/10/10 14:49:49","新北市板橋區漢生東路195號","121.470118333333","25.0116016666667","6500100","板橋區"
"220051","830-TW","2017/10/10 14:49:37","新北市板橋區仁化街67號","121.475601666667","25.0318466666667","6500100","板橋區"
"220022","895-R6","2017/10/10 14:49:54","新北市板橋區館前西路90號","121.457461666667","25.0072283333333","6500100","板橋區"
"220021","985-R7","2017/10/10 14:49:49","新北市板橋區館前西路162號","121.452796666667","25.008605","6500100","板橋區"
"220046","AAC-210","2017/10/10 14:49:42","新北市板橋區文化路一段307巷3號","121.464695","25.01928","6500100","板橋區"
"220018","AAC-253","2017/10/10 14:49:50","新北市板橋區館前東路116號","121.463575","25.007755","6500100","板橋區"
