"lineid","car","time","location","longitude","latitude","cityid","cityname"
"234072","AAC-211","2017/10/10 15:19:51","新北市永和區福和路1號","121.52662","25.0099916666667","6500400","永和區"
"231028","046-UY","2017/10/10 15:19:30","新北市新店區僑信路74巷56號","121.498503333333","24.947685","6500600","新店區"
"231030","047-UY","2017/10/10 15:19:37","新北市新店區安民街341號","121.516995","24.9749466666667","6500600","新店區"
"231029","106-UY","2017/10/10 15:19:34","新北市新店區安康路三段716號","121.47401","24.9420383333333","6500600","新店區"
"231012","108-UY","2017/10/10 15:19:49","新北市新店區復興路32號","121.539096666667","24.9868183333333","6500600","新店區"
"231018","110-UY","2017/10/10 15:19:50","新北市新店區中央七街25號","121.529675","24.9753116666667","6500600","新店區"
"231020","187-VK","2017/10/10 15:19:37","新北市新店區湖興路128-7號","121.560765","24.9305283333333","6500600","新店區"
"231069","189-VK","2017/10/10 11:52:26","新北市新店區安華路28-1號","121.519555","24.960925","6500600","新店區"
"231026","256-BX","2017/10/10 15:19:35","新北市新店區中正路263巷4號","121.538295","24.97344","6500600","新店區"
"231023","AAD-862","2017/10/10 15:19:44","新北市新店區行政街23號","121.54304","24.9664316666667","6500600","新店區"
"231002","355-BY","2017/10/10 15:19:41","新北市新店區中正路700巷1號","121.533928333333","24.99124","6500600","新店區"
"231024","3713-VJ","2017/10/10 15:19:39","新北市新店區北新路一段311號","121.541393333333","24.968","6500600","新店區"
"231025","4716-K9","2017/10/10 15:19:43","新北市新店區中央路57號","121.532778333333","24.977415","6500600","新店區"
"231036","513-UM","2017/10/10 15:19:50","新北市新店區安祥路69巷15號","121.481958333333","24.9614333333333","6500600","新店區"
"231035","515-UM","2017/10/10 15:19:42","新北市新店區永平街14號","121.516911666667","24.9835416666667","6500600","新店區"
"231001","619-UM","2017/10/10 15:19:51","新北市新店區光明街231號","121.540238333333","24.96441","6500600","新店區"
"231003","641-BX","2017/10/10 15:19:35","新北市新店區寶高路120巷1號","121.554585","24.9760316666667","6500600","新店區"
"231034","645-TV","2017/10/10 15:19:45","新北市新店區玫瑰路16號","121.494995","24.9503516666667","6500600","新店區"
"231039","718-UY","2017/10/10 15:19:42","新北市新店區寶元路一段65號","121.542275","24.98585","6500600","新店區"
"231005","897-TW","2017/10/10 15:19:37","新北市新店區建國路174號","121.538126666667","24.9797783333333","6500600","新店區"
"231006","898-TW","2017/10/10 15:19:49","新北市新店區新坡一街82號","121.547708333333","24.9623933333333","6500600","新店區"
"231004","899-TW","2017/10/10 15:19:51","新北市新店區建國路43號","121.540598333333","24.97505","6500600","新店區"
"231037","AKT-0513","2017/10/10 15:19:40","新北市新店區安興路91巷47號","121.511956666667","24.9745416666667","6500600","新店區"
"241013","270-UM","2017/10/10 15:19:45","新北市三重區重新路四段121號","121.485033333333","25.0522783333333","6500200","三重區"
"235030","003-UY","2017/10/10 15:19:38","新北市中和區安和路159號","121.506213333333","24.997305","6500300","中和區"
"235003","097-UM","2017/10/10 15:19:52","新北市中和區安平路166號","121.512725","24.99881","6500300","中和區"
"235031","255-BX","2017/10/10 15:19:44","新北市樹林區中山路三段210-2號","121.381588333333","24.9656016666667","6500300","中和區"
"235014","4979-A6","2017/10/10 15:19:50","新北市中和區景新街160巷8號","121.505358333333","24.997075","6500300","中和區"
"235033","4980-A6","2017/10/10 15:19:38","新北市中和區中正路520號","121.488155","24.994445","6500300","中和區"
"235034","558-UM","2017/10/10 15:18:10","新北市中和區中正路281-3號","121.494633333333","24.9937983333333","6500300","中和區"
"235026","800-TS","2017/10/10 15:19:41","新北市中和區建八路127號","121.489748333333","24.9986783333333","6500300","中和區"
"235012","896-TW","2017/10/10 15:19:39","新北市中和區興南路一段1號","121.511493333333","24.9912433333333","6500300","中和區"
"235001","AAC-213","2017/10/10 15:19:41","新北市三重區重新路五段326巷12號","121.479136666667","25.0464983333333","6500300","中和區"
"235023","AAC-215","2017/10/10 15:19:53","新北市中和區圓通路316號","121.486575","24.9877083333333","6500300","中和區"
"220013","072-UY","2017/10/10 15:11:42","新北市板橋區民生路二段36-1號","121.47201","25.01692","6500100","板橋區"
"228003","097-TW","2017/10/10 15:15:01","新北市貢寮區貢寮里朝陽街1-2號","121.912351666667","25.0212383333333","6502600","貢寮區"
"227009","400-TW","2017/10/10 12:53:56","新北市雙溪區三貂里政光路3-1號","121.850938333333","25.0630816666667","6502500","雙溪區"
"208004","AAC-292","2017/10/10 15:19:40","新北市金山區六股里下六股15號","121.62523","25.224295","6502700","金山區"
"207002","749-BX","2017/10/10 15:19:49","新北市萬里區崁腳里內中福路38號","121.658903333333","25.1644883333333","6502800","萬里區"
"252005","073-UM","2017/10/10 15:19:46","新北市三芝區埔坪里埔頭坑49號","121.504558333333","25.2631233333333","6502100","三芝區"
"207001","662-BX","2017/10/10 15:19:38","新北市萬里區大鵬里萬里加投19-4號","121.649535","25.20848","6502800","萬里區"
"236041","107-UM","2017/10/10 15:19:49","新北市土城區金城路二段245巷36-1號","121.455701666667","24.9831066666667","6501300","土城區"
"236065","165-UM","2017/10/10 15:19:36","新北市土城區裕民路223號","121.453971666667","24.983595","6501300","土城區"
"236075","166-UM","2017/10/10 15:19:48","新北市土城區中州路52巷2弄22號","121.412618333333","24.957975","6501300","土城區"
"236029","253-BX","2017/10/10 15:19:56","新北市土城區中央路一段254號","121.444386666667","24.9844466666667","6501300","土城區"
"236025","269-VK","2017/10/10 15:19:40","新北市土城區員林街61巷2弄14號","121.444608333333","24.9776583333333","6501300","土城區"
"236013","270-VK","2017/10/10 15:19:53","新北市土城區廣福街68巷20號","121.45828","24.990455","6501300","土城區"
"236034","271-VK","2017/10/10 15:19:54","新北市土城區國際路154號","121.467763333333","24.97631","6501300","土城區"
"236017","401-BY","2017/10/10 15:19:45","新北市土城區明峰街64號","121.468455","24.9869216666667","6501300","土城區"
"236057","912-UM","2017/10/10 15:19:54","新北市土城區中央路三段67號","121.43878","24.9693316666667","6501300","土城區"
"236045","913-UM","2017/10/10 15:11:55","新北市土城區清水路290號","121.46227","24.9837516666667","6501300","土城區"
"236061","915-UM","2017/10/10 15:19:51","新北市土城區延平街33巷18號","121.467198333333","24.9916083333333","6501300","土城區"
"236054","AAC-216","2017/10/10 15:19:52","新北市土城區學府路一段76號","121.45656","24.9881716666667","6501300","土城區"
"221012","276-VK","2017/10/10 13:17:13","新北市汐止區汐萬路一段256巷3號","121.653465","25.0746433333333","6501100","汐止區"
"220050","280-UM","2017/10/10 15:19:32","新北市板橋區民生路二段226巷46號","121.471733333333","25.022175","6500100","板橋區"
"220001","285-VK","2017/10/10 15:19:37","新北市三重區光復路二段87巷63號","121.475626666667","25.0585016666667","6500100","板橋區"
"220031","286-VK","2017/10/10 15:19:38","新北市板橋區僑中二街104巷4號","121.445765","25.00797","6500100","板橋區"
"220029","287-VK","2017/10/10 13:46:33","新北市板橋區大觀路一段43號","121.447991666667","25.0079633333333","6500100","板橋區"
"220038","487-VK","2017/10/10 15:19:50","新北市板橋區四維路133號","121.465038333333","25.0252083333333","6500100","板橋區"
"220052","561-BX","2017/10/10 15:19:42","新北市板橋區陽明街259號","121.462555","25.02552","6500100","板橋區"
"220042","689-BX","2017/10/10 15:19:56","新北市板橋區長江路一段142號","121.460721666667","25.0301966666667","6500100","板橋區"
"220003","827-TW","2017/10/10 15:19:56","新北市板橋區華東街1-9號","121.448168333333","24.994955","6500100","板橋區"
"220051","830-TW","2017/10/10 15:19:45","新北市板橋區民生路二段227號","121.468821666667","25.0213233333333","6500100","板橋區"
"220046","AAC-210","2017/10/10 15:19:42","新北市板橋區文化路一段101巷13號","121.460815","25.0146966666667","6500100","板橋區"
"220018","AAC-253","2017/10/10 15:19:50","新北市板橋區四川路二段245巷17號","121.45109","24.9930883333333","6500100","板橋區"
