"lineid","car","time","location","longitude","latitude","cityid","cityname"
"234072","AAC-211","2017/10/10 15:49:46","新北市永和區福和路1號","121.526646666667","25.009955","6500400","永和區"
"231030","047-UY","2017/10/10 15:49:37","新北市新店區永安街50號","121.51833","24.9868033333333","6500600","新店區"
"231012","108-UY","2017/10/10 15:49:49","新北市新店區文化路19號","121.543195","24.9796316666667","6500600","新店區"
"231018","110-UY","2017/10/10 15:49:50","新北市新店區中正路568號","121.533831666667","24.98781","6500600","新店區"
"231020","187-VK","2017/10/10 15:49:37","新北市新店區新烏路一段140-1號","121.546153333333","24.9324116666667","6500600","新店區"
"231069","189-VK","2017/10/10 11:52:26","新北市新店區安華路28-1號","121.519555","24.960925","6500600","新店區"
"231015","215-TC","2017/10/10 15:49:39","新北市新店區中華路85號","121.539381666667","24.9687533333333","6500600","新店區"
"231026","256-BX","2017/10/10 15:49:35","新北市新店區中正路442號","121.5341","24.9783883333333","6500600","新店區"
"231046","278-BY","2017/10/10 14:03:25","新北市新店區安華路28-1號","121.519713333333","24.9611133333333","6500600","新店區"
"231025","4716-K9","2017/10/10 15:49:43","新北市新店區薏仁坑路自強巷1號","121.49695","24.95798","6500600","新店區"
"231038","4715-K9","2017/10/10 15:49:48","新北市新店區安德街167號","121.50856","24.9592266666667","6500600","新店區"
"231035","515-UM","2017/10/10 15:49:42","新北市新店區安民街365巷7弄2號","121.515993333333","24.97549","6500600","新店區"
"231003","641-BX","2017/10/10 15:49:35","新北市新店區寶興路60巷2號","121.549918333333","24.97196","6500600","新店區"
"231034","645-TV","2017/10/10 15:49:40","新北市新店區玫瑰路57巷13號","121.496223333333","24.946365","6500600","新店區"
"231013","719-UM","2017/10/10 15:49:38","新北市新店區永業路81巷11弄11號","121.53158","24.9507383333333","6500600","新店區"
"231037","AKT-0513","2017/10/10 15:49:20","新北市新店區安興路105-1號","121.51464","24.97774","6500600","新店區"
"241011","013-R5","2017/10/10 15:49:36","新北市三重區文化北路149-1號","121.497586666667","25.0695866666667","6500200","三重區"
"241028","022-UY","2017/10/10 15:49:38","新北市三重區中正南路40號","121.493816666667","25.060185","6500200","三重區"
"241015","062-VK","2017/10/10 15:49:39","新北市三重區重新路四段121號","121.485246666667","25.0519916666667","6500200","三重區"
"241017","063-VK","2017/10/10 15:49:16","新北市三重區大仁街42號","121.491631666667","25.0643483333333","6500200","三重區"
"241024","065-VK","2017/10/10 15:49:49","新北市三重區忠孝路三段52號","121.480735","25.0657916666667","6500200","三重區"
"241003","091-VK","2017/10/10 15:49:42","新北市三重區泉州街84巷20號","121.495876666667","25.0543516666667","6500200","三重區"
"241009","156-TC","2017/10/10 15:49:38","新北市三重區重新路四段121號","121.484981666667","25.05195","6500200","三重區"
"241005","262-UM","2017/10/10 15:49:34","新北市三重區環河北路280號","121.501308333333","25.0787733333333","6500200","三重區"
"241016","266-UM","2017/10/10 15:49:46","新北市三重區重新路四段121號","121.485191666667","25.0520783333333","6500200","三重區"
"241022","267-UM","2017/10/10 15:49:43","新北市三重區成功路112-4號","121.48531","25.0505416666667","6500200","三重區"
"241018","268-UM","2017/10/10 15:49:48","新北市三重區重新路四段6-1號","121.48917","25.0581416666667","6500200","三重區"
"241013","270-UM","2017/10/10 15:49:44","新北市三重區六張街21號","121.495286666667","25.0706233333333","6500200","三重區"
"241007","398-BY","2017/10/10 15:49:44","新北市三重區重新路四段121號","121.485248333333","25.0520766666667","6500200","三重區"
"241020","413-TH","2017/10/10 15:49:46","新北市三重區忠孝路二段63號","121.48492","25.07058","6500200","三重區"
"241014","543-UM","2017/10/10 15:49:50","新北市三重區重新路四段121號","121.485223333333","25.0519183333333","6500200","三重區"
"241023","545-UM","2017/10/10 15:49:45","新北市三重區新北大道一段250號","121.479925","25.0613","6500200","三重區"
"241001","547-UM","2017/10/10 15:49:35","新北市三重區重新路四段121號","121.484663333333","25.0523716666667","6500200","三重區"
"241006","AAD-863","2017/10/10 15:49:46","新北市三重區重新路四段121號","121.484653333333","25.0521983333333","6500200","三重區"
"241012","941-UM","2017/10/10 15:49:46","新北市三重區文化北路156-3號","121.497976666667","25.0673483333333","6500200","三重區"
"241029","942-UM","2017/10/10 15:49:48","新北市三重區大同南路242號","121.496936666667","25.0559283333333","6500200","三重區"
"241033","AAC-255","2017/10/10 15:49:34","新北市三重區光復路一段128號","121.472038333333","25.052025","6500200","三重區"
"235031","255-BX","2017/10/10 15:49:44","新北市樹林區中山路三段210-2號","121.380643333333","24.9675183333333","6500300","中和區"
"220013","072-UY","2017/10/10 15:11:42","新北市板橋區民生路二段36-1號","121.47201","25.01692","6500100","板橋區"
"228003","097-TW","2017/10/10 15:15:01","新北市貢寮區貢寮里朝陽街1-2號","121.912351666667","25.0212383333333","6502600","貢寮區"
"224007","273-VK","2017/10/10 15:45:51","新北市瑞芳區傑魚坑路322-9號","121.78533","25.1039483333333","6501200","瑞芳區"
"227003","642-TC","2017/10/10 15:49:46","新北市雙溪區平林里外平林44號","121.85295","25.0363466666667","6502500","雙溪區"
"227009","400-TW","2017/10/10 15:49:48","新北市雙溪區牡丹里中正路54號","121.865438333333","25.040105","6502500","雙溪區"
"252005","073-UM","2017/10/10 15:23:22","新北市三芝區埔坪里埔頭坑41號","121.504505","25.2644866666667","6502100","三芝區"
"236065","165-UM","2017/10/10 15:49:36","新北市土城區金安街48巷39號","121.420678333333","24.96548","6501300","土城區"
"236075","166-UM","2017/10/10 15:49:48","新北市土城區民族街6巷12-3號","121.419701666667","24.963295","6501300","土城區"
"236025","269-VK","2017/10/10 15:49:40","新北市土城區中華路一段219號","121.442523333333","24.9839166666667","6501300","土城區"
"236017","401-BY","2017/10/10 15:49:47","新北市土城區延吉街111巷12弄18號","121.471575","24.9855833333333","6501300","土城區"
"236057","912-UM","2017/10/10 15:49:46","新北市土城區中央路一段279號","121.444641666667","24.9847116666667","6501300","土城區"
"236045","913-UM","2017/10/10 15:48:15","新北市土城區金城路三段2號","121.464518333333","24.9856233333333","6501300","土城區"
"236054","AAC-216","2017/10/10 15:49:32","新北市土城區中華路一段301號","121.439748333333","24.9797183333333","6501300","土城區"
"221012","276-VK","2017/10/10 13:17:13","新北市汐止區汐萬路一段256巷3號","121.653465","25.0746433333333","6501100","汐止區"
