"lineid","car","time","location","longitude","latitude","cityid","cityname"
"249005","172-UM","2017/10/10 17:09:42","新北市八里區華富山13-5號","121.416255","25.1365466666667","6502300","八里區"
"249001","173-UM","2017/10/10 17:09:51","新北市八里區中華路二段205巷8-1號","121.405056666667","25.1493083333333","6502300","八里區"
"249004","303-UY","2017/10/10 17:09:50","新北市八里區忠孝路349號","121.416983333333","25.1612516666667","6502300","八里區"
"249002","305-UY","2017/10/10 17:09:44","新北市八里區龍米路二段147巷7號","121.442193333333","25.1504716666667","6502300","八里區"
"249003","593-UM","2017/10/10 17:09:54","新北市八里區中山路二段405號","121.397785","25.14656","6502300","八里區"
"244007","080-UY","2017/10/10 17:09:51","新北市林口區中湖57號","121.375758333333","25.0917833333333","6501700","林口區"
"244009","410-SL","2017/10/10 17:09:38","新北市林口區粉寮路17巷1號","121.398601666667","25.0808116666667","6501700","林口區"
"244023","483-VK","2017/10/10 17:09:43","新北市林口區粉寮路一段5號","121.396211666667","25.0760433333333","6501700","林口區"
"244017","485-VK","2017/10/10 17:09:51","新北市林口區粉寮69號","121.405043333333","25.0909033333333","6501700","林口區"
"244021","838-TS","2017/10/10 17:09:39","新北市林口區粉寮路二段46-1號","121.403521666667","25.0870316666667","6501700","林口區"
"231069","189-VK","2017/10/10 11:52:26","新北市新店區安華路28-1號","121.519555","24.960925","6500600","新店區"
"231046","278-BY","2017/10/10 17:09:47","新北市新店區直潭路92號","121.530946666667","24.937685","6500600","新店區"
"241011","013-R5","2017/10/10 17:09:56","新北市三重區仁愛街44號","121.496316666667","25.07216","6500200","三重區"
"241028","022-UY","2017/10/10 17:09:38","新北市三重區重新路三段110號","121.492303333333","25.0603016666667","6500200","三重區"
"241008","059-VK","2017/10/10 17:09:41","新北市三重區力行路二段136巷17弄2號","121.481768333333","25.075665","6500200","三重區"
"241015","062-VK","2017/10/10 17:09:39","新北市三重區長生街34號","121.499656666667","25.0664966666667","6500200","三重區"
"241017","063-VK","2017/10/10 17:09:53","新北市三重區中正北路25巷25弄4號","121.493308333333","25.0626966666667","6500200","三重區"
"241024","065-VK","2017/10/10 17:09:48","新北市三重區中正北路193巷11弄12號","121.477316666667","25.0702816666667","6500200","三重區"
"241026","066-VK","2017/10/10 17:09:39","新北市三重區重新路二段58號","121.49803","25.062245","6500200","三重區"
"241002","090-VK","2017/10/10 17:09:35","新北市三重區五華街35巷54號","121.49572","25.0816883333333","6500200","三重區"
"241003","091-VK","2017/10/10 17:09:53","新北市三重區仁義街252號","121.493743333333","25.0860483333333","6500200","三重區"
"241009","156-TC","2017/10/10 17:09:38","新北市三重區三和路四段215巷6號","121.481991666667","25.07985","6500200","三重區"
"241005","262-UM","2017/10/10 17:09:53","新北市三重區仁愛街705號","121.482545","25.08063","6500200","三重區"
"241016","266-UM","2017/10/10 17:09:46","新北市三重區大同北路132巷4號","121.49266","25.0647483333333","6500200","三重區"
"241022","267-UM","2017/10/10 17:09:42","新北市三重區三民街88號","121.485625","25.0629633333333","6500200","三重區"
"241018","268-UM","2017/10/10 17:09:48","新北市三重區六張街79號","121.493403333333","25.0700716666667","6500200","三重區"
"241032","269-UM","2017/10/10 17:09:44","新北市三重區三陽路13巷7號","121.486085","25.05968","6500200","三重區"
"241013","270-UM","2017/10/10 17:09:44","新北市三重區仁孝街30號","121.496448333333","25.0740916666667","6500200","三重區"
"241025","271-UM","2017/10/10 17:09:44","新北市三重區中正北路560巷89號","121.47106","25.0682916666667","6500200","三重區"
"241007","398-BY","2017/10/10 17:09:44","新北市三重區三和路四段163巷44號","121.485843333333","25.0793866666667","6500200","三重區"
"241020","413-TH","2017/10/10 17:09:46","新北市三重區自強路三段45號","121.486953333333","25.0727316666667","6500200","三重區"
"241004","475-VK","2017/10/10 17:09:42","新北市三重區五華街98巷2號","121.492578333333","25.08227","6500200","三重區"
"241019","478-VK","2017/10/10 17:09:45","新北市三重區自強路二段76號","121.488093333333","25.0701333333333","6500200","三重區"
"241030","480-VK","2017/10/10 17:09:50","新北市三重區集成路13號","121.488728333333","25.0521633333333","6500200","三重區"
"241014","543-UM","2017/10/10 17:09:50","新北市三重區介壽路39巷168號","121.502058333333","25.070885","6500200","三重區"
"241023","545-UM","2017/10/10 17:09:45","新北市三重區忠孝路三段84巷1號","121.480276666667","25.0645283333333","6500200","三重區"
"241001","547-UM","2017/10/10 17:09:54","新北市三重區仁愛街255巷86號","121.494745","25.0792183333333","6500200","三重區"
"241006","AAD-863","2017/10/10 17:09:46","新北市三重區車路頭街139巷2號","121.48392","25.076275","6500200","三重區"
"241031","887-TS","2017/10/10 17:09:34","新北市三重區重陽路一段111號","121.486948333333","25.0599533333333","6500200","三重區"
"241012","941-UM","2017/10/10 17:09:46","新北市三重區仁壽街200號","121.501116666667","25.074925","6500200","三重區"
"241029","942-UM","2017/10/10 17:09:50","新北市三重區重新路三段204號","121.489941666667","25.0585533333333","6500200","三重區"
"241033","AAC-255","2017/10/10 17:09:54","新北市三重區中興北街234號","121.468976666667","25.0609016666667","6500200","三重區"
"235064","005-UY","2017/10/10 16:55:19","新北市中和區員山路36巷16-3號","121.485145","24.99128","6500300","中和區"
"247022","893-R6","2017/10/10 17:09:44","新北市蘆洲區民族路526號","121.468968333333","25.0898916666667","6501400","蘆洲區"
"247012","546-UM","2017/10/10 17:09:37","新北市蘆洲區信義路292巷7號","121.478063333333","25.08774","6501400","蘆洲區"
"247020","500-BY","2017/10/10 17:09:41","新北市蘆洲區仁愛街75號","121.471388333333","25.0937866666667","6501400","蘆洲區"
"247008","341-TH","2017/10/10 17:09:43","新北市蘆洲區信義路30巷114號","121.475125","25.0769966666667","6501400","蘆洲區"
"247010","339-TH","2017/10/10 17:09:44","新北市蘆洲區鷺江街99號","121.47674","25.0839483333333","6501400","蘆洲區"
"247002","337-TH","2017/10/10 17:09:40","新北市蘆洲區永樂街83號","121.455911666667","25.0887916666667","6501400","蘆洲區"
"247004","336-TH","2017/10/10 17:09:43","新北市蘆洲區永安南路二段274號","121.458286666667","25.081065","6501400","蘆洲區"
"247016","057-VK","2017/10/10 17:09:56","新北市蘆洲區光華路61號","121.468436666667","25.0825983333333","6501400","蘆洲區"
"247006","056-VK","2017/10/10 17:09:51","新北市蘆洲區長安街108巷20號","121.461801666667","25.0821916666667","6501400","蘆洲區"
"247014","007-UY","2017/10/10 17:09:41","新北市蘆洲區中央路37巷15-15號","121.473203333333","25.0825266666667","6501400","蘆洲區"
"247024","002-UY","2017/10/10 17:09:44","新北市蘆洲區長興路37號","121.463335","25.0836633333333","6501400","蘆洲區"
"247018","001-UY","2017/10/10 17:09:46","新北市蘆洲區復興路138號","121.476838333333","25.087655","6501400","蘆洲區"
"228003","097-TW","2017/10/10 17:09:40","新北市貢寮區福隆里東興街18-1號","121.950186666667","25.018285","6502600","貢寮區"
"228001","212-TW","2017/10/10 17:09:52","新北市貢寮區仁理村尖山腳街20號","121.924548333333","25.0478583333333","6502600","貢寮區"
"228002","585-TW","2017/10/10 17:09:41","新北市貢寮區龍崗里泮宮路51-1號","121.90805","25.0166966666667","6502600","貢寮區"
"224010","AGQ-8101","2017/10/10 16:54:51","新北市瑞芳區明燈路二段44-1號","121.809501666667","25.1082483333333","6501200","瑞芳區"
"224006","676-BX","2017/10/10 17:09:43","新北市瑞芳區大寮路81號","121.780901666667","25.09762","6501200","瑞芳區"
"224009","285-BY","2017/10/10 17:09:37","新北市瑞芳區八號巷18號","121.84243","25.110495","6501200","瑞芳區"
"224008","275-VK","2017/10/10 17:09:36","新北市瑞芳區柴寮路70號","121.827426666667","25.086875","6501200","瑞芳區"
"224007","273-VK","2017/10/10 17:09:51","新北市瑞芳區楓子瀨路70號","121.765936666667","25.09851","6501200","瑞芳區"
"224005","271-BY","2017/10/10 17:09:45","新北市瑞芳區鼻頭路113號","121.916188333333","25.1226566666667","6501200","瑞芳區"
"227003","642-TC","2017/10/10 17:09:46","新北市雙溪區外柑里外柑腳74號","121.80725","25.0176383333333","6502500","雙溪區"
"227009","400-TW","2017/10/10 17:09:47","新北市雙溪區三貂里子崙坑1-6號","121.849915","25.05752","6502500","雙溪區"
"251004","009-UM","2017/10/10 17:09:42","新北市淡水區中山路45號","121.443431666667","25.1703566666667","6501000","淡水區"
"251002","012-UM","2017/10/10 17:09:42","新北市淡水區中正路二段31號","121.41957","25.1817983333333","6501000","淡水區"
"251008","181-VK","2017/10/10 17:09:43","新北市淡水區民生路169號","121.470075","25.14253","6501000","淡水區"
"251014","182-VK","2017/10/10 17:09:43","新北市淡水區八里堆9-6號","121.465283333333","25.224505","6501000","淡水區"
"251010","413-VK","2017/10/10 17:09:49","新北市淡水區新市二路二段200號","121.430528333333","25.194375","6501000","淡水區"
"251012","441-VK","2017/10/10 17:09:37","新北市淡水區新民街276號","121.4354","25.1816133333333","6501000","淡水區"
"251016","442-VK","2017/10/10 17:09:54","新北市淡水區社厝坑3-7號","121.475315","25.189015","6501000","淡水區"
"251005","443-VK","2017/10/10 17:09:37","新北市淡水區鄧公路8號","121.449181666667","25.1698766666667","6501000","淡水區"
"251006","561-UM","2017/10/10 17:09:39","新北市淡水區中正路一段22巷100號","121.42704","25.1863316666667","6501000","淡水區"
"251009","575-R6","2017/10/10 17:09:43","新北市淡水區三民街17號","121.438975","25.1718","6501000","淡水區"
"251007","577-R6","2017/10/10 17:09:39","新北市淡水區中正東路二段48巷20號","121.457456666667","25.1583966666667","6501000","淡水區"
"251011","650-BX","2017/10/10 17:09:47","新北市淡水區中正東路一段125號","121.455185","25.1595533333333","6501000","淡水區"
"252005","073-UM","2017/10/10 15:23:22","新北市三芝區埔坪里埔頭坑41號","121.504505","25.2644866666667","6502100","三芝區"
"252002","178-VK","2017/10/10 17:09:55","新北市三芝區忠孝街132號","121.506053333333","25.258","6502100","三芝區"
"252001","292-VK","2017/10/10 17:09:46","新北市三芝區埔頭里埔頭27-1號","121.495376666667","25.2601633333333","6502100","三芝區"
"242032","AAC-296","2017/10/10 17:09:42","新北市新莊區新泰路357巷3弄57號","121.442261666667","25.0396466666667","6500500","新莊區"
"242051","751-BX","2017/10/10 17:09:51","新北市新莊區新泰路415-1號","121.442335","25.0444833333333","6500500","新莊區"
"242025","615-BX","2017/10/10 14:05:38","新北市新莊區新泰路255巷83號","121.442201666667","25.0388633333333","6500500","新莊區"
"242023","613-BX","2017/10/10 17:09:37","新北市新莊區新泰路357巷3弄57號","121.442306666667","25.0392816666667","6500500","新莊區"
"242027","612-BX","2017/10/10 17:09:44","新北市新莊區新泰路357巷3弄57號","121.442295","25.0392633333333","6500500","新莊區"
"242039","566-BX","2017/10/10 17:09:46","新北市新莊區三和路12-21號","121.442066666667","25.0382883333333","6500500","新莊區"
"242044","497-BY","2017/10/10 17:09:46","新北市新莊區建福路21號","121.42614","25.0291933333333","6500500","新莊區"
"242002","442-UM","2017/10/10 13:57:07","新北市新莊區新泰路255巷83號","121.442086666667","25.0389766666667","6500500","新莊區"
"242048","441-UM","2017/10/10 17:09:44","新北市新莊區三和路10號","121.441983333333","25.0356933333333","6500500","新莊區"
"242054","440-UM","2017/10/10 17:09:44","新北市新莊區新泰路361巷23號","121.442448333333","25.0423933333333","6500500","新莊區"
"242005","413-TV","2017/10/10 17:09:55","新北市新莊區新泰路357巷3弄57號","121.442306666667","25.039785","6500500","新莊區"
"242034","400-BY","2017/10/10 17:09:49","新北市新莊區新泰路357巷3弄57號","121.442136666667","25.039605","6500500","新莊區"
"242061","362-BY","2017/10/10 17:09:39","新北市新莊區新泰路255巷83號","121.442243333333","25.0387933333333","6500500","新莊區"
"242058","353-BY","2017/10/10 17:09:51","新北市新莊區新泰路255巷83號","121.442505","25.038795","6500500","新莊區"
"242037","133-UY","2017/10/10 17:09:45","新北市新莊區新泰路357巷3弄57號","121.44242","25.0393366666667","6500500","新莊區"
"242021","135-UY","2017/10/10 17:09:53","新北市新莊區新泰路255巷83號","121.442051666667","25.03903","6500500","新莊區"
"242046","172-VK","2017/10/10 14:06:09","新北市新莊區三和路12-21號","121.442011666667","25.038815","6500500","新莊區"
"242009","173-VK","2017/10/10 14:42:07","新北市泰山區磚雅厝3號","121.44221","25.041865","6500500","新莊區"
"242015","175-VK","2017/10/10 17:09:51","新北市新莊區三和路12-21號","121.44196","25.0387733333333","6500500","新莊區"
"242041","347-TH","2017/10/10 15:48:02","新北市新莊區三和路12-18號","121.441933333333","25.03762","6500500","新莊區"
"242019","348-TH","2017/10/10 17:09:43","新北市新莊區新泰路357巷3弄57號","121.442046666667","25.039565","6500500","新莊區"
"242056","349-TH","2017/10/10 17:09:48","新北市新莊區三和路12-17號","121.441983333333","25.03753","6500500","新莊區"
"242017","350-TH","2017/10/10 17:09:42","新北市新莊區新泰路255巷83號","121.442195","25.038865","6500500","新莊區"
"238015","755-BX","2017/10/10 17:09:42","新北市樹林區八德街828-3號","121.39306","24.968625","6500700","樹林區"
"238023","601-UM","2017/10/10 17:09:50","新北市樹林區中山路三段125-1號","121.39738","24.9731833333333","6500700","樹林區"
"238019","599-UM","2017/10/10 17:09:48","新北市樹林區八德街428號","121.402483333333","24.9704316666667","6500700","樹林區"
"238018","571-TV","2017/10/10 17:09:54","新北市樹林區環河路110號","121.426348333333","24.97753","6500700","樹林區"
"238024","5061-A6","2017/10/10 17:09:41","新北市樹林區八德街370號","121.407718333333","24.96956","6500700","樹林區"
"238021","KEA-2217","2017/10/10 17:09:53","新北市樹林區佳園路二段39號","121.391713333333","24.962895","6500700","樹林區"
"238025","303-VK","2017/10/10 17:09:49","新北市樹林區中洲街6號","121.397333333333","24.9727","6500700","樹林區"
"238017","283-BY","2017/10/10 17:09:42","新北市樹林區中山路三段125-1號","121.397366666667","24.97327","6500700","樹林區"
"238014","282-BY","2017/10/10 17:09:40","新北市樹林區中洲街6號","121.397336666667","24.9726966666667","6500700","樹林區"
"238020","268-VK","2017/10/10 17:09:49","新北市樹林區大安路5號","121.425051666667","25.000615","6500700","樹林區"
"238026","172-UY","2017/10/10 17:09:47","新北市樹林區八德街648號","121.39652","24.96911","6500700","樹林區"
"238016","169-UY","2017/10/10 17:09:41","新北市樹林區八德街804號","121.395101666667","24.9687716666667","6500700","樹林區"
"239007","AAC-297","2017/10/10 17:09:43","新北市鶯歌區行政路40號","121.352996666667","24.9559266666667","6500800","鶯歌區"
"239006","891-R6","2017/10/10 17:09:49","新北市鶯歌區建國路367巷23號","121.338363333333","24.9485","6500800","鶯歌區"
"239008","527-UM","2017/10/10 17:09:42","新北市鶯歌區中正一路127巷12號","121.352138333333","24.9556816666667","6500800","鶯歌區"
"239005","526-UM","2017/10/10 17:09:55","新北市鶯歌區鶯桃路573號","121.329798333333","24.9685116666667","6500800","鶯歌區"
"239001","417-VK","2017/10/10 17:09:46","新北市鶯歌區尖山路86巷26號","121.347091666667","24.9496466666667","6500800","鶯歌區"
"239003","360-BY","2017/10/10 17:09:37","新北市鶯歌區德昌二街70巷32弄31號","121.331073333333","24.95855","6500800","鶯歌區"
"239002","359-BY","2017/10/10 17:09:38","新北市鶯歌區建國路280號","121.345993333333","24.9531183333333","6500800","鶯歌區"
"239004","193-VK","2017/10/10 17:09:41","新北市鶯歌區文化路256巷15弄1號","121.352098333333","24.9475033333333","6500800","鶯歌區"
"221012","276-VK","2017/10/10 13:17:13","新北市汐止區汐萬路一段256巷3號","121.653465","25.0746433333333","6501100","汐止區"
"242011","280-VK","2017/10/10 17:09:57","新北市新莊區三和路12-21號","121.441965","25.0384133333333","6500500","新莊區"
