"lineid","car","time","location","longitude","latitude","cityid","cityname"
"249005","172-UM","2017/10/10 17:29:42","新北市八里區荖阡坑路57號","121.403415","25.13273","6502300","八里區"
"249001","173-UM","2017/10/10 17:29:51","新北市八里區中山路一段1號","121.423046666667","25.15864","6502300","八里區"
"249004","303-UY","2017/10/10 17:29:43","新北市八里區賢三街186號","121.41411","25.15646","6502300","八里區"
"249002","305-UY","2017/10/10 17:29:51","新北市八里區龍形五街13號","121.45023","25.1335333333333","6502300","八里區"
"249003","593-UM","2017/10/10 17:29:34","新北市八里區中山路二段398號","121.400566666667","25.147765","6502300","八里區"
"232011","375-UM","2017/10/10 17:29:49","新北市坪林區鶯子瀨12-1號","121.71247","24.9148266666667","6502000","坪林區"
"244013","069-UM","2017/10/10 17:29:43","新北市林口區中山路256-1號","121.385531666667","25.07959","6501700","林口區"
"244007","080-UY","2017/10/10 17:29:51","新北市林口區湖子4-3號","121.391818333333","25.0921716666667","6501700","林口區"
"244019","403-UM","2017/10/10 17:29:44","新北市林口區公園路195號","121.37214","25.0724516666667","6501700","林口區"
"244025","742-UY","2017/10/10 17:29:35","新北市林口區民族路157號","121.366985","25.076465","6501700","林口區"
"244009","410-SL","2017/10/10 17:29:51","新北市林口區中北一街49巷2號","121.385918333333","25.08821","6501700","林口區"
"244023","483-VK","2017/10/10 17:29:43","新北市林口區東明一街35巷2號","121.392165","25.0720516666667","6501700","林口區"
"244017","485-VK","2017/10/10 17:29:51","新北市林口區粉寮路17巷1號","121.39851","25.0807316666667","6501700","林口區"
"244011","656-BX","2017/10/10 17:29:35","新北市林口區中正路451號","121.384605","25.07774","6501700","林口區"
"244021","838-TS","2017/10/10 17:29:39","新北市林口區粉寮路17巷1號","121.398348333333","25.0806533333333","6501700","林口區"
"231069","189-VK","2017/10/10 11:52:26","新北市新店區安華路28-1號","121.519555","24.960925","6500600","新店區"
"231046","278-BY","2017/10/10 17:29:47","新北市新店區直潭路92號","121.530938333333","24.9376916666667","6500600","新店區"
"241011","013-R5","2017/10/10 17:29:36","新北市三重區河邊北街110巷19號","121.503403333333","25.07081","6500200","三重區"
"241015","062-VK","2017/10/10 17:29:39","新北市三重區長元街65巷16弄10號","121.503436666667","25.0662933333333","6500200","三重區"
"241017","063-VK","2017/10/10 17:29:53","新北市三重區重新路三段45-6號","121.49336","25.0618616666667","6500200","三重區"
"241024","065-VK","2017/10/10 17:29:48","新北市三重區大勇街49號","121.481311666667","25.0719466666667","6500200","三重區"
"241026","066-VK","2017/10/10 17:29:39","新北市三重區光興街19號","121.499921666667","25.0604133333333","6500200","三重區"
"241003","091-VK","2017/10/10 17:29:42","新北市三重區碧華街296-1號","121.489633333333","25.0833633333333","6500200","三重區"
"241009","156-TC","2017/10/10 17:29:38","新北市三重區車路頭街135號","121.484205","25.0758866666667","6500200","三重區"
"241005","262-UM","2017/10/10 17:29:33","新北市三重區永安北路二段5巷43號","121.48298","25.0812983333333","6500200","三重區"
"241016","266-UM","2017/10/10 17:29:46","新北市三重區信義西街148號","121.495331666667","25.063975","6500200","三重區"
"241018","268-UM","2017/10/10 17:29:48","新北市三重區中正北路25巷16號","121.49358","25.06304","6500200","三重區"
"241032","269-UM","2017/10/10 17:29:44","新北市三重區名源街54號","121.482423333333","25.05932","6500200","三重區"
"241013","270-UM","2017/10/10 17:29:44","新北市三重區仁愛街92巷5號","121.495135","25.07378","6500200","三重區"
"241025","271-UM","2017/10/10 17:29:44","新北市三重區中正北路380號","121.476373333333","25.0699066666667","6500200","三重區"
"241007","398-BY","2017/10/10 17:29:44","新北市三重區三和路四段145巷176號","121.48855","25.0795683333333","6500200","三重區"
"241020","413-TH","2017/10/10 17:29:46","新北市三重區忠孝路二段35號","121.485878333333","25.0710766666667","6500200","三重區"
"241019","478-VK","2017/10/10 17:29:45","新北市三重區自強路二段18-1號","121.489776666667","25.068985","6500200","三重區"
"241030","480-VK","2017/10/10 17:29:50","新北市三重區中正南路269號","121.492995","25.0523583333333","6500200","三重區"
"241014","543-UM","2017/10/10 17:29:50","新北市三重區安和路17號","121.501393333333","25.068515","6500200","三重區"
"241023","545-UM","2017/10/10 17:29:45","新北市三重區忠孝路三段84巷28號","121.481501666667","25.0642233333333","6500200","三重區"
"241006","AAD-863","2017/10/10 17:29:46","新北市三重區車路頭街139巷10號","121.484213333333","25.0762933333333","6500200","三重區"
"241012","941-UM","2017/10/10 17:29:46","新北市三重區仁興街33巷1號","121.499245","25.075415","6500200","三重區"
"241033","AAC-255","2017/10/10 17:29:34","新北市三重區興德路133號","121.470191666667","25.052835","6500200","三重區"
"235064","005-UY","2017/10/10 16:55:19","新北市中和區員山路36巷16-3號","121.485145","24.99128","6500300","中和區"
"247022","893-R6","2017/10/10 17:29:44","新北市蘆洲區三民路224號","121.468731666667","25.0893466666667","6501400","蘆洲區"
"247012","546-UM","2017/10/10 17:29:37","新北市蘆洲區民族路33巷2號","121.477946666667","25.0852216666667","6501400","蘆洲區"
"247020","500-BY","2017/10/10 17:29:41","新北市蘆洲區仁愛街92號","121.470546666667","25.0946116666667","6501400","蘆洲區"
"247008","341-TH","2017/10/10 17:29:43","新北市蘆洲區成功路1號","121.473875","25.0776966666667","6501400","蘆洲區"
"247010","339-TH","2017/10/10 17:29:44","新北市蘆洲區中山一路74巷55號","121.479836666667","25.0816866666667","6501400","蘆洲區"
"247002","337-TH","2017/10/10 17:29:40","新北市蘆洲區永樂街38巷45弄2號","121.458058333333","25.0899416666667","6501400","蘆洲區"
"247004","336-TH","2017/10/10 17:29:43","新北市蘆洲區長安街249巷33號","121.457678333333","25.0824733333333","6501400","蘆洲區"
"247016","057-VK","2017/10/10 17:29:16","新北市蘆洲區中正路109巷13號","121.469248333333","25.0839483333333","6501400","蘆洲區"
"247006","056-VK","2017/10/10 17:29:51","新北市蘆洲區九芎街90巷15號","121.464941666667","25.08102","6501400","蘆洲區"
"247014","007-UY","2017/10/10 17:29:41","新北市蘆洲區三民路33號","121.475435","25.0830516666667","6501400","蘆洲區"
"247024","002-UY","2017/10/10 17:29:44","新北市蘆洲區長興路329號","121.460475","25.0904166666667","6501400","蘆洲區"
"247018","001-UY","2017/10/10 17:29:46","新北市蘆洲區民權路113號","121.472471666667","25.08947","6501400","蘆洲區"
"228003","097-TW","2017/10/10 17:29:40","新北市貢寮區仁理村研海街62-2號","121.92549","25.0456883333333","6502600","貢寮區"
"228001","212-TW","2017/10/10 17:29:52","新北市貢寮區仁理村仁愛路62巷1號","121.925645","25.053435","6502600","貢寮區"
"228002","585-TW","2017/10/10 17:29:41","新北市貢寮區福隆里福隆街14號","121.944856666667","25.0163383333333","6502600","貢寮區"
"224010","AGQ-8101","2017/10/10 17:28:41","新北市瑞芳區逢甲路93號","121.807325","25.1096783333333","6501200","瑞芳區"
"224006","676-BX","2017/10/10 17:29:43","新北市瑞芳區靜安路四段92號","121.79316","25.110045","6501200","瑞芳區"
"224009","285-BY","2017/10/10 17:29:51","新北市瑞芳區汽車路34號","121.845948333333","25.1101066666667","6501200","瑞芳區"
"224008","275-VK","2017/10/10 17:29:36","新北市瑞芳區九芎橋路14號","121.832076666667","25.0912883333333","6501200","瑞芳區"
"224005","271-BY","2017/10/10 17:29:43","新北市瑞芳區籠山路12號","121.833175","25.1262416666667","6501200","瑞芳區"
"227003","642-TC","2017/10/10 17:29:46","新北市雙溪區上林里新寮子6號","121.838708333333","25.0310283333333","6502500","雙溪區"
"227009","400-TW","2017/10/10 17:29:47","新北市雙溪區三貂里十三層33-1號","121.853656666667","25.0799583333333","6502500","雙溪區"
"251004","009-UM","2017/10/10 17:29:42","新北市淡水區中正東路二段88巷15號","121.459101666667","25.150545","6501000","淡水區"
"251002","012-UM","2017/10/10 17:29:42","新北市淡水區中正路382號","121.429478333333","25.1752683333333","6501000","淡水區"
"251008","181-VK","2017/10/10 17:29:39","新北市淡水區大同路100巷11號","121.462985","25.1396316666667","6501000","淡水區"
"251014","182-VK","2017/10/10 17:29:43","新北市淡水區公埔子20-6號","121.46915","25.2275933333333","6501000","淡水區"
"251010","413-VK","2017/10/10 17:29:49","新北市淡水區中正路二段211號","121.42618","25.1891783333333","6501000","淡水區"
"251012","441-VK","2017/10/10 17:29:37","新北市淡水區北新路114號","121.44783","25.1784733333333","6501000","淡水區"
"251016","442-VK","2017/10/10 17:29:54","新北市淡水區大竹圍10號","121.465016666667","25.1931266666667","6501000","淡水區"
"251005","443-VK","2017/10/10 17:29:37","新北市淡水區鄧公路31巷3號","121.451416666667","25.1708116666667","6501000","淡水區"
"251006","561-UM","2017/10/10 17:29:39","新北市淡水區大仁街13號","121.442373333333","25.1750066666667","6501000","淡水區"
"251009","575-R6","2017/10/10 17:29:43","新北市淡水區新生街90巷3號","121.439508333333","25.1744766666667","6501000","淡水區"
"251007","577-R6","2017/10/10 17:29:39","新北市淡水區民生路47-4號","121.46202","25.1379733333333","6501000","淡水區"
"251011","650-BX","2017/10/10 17:29:47","新北市淡水區坪頂路718號","121.482573333333","25.1585016666667","6501000","淡水區"
"251003","673-BX","2017/10/10 17:29:42","新北市淡水區中山路157號","121.440735","25.17279","6501000","淡水區"
"207003","550-UM","2017/10/10 17:29:49","新北市萬里區龜吼里翡翠路17號","121.683393333333","25.187255","6502800","萬里區"
"207004","225-TW","2017/10/10 17:29:50","新北市萬里區萬里里景美路6-1號","121.684033333333","25.1726666666667","6502800","萬里區"
"252005","073-UM","2017/10/10 15:23:22","新北市三芝區埔坪里埔頭坑41號","121.504505","25.2644866666667","6502100","三芝區"
"252002","178-VK","2017/10/10 17:29:35","新北市三芝區忠孝街1-14號","121.505465","25.2539433333333","6502100","三芝區"
"252001","292-VK","2017/10/10 17:29:46","新北市三芝區淡金路一段3號","121.498098333333","25.2596816666667","6502100","三芝區"
"237011","572-TV","2017/10/10 12:52:02","新北市三峽區中山路459巷163-3號","121.348703333333","24.932955","6500900","三峽區"
"237016","649-BX","2017/10/10 17:29:49","新北市三峽區中山路323號","121.360523333333","24.9381083333333","6500900","三峽區"
"242032","AAC-296","2017/10/10 17:29:42","新北市新莊區新泰路413巷22號","121.442535","25.0444416666667","6500500","新莊區"
"242029","986-R7","2017/10/10 17:29:37","新北市新莊區幸福路74號","121.456813333333","25.0493816666667","6500500","新莊區"
"242051","751-BX","2017/10/10 17:29:51","新北市新莊區新樹路445號","121.433008333333","25.0136283333333","6500500","新莊區"
"242025","615-BX","2017/10/10 17:29:51","新北市新莊區中港路281號","121.453135","25.0438683333333","6500500","新莊區"
"242023","613-BX","2017/10/10 17:29:37","新北市新莊區公園路146號","121.453011666667","25.040085","6500500","新莊區"
"242027","612-BX","2017/10/10 17:29:44","新北市新莊區思源路103號","121.460285","25.0415666666667","6500500","新莊區"
"242039","566-BX","2017/10/10 17:29:46","新北市新莊區民安東路1號","121.427441666667","25.021115","6500500","新莊區"
"242044","497-BY","2017/10/10 17:29:46","新北市新莊區富國路62號","121.419638333333","25.0260383333333","6500500","新莊區"
"242002","442-UM","2017/10/10 17:29:52","新北市新莊區利濟街18號","121.453115","25.03354","6500500","新莊區"
"242048","441-UM","2017/10/10 17:29:44","新北市新莊區四維路297號","121.421278333333","25.019955","6500500","新莊區"
"242054","440-UM","2017/10/10 17:29:44","新北市新莊區瓊林南路305巷10號","121.434811666667","25.00539","6500500","新莊區"
"242005","413-TV","2017/10/10 17:29:35","新北市新莊區中港路293號","121.452883333333","25.0441966666667","6500500","新莊區"
"242034","400-BY","2017/10/10 17:29:49","新北市新莊區新莊路457號","121.449526666667","25.0334066666667","6500500","新莊區"
"242061","362-BY","2017/10/10 17:29:39","新北市新莊區瓊林南路12-2號","121.436308333333","25.0190133333333","6500500","新莊區"
"242058","353-BY","2017/10/10 17:29:51","新北市新莊區中正路530號","121.431021666667","25.0316016666667","6500500","新莊區"
"242007","132-UY","2017/10/10 17:29:47","新北市新莊區自強街32號","121.454813333333","25.0462266666667","6500500","新莊區"
"242037","133-UY","2017/10/10 17:29:45","新北市新莊區民安路429巷3號","121.43396","25.0233916666667","6500500","新莊區"
"242021","135-UY","2017/10/10 17:29:53","新北市新莊區中華路一段18號","121.452028333333","25.0371816666667","6500500","新莊區"
"242046","172-VK","2017/10/10 17:29:34","新北市新莊區新樹路65-5號","121.439428333333","25.03087","6500500","新莊區"
"242009","173-VK","2017/10/10 17:28:50","新北市新莊區中原路189-1號","121.452463333333","25.0542866666667","6500500","新莊區"
"242015","175-VK","2017/10/10 17:29:51","新北市新莊區新泰路205號","121.447025","25.03831","6500500","新莊區"
"242013","346-TH","2017/10/10 17:29:53","新北市新莊區中誠街16巷1號","121.451758333333","25.0483416666667","6500500","新莊區"
"242042","347-TH","2017/10/10 17:29:36","新北市新莊區新樹路113巷15號","121.43834","25.0267966666667","6500500","新莊區"
"242019","348-TH","2017/10/10 17:29:45","新北市新莊區中港路76號","121.455478333333","25.03897","6500500","新莊區"
"242056","349-TH","2017/10/10 17:29:47","新北市新莊區新泰路16號","121.449646666667","25.033115","6500500","新莊區"
"242017","350-TH","2017/10/10 17:29:42","新北市新莊區復興路一段201號","121.45212","25.0435766666667","6500500","新莊區"
"238015","755-BX","2017/10/10 17:29:42","新北市樹林區大安路267號","121.419011666667","24.99373","6500700","樹林區"
"238023","601-UM","2017/10/10 17:29:50","新北市樹林區中正路433號","121.414995","25.0085733333333","6500700","樹林區"
"238019","599-UM","2017/10/10 17:29:48","新北市樹林區太平路59號","121.419106666667","24.98195","6500700","樹林區"
"238018","571-TV","2017/10/10 17:29:41","新北市樹林區鎮前街283號","121.418276666667","24.9849983333333","6500700","樹林區"
"238024","5061-A6","2017/10/10 17:29:41","新北市樹林區保安二街40巷49號","121.426346666667","24.9951866666667","6500700","樹林區"
"238021","KEA-2217","2017/10/10 17:29:52","新北市樹林區民權街48號","121.398988333333","24.959685","6500700","樹林區"
"238022","KEA-2213","2017/10/10 17:29:44","新北市樹林區和平街39號","121.422928333333","24.9817983333333","6500700","樹林區"
"238025","303-VK","2017/10/10 17:29:49","新北市樹林區保安二街159號","121.42225","24.9956266666667","6500700","樹林區"
"238017","283-BY","2017/10/10 17:29:42","新北市樹林區光武街35號","121.416655","25.0066116666667","6500700","樹林區"
"238014","282-BY","2017/10/10 17:29:40","新北市樹林區長壽街86號","121.419998333333","24.9958333333333","6500700","樹林區"
"238020","268-VK","2017/10/10 17:29:49","新北市樹林區俊英街48-2號","121.428473333333","25.0033716666667","6500700","樹林區"
"238026","172-UY","2017/10/10 17:29:47","新北市樹林區中山路三段41巷8-1號","121.40142","24.9748083333333","6500700","樹林區"
"238016","169-UY","2017/10/10 17:29:41","新北市樹林區長壽街4號","121.423761666667","24.9933966666667","6500700","樹林區"
"239007","AAC-297","2017/10/10 17:29:46","新北市鶯歌區國華路15號","121.342868333333","24.9561916666667","6500800","鶯歌區"
"239006","891-R6","2017/10/10 17:29:49","新北市鶯歌區鳳鳴路45號","121.333463333333","24.9654683333333","6500800","鶯歌區"
"239008","527-UM","2017/10/10 17:29:41","桃園市龜山區宏德司法新村4號","121.33146","24.9794533333333","6500800","鶯歌區"
"239005","526-UM","2017/10/10 17:29:44","桃園市桃園區大仁路71號","121.32324","24.9716966666667","6500800","鶯歌區"
"239001","417-VK","2017/10/10 17:29:46","新北市鶯歌區高職西街14號","121.338193333333","24.9423916666667","6500800","鶯歌區"
"239003","360-BY","2017/10/10 17:29:37","新北市鶯歌區鶯桃路196號","121.337493333333","24.9588383333333","6500800","鶯歌區"
"239002","359-BY","2017/10/10 17:29:38","新北市鶯歌區育英街15號","121.346828333333","24.9551616666667","6500800","鶯歌區"
"239004","193-VK","2017/10/10 17:29:41","新北市鶯歌區三鶯路29巷12號","121.354896666667","24.9405166666667","6500800","鶯歌區"
"221012","276-VK","2017/10/10 13:17:13","新北市汐止區汐萬路一段256巷3號","121.653465","25.0746433333333","6501100","汐止區"
"221023","279-VK","2017/10/10 17:29:42","新北市汐止區康寧街901號","121.651763333333","25.0749633333333","6501100","汐止區"
"221033","647-BX","2017/10/10 17:29:51","新北市汐止區連峰街1巷5號","121.645818333333","25.075985","6501100","汐止區"
"242011","280-VK","2017/10/10 17:29:37","新北市新莊區中港路408號","121.452226666667","25.05019","6500500","新莊區"
