"lineid","car","time","location","longitude","latitude","cityid","cityname"
"234013","149-BY","2017/10/10 17:49:45","新北市永和區福和路1號","121.52652","25.010115","6500400","永和區"
"234026","9371-KE","2017/10/10 17:49:49","新北市永和區和平街109巷6-1號","121.510635","25.0096466666667","6500400","永和區"
"234011","9373-KE","2017/10/10 17:47:49","新北市永和區福和路1號","121.525573333333","25.0093566666667","6500400","永和區"
"249005","172-UM","2017/10/10 17:49:51","新北市八里區荖阡里41號","121.402298333333","25.134685","6502300","八里區"
"249001","173-UM","2017/10/10 17:48:51","新北市八里區龍米路二段135號","121.444775","25.148105","6502300","八里區"
"249004","303-UY","2017/10/10 17:49:43","新北市八里區中華路一段309巷19-11號","121.417013333333","25.153475","6502300","八里區"
"249002","305-UY","2017/10/10 17:49:44","新北市八里區龍形五街37巷8號","121.448325","25.1320516666667","6502300","八里區"
"249003","593-UM","2017/10/10 17:49:34","新北市八里區中山路二段123號","121.40548","25.1519183333333","6502300","八里區"
"248006","077-UY","2017/10/10 17:49:44","新北市五股區中興路二段83巷26-6號","121.460075","25.0750516666667","6501500","五股區"
"232011","375-UM","2017/10/10 17:49:49","新北市坪林區北宜路八段219號","121.708815","24.9349783333333","6502000","坪林區"
"244013","069-UM","2017/10/10 17:49:43","新北市林口區中正路507號","121.383176666667","25.07749","6501700","林口區"
"244007","080-UY","2017/10/10 17:49:31","新北市林口區林口路147號","121.388381666667","25.0815566666667","6501700","林口區"
"244019","403-UM","2017/10/10 17:49:44","新北市林口區文化一路一段89-6號","121.371625","25.0707183333333","6501700","林口區"
"244025","742-UY","2017/10/10 17:49:35","新北市林口區文化三路一段181號","121.362216666667","25.0699633333333","6501700","林口區"
"244009","410-SL","2017/10/10 17:49:38","新北市林口區文化一路二段362號","121.384651666667","25.0839083333333","6501700","林口區"
"244023","483-VK","2017/10/10 17:49:43","新北市林口區東湖路2號","121.389346666667","25.073885","6501700","林口區"
"244017","485-VK","2017/10/10 17:49:31","新北市林口區忠孝路377號","121.3693","25.0715716666667","6501700","林口區"
"244011","656-BX","2017/10/10 17:49:35","新北市林口區中正路192號","121.391495","25.07765","6501700","林口區"
"244021","838-TS","2017/10/10 17:49:39","新北市林口區仁愛路一段83巷40號","121.397508333333","25.070635","6501700","林口區"
"222003","436-BY","2017/10/10 17:49:49","新北市深坑區阿柔洋60-1號","121.608631666667","24.9985833333333","6501800","深坑區"
"222002","659-BX","2017/10/10 17:49:46","新北市深坑區平埔街22巷8號","121.614933333333","25.0009","6501800","深坑區"
"231069","189-VK","2017/10/10 11:52:26","新北市新店區安華路28-1號","121.519555","24.960925","6500600","新店區"
"231046","278-BY","2017/10/10 17:49:47","新北市新店區下石厝路11-5號","121.531153333333","24.929465","6500600","新店區"
"241024","065-VK","2017/10/10 17:49:48","新北市三重區車路頭街62巷9號","121.483966666667","25.0725616666667","6500200","三重區"
"241016","266-UM","2017/10/10 17:49:46","新北市三重區新北大道一段7號","121.489618333333","25.06143","6500200","三重區"
"241032","269-UM","2017/10/10 17:49:44","新北市八里區下罟子8-10號","121.384031666667","25.1447066666667","6500200","三重區"
"241006","AAD-863","2017/10/10 17:49:46","新北市三重區車路頭街139巷14號","121.484293333333","25.0763383333333","6500200","三重區"
"241033","AAC-255","2017/10/10 17:49:34","新北市三重區重新路五段568號","121.469903333333","25.0457133333333","6500200","三重區"
"235064","005-UY","2017/10/10 17:49:36","新北市中和區員山路36巷16-3號","121.485031666667","24.9913466666667","6500300","中和區"
"235061","378-QA","2017/10/10 15:01:43","新北市中和區員山路36巷13號","121.48431","24.9912033333333","6500300","中和區"
"247022","893-R6","2017/10/10 17:49:44","新北市蘆洲區中正路367號","121.464945","25.0903466666667","6501400","蘆洲區"
"247012","546-UM","2017/10/10 17:49:37","新北市蘆洲區復興路114號","121.47621","25.087295","6501400","蘆洲區"
"247020","500-BY","2017/10/10 17:49:41","新北市蘆洲區民族路359巷7號","121.472035","25.09123","6501400","蘆洲區"
"247008","341-TH","2017/10/10 17:49:51","新北市蘆洲區信義路35號","121.47431","25.07948","6501400","蘆洲區"
"247010","339-TH","2017/10/10 17:49:44","新北市蘆洲區信義路271巷16號","121.47816","25.0848116666667","6501400","蘆洲區"
"247002","337-TH","2017/10/10 17:49:40","新北市蘆洲區永平街32巷21弄33號","121.457886666667","25.0921966666667","6501400","蘆洲區"
"247016","057-VK","2017/10/10 17:49:36","新北市蘆洲區中正路185巷68弄11號","121.466298333333","25.084845","6501400","蘆洲區"
"247006","056-VK","2017/10/10 17:49:51","新北市蘆洲區九芎街111號","121.465606666667","25.0796133333333","6501400","蘆洲區"
"247014","007-UY","2017/10/10 17:49:41","新北市蘆洲區保和街32號","121.47035","25.08653","6501400","蘆洲區"
"247024","002-UY","2017/10/10 17:49:44","新北市蘆洲區長樂路231號","121.461776666667","25.08988","6501400","蘆洲區"
"247018","001-UY","2017/10/10 17:49:46","新北市蘆洲區復興路227巷2弄2號","121.480065","25.09004","6501400","蘆洲區"
"228003","097-TW","2017/10/10 17:49:40","新北市貢寮區真理里美艷山街6-2號","121.928893333333","25.0607483333333","6502600","貢寮區"
"228001","212-TW","2017/10/10 17:49:32","新北市貢寮區仁理村仁愛路95-1號","121.92768","25.0555083333333","6502600","貢寮區"
"228002","585-TW","2017/10/10 17:49:41","新北市貢寮區福隆里龜壽谷街11-1號","121.954305","25.0069766666667","6502600","貢寮區"
"224010","AGQ-8101","2017/10/10 17:49:41","新北市瑞芳區明燈路一段1號","121.827273333333","25.1095433333333","6501200","瑞芳區"
"224006","676-BX","2017/10/10 17:49:43","新北市瑞芳區傑魚坑路266-1號","121.78852","25.1084066666667","6501200","瑞芳區"
"224002","639-TC","2017/10/10 17:49:45","新北市瑞芳區民權街3-1號","121.80905","25.1082183333333","6501200","瑞芳區"
"224009","285-BY","2017/10/10 17:49:38","新北市瑞芳區新山路179-1號","121.851646666667","25.1091383333333","6501200","瑞芳區"
"224008","275-VK","2017/10/10 17:49:36","新北市瑞芳區明燈路一段141號","121.820075","25.107155","6501200","瑞芳區"
"224005","271-BY","2017/10/10 17:49:43","新北市瑞芳區建基路一段46號","121.819848333333","25.1224083333333","6501200","瑞芳區"
"253006","295-VK","2017/10/10 17:49:49","新北市石門區中央路5-1號","121.56645","25.29148","6502200","石門區"
"208002","742-BX","2017/10/10 17:49:46","新北市金山區磺清路135號","121.639345","25.2276316666667","6502700","金山區"
"208001","761-BX","2017/10/10 17:49:47","新北市金山區磺清路135號","121.639271666667","25.2276833333333","6502700","金山區"
"251004","009-UM","2017/10/10 17:49:42","新北市淡水區民權一街1號","121.459436666667","25.136955","6501000","淡水區"
"251002","012-UM","2017/10/10 17:49:42","新北市淡水區中山路88號","121.442823333333","25.17053","6501000","淡水區"
"251008","181-VK","2017/10/10 17:49:39","新北市淡水區八勢路一段127號","121.467063333333","25.1571633333333","6501000","淡水區"
"251014","182-VK","2017/10/10 17:49:43","新北市淡水區公埔子16-6號","121.48096","25.2245583333333","6501000","淡水區"
"251010","413-VK","2017/10/10 17:49:49","新北市淡水區中正路二段53號","121.4182","25.18483","6501000","淡水區"
"251012","441-VK","2017/10/10 17:49:37","新北市淡水區北新路一段333號","121.465383333333","25.18226","6501000","淡水區"
"251016","442-VK","2017/10/10 17:49:34","新北市淡水區埤島38號","121.450628333333","25.1963616666667","6501000","淡水區"
"251005","443-VK","2017/10/10 17:49:48","新北市淡水區學府路102巷2號","121.450401666667","25.1720133333333","6501000","淡水區"
"251006","561-UM","2017/10/10 17:49:50","新北市淡水區中山北路一段45巷18號","121.441055","25.1760566666667","6501000","淡水區"
"251009","575-R6","2017/10/10 17:49:43","新北市淡水區長興街42號","121.444228333333","25.1714383333333","6501000","淡水區"
"251007","577-R6","2017/10/10 17:49:39","新北市淡水區民權路77號","121.459716666667","25.13858","6501000","淡水區"
"251011","650-BX","2017/10/10 17:44:27","新北市淡水區吳(仔)厝65號","121.482706666667","25.1504983333333","6501000","淡水區"
"251003","673-BX","2017/10/10 17:49:42","新北市淡水區大忠街15號","121.443586666667","25.17598","6501000","淡水區"
"207003","550-UM","2017/10/10 17:49:49","新北市萬里區野柳里東澳路66號","121.692868333333","25.201","6502800","萬里區"
"207004","225-TW","2017/10/10 17:49:30","新北市萬里區萬里里瑪鋉頂街61號","121.68838","25.18048","6502800","萬里區"
"252005","073-UM","2017/10/10 15:23:22","新北市三芝區埔坪里埔頭坑41號","121.504505","25.2644866666667","6502100","三芝區"
"252002","178-VK","2017/10/10 17:49:35","新北市三芝區智成街33號","121.503858333333","25.2565483333333","6502100","三芝區"
"252001","292-VK","2017/10/10 17:49:46","新北市三芝區淡金路一段34號","121.50034","25.2592116666667","6502100","三芝區"
"237004","078-UY","2017/10/10 17:49:36","新北市三峽區中山路117號","121.365671666667","24.9357516666667","6500900","三峽區"
"237009","210-TH","2017/10/10 17:49:35","新北市三峽區大勇路17號","121.36734","24.9366933333333","6500900","三峽區"
"237013","252-BX","2017/10/10 17:49:43","新北市三峽區愛國路14號","121.374181666667","24.9336516666667","6500900","三峽區"
"237012","275-BY","2017/10/10 17:49:44","新北市三峽區文化路16號","121.373261666667","24.9358733333333","6500900","三峽區"
"237008","302-VK","2017/10/10 17:49:44","新北市三峽區正義街2號","121.369896666667","24.919915","6500900","三峽區"
"237006","5529-G3","2017/10/10 17:49:46","新北市三峽區介壽路二段38巷76號","121.391865","24.933365","6500900","三峽區"
"237011","572-TV","2017/10/10 17:49:20","新北市三峽區中正路一段34號","121.37562","24.9306233333333","6500900","三峽區"
"237016","649-BX","2017/10/10 17:49:49","新北市三峽區白雞149-2號","121.40017","24.9056233333333","6500900","三峽區"
"237010","706-TV","2017/10/10 17:35:40","新北市三峽區中山路229號","121.363025","24.9370683333333","6500900","三峽區"
"237005","AKY-6261","2017/10/10 17:49:45","新北市三峽區中山路286號","121.361026666667","24.9379633333333","6500900","三峽區"
"236043","107-UM","2017/10/10 17:49:36","新北市土城區城林路6巷80號","121.438628333333","24.9800216666667","6501300","土城區"
"236070","165-UM","2017/10/10 17:49:46","新北市土城區青雲路452號","121.459281666667","24.9704616666667","6501300","土城區"
"236079","166-UM","2017/10/10 17:49:41","新北市土城區大安路2號","121.432883333333","24.9655333333333","6501300","土城區"
"236031","253-BX","2017/10/10 17:49:43","新北市土城區城林路6巷80號","121.438588333333","24.979635","6501300","土城區"
"236027","269-VK","2017/10/10 17:49:33","新北市土城區中央路二段280號","121.440578333333","24.9740383333333","6501300","土城區"
"236015","270-VK","2017/10/10 17:49:39","新北市土城區城林路6巷80號","121.438508333333","24.9796516666667","6501300","土城區"
"236038","271-VK","2017/10/10 17:49:39","新北市土城區城林路6巷80號","121.43846","24.9797666666667","6501300","土城區"
"236023","401-BY","2017/10/10 17:49:41","新北市土城區城林路6巷80號","121.438781666667","24.9797383333333","6501300","土城區"
"236059","912-UM","2017/10/10 17:49:38","新北市土城區城林路6巷80號","121.438578333333","24.979915","6501300","土城區"
"236049","913-UM","2017/10/10 17:49:40","新北市土城區城林路6巷80號","121.438448333333","24.979785","6501300","土城區"
"236063","915-UM","2017/10/10 17:49:51","新北市土城區城林路6巷80號","121.43844","24.979785","6501300","土城區"
"236055","AAC-216","2017/10/10 17:49:47","新北市土城區城林路6巷80號","121.43854","24.9796533333333","6501300","土城區"
"242032","AAC-296","2017/10/10 17:49:42","新北市新莊區新泰路321巷37號","121.443076666667","25.0411816666667","6500500","新莊區"
"242029","986-R7","2017/10/10 17:49:37","新北市新莊區復興路一段145號","121.45028","25.043285","6500500","新莊區"
"242051","751-BX","2017/10/10 17:49:51","新北市新莊區西盛街245巷20號","121.428868333333","25.0159783333333","6500500","新莊區"
"242025","615-BX","2017/10/10 17:49:52","新北市新莊區新北大道二段167號","121.46499","25.0610683333333","6500500","新莊區"
"242023","613-BX","2017/10/10 17:49:37","新北市新莊區福樂街66號","121.457786666667","25.0462816666667","6500500","新莊區"
"242027","612-BX","2017/10/10 17:49:44","新北市新莊區福壽街155號","121.457958333333","25.0533616666667","6500500","新莊區"
"242039","566-BX","2017/10/10 17:49:53","新北市新莊區民安路184號","121.425418333333","25.0237183333333","6500500","新莊區"
"242044","497-BY","2017/10/10 17:49:46","新北市新莊區中正路857號","121.41966","25.027885","6500500","新莊區"
"242002","442-UM","2017/10/10 17:49:32","新北市新莊區景德路192號","121.449845","25.03417","6500500","新莊區"
"242048","441-UM","2017/10/10 17:49:44","新北市新莊區萬安街97號","121.421018333333","25.0232383333333","6500500","新莊區"
"242054","440-UM","2017/10/10 17:49:44","新北市新莊區民安西路468-1號","121.431668333333","25.0078666666667","6500500","新莊區"
"242005","413-TV","2017/10/10 17:49:37","新北市新莊區思源路177巷4號","121.459323333333","25.0453666666667","6500500","新莊區"
"242034","400-BY","2017/10/10 17:49:49","新北市新莊區新莊路682號","121.441161666667","25.0327833333333","6500500","新莊區"
"242061","362-BY","2017/10/10 17:49:41","新北市新莊區新樹路525號","121.432745","25.0101666666667","6500500","新莊區"
"242058","353-BY","2017/10/10 17:49:51","新北市新莊區新北大道七段343號","121.412331666667","25.0274766666667","6500500","新莊區"
"242007","132-UY","2017/10/10 17:49:47","新北市新莊區福樂街110號","121.457366666667","25.0477133333333","6500500","新莊區"
"242037","133-UY","2017/10/10 17:49:45","新北市新莊區建福路59巷31號","121.428058333333","25.0277616666667","6500500","新莊區"
"242021","135-UY","2017/10/10 17:49:53","新北市新莊區永寧街37巷1號","121.452866666667","25.0396283333333","6500500","新莊區"
"242046","172-VK","2017/10/10 17:49:34","新北市新莊區福營路97巷9號","121.434773333333","25.03183","6500500","新莊區"
"242009","173-VK","2017/10/10 17:49:50","新北市新莊區昌明街30巷5弄16號","121.456191666667","25.05305","6500500","新莊區"
"242015","175-VK","2017/10/10 17:49:51","新北市新莊區新泰路502巷40號","121.443703333333","25.0464066666667","6500500","新莊區"
"242013","346-TH","2017/10/10 17:49:02","新北市新莊區中誠街166巷2號","121.448243333333","25.0476183333333","6500500","新莊區"
"242042","347-TH","2017/10/10 17:49:36","新北市新莊區中正路612-1號","121.426175","25.0301533333333","6500500","新莊區"
"242019","348-TH","2017/10/10 17:49:50","新北市新莊區民樂街57號","121.457871666667","25.041545","6500500","新莊區"
"242056","349-TH","2017/10/10 17:49:47","新北市新莊區豐年街55-15號","121.446486666667","25.030465","6500500","新莊區"
"242017","350-TH","2017/10/10 17:49:53","新北市新莊區永安街70號","121.45097","25.0447116666667","6500500","新莊區"
"238015","755-BX","2017/10/10 17:49:42","新北市樹林區樹德街136巷30號","121.42002","24.99438","6500700","樹林區"
"238023","601-UM","2017/10/10 17:49:50","新北市樹林區福興街3號","121.404253333333","25.0171183333333","6500700","樹林區"
"238019","599-UM","2017/10/10 17:49:48","新北市樹林區太平路120號","121.418538333333","24.978365","6500700","樹林區"
"238018","571-TV","2017/10/10 17:49:44","新北市樹林區博愛街6號","121.427615","24.993215","6500700","樹林區"
"238024","5061-A6","2017/10/10 17:49:41","新北市樹林區八德街1016號","121.391271666667","24.968585","6500700","樹林區"
"238021","KEA-2217","2017/10/10 17:49:52","新北市樹林區柑園街一段253巷1號","121.395646666667","24.9564216666667","6500700","樹林區"
"238022","KEA-2213","2017/10/10 17:49:44","新北市樹林區太元街42號","121.418175","24.9798416666667","6500700","樹林區"
"238025","303-VK","2017/10/10 17:49:49","新北市樹林區三俊街70號","121.413278333333","25.0157433333333","6500700","樹林區"
"238017","283-BY","2017/10/10 17:49:42","新北市樹林區三德街30巷27號","121.414733333333","25.01233","6500700","樹林區"
"238014","282-BY","2017/10/10 17:49:40","新北市樹林區大安路200號","121.420715","24.9960933333333","6500700","樹林區"
"238020","268-VK","2017/10/10 17:49:49","新北市樹林區三俊街265號","121.422695","25.01428","6500700","樹林區"
"238026","172-UY","2017/10/10 17:49:47","新北市樹林區新興街19巷2弄29號","121.401781666667","24.9730283333333","6500700","樹林區"
"238016","169-UY","2017/10/10 17:49:41","新北市樹林區啟智街129-10號","121.417725","24.9889866666667","6500700","樹林區"
"239007","AAC-297","2017/10/10 17:49:43","新北市鶯歌區鶯桃路100號","121.33918","24.9542283333333","6500800","鶯歌區"
"239006","891-R6","2017/10/10 17:49:49","新北市鶯歌區鶯桃路413巷4號","121.332451666667","24.9644683333333","6500800","鶯歌區"
"239008","527-UM","2017/10/10 17:49:41","新北市鶯歌區香賓街13巷1號","121.336888333333","24.9796266666667","6500800","鶯歌區"
"239005","526-UM","2017/10/10 17:49:44","新北市鶯歌區鶯桃路二段3號","121.326173333333","24.9718733333333","6500800","鶯歌區"
"239001","417-VK","2017/10/10 17:49:46","新北市鶯歌區中正三路373-1號","121.327175","24.9345283333333","6500800","鶯歌區"
"239003","360-BY","2017/10/10 17:49:37","新北市鶯歌區永吉街50號","121.335388333333","24.9569966666667","6500800","鶯歌區"
"239002","359-BY","2017/10/10 17:49:38","新北市鶯歌區育英街9號","121.346918333333","24.955525","6500800","鶯歌區"
"239004","193-VK","2017/10/10 17:49:41","新北市鶯歌區尖山路101巷13-1號","121.34663","24.9426566666667","6500800","鶯歌區"
"221008","489-VK","2017/10/10 17:49:41","新北市汐止區康寧街901號","121.651441666667","25.0750316666667","6501100","汐止區"
"221036","130-UY","2017/10/10 17:49:41","新北市汐止區長江街65號","121.656771666667","25.07189","6501100","汐止區"
"221015","131-UY","2017/10/10 17:49:38","新北市汐止區長江街249-1號","121.662855","25.0793983333333","6501100","汐止區"
"221010","269-BY","2017/10/10 17:48:24","新北市汐止區汐萬路一段418巷6弄2號","121.65028","25.0778266666667","6501100","汐止區"
"221012","276-VK","2017/10/10 13:17:13","新北市汐止區汐萬路一段256巷3號","121.653465","25.0746433333333","6501100","汐止區"
"221012","278-VK","2017/10/10 17:49:35","新北市汐止區長江街71號","121.656996666667","25.072095","6501100","汐止區"
"221023","279-VK","2017/10/10 17:49:42","新北市汐止區康寧街591巷4號","121.634965","25.0706133333333","6501100","汐止區"
"221032","280-BY","2017/10/10 17:49:37","新北市汐止區大同路一段5號","121.621878333333","25.05502","6501100","汐止區"
"221029","298-VK","2017/10/10 17:49:41","新北市汐止區汐萬路一段256巷1號","121.651676666667","25.0748216666667","6501100","汐止區"
"221021","299-VK","2017/10/10 17:49:39","新北市汐止區水源路一段13號","121.657233333333","25.0668566666667","6501100","汐止區"
"221031","353-TW","2017/10/10 17:49:36","新北市汐止區樟樹二路349號","121.642033333333","25.0735033333333","6501100","汐止區"
"221035","622-UM","2017/10/10 17:49:42","新北市汐止區汐萬路一段160號","121.652611666667","25.0715266666667","6501100","汐止區"
"221038","646-BX","2017/10/10 17:49:33","新北市汐止區汐萬路一段310號","121.650368333333","25.0747433333333","6501100","汐止區"
"221033","647-BX","2017/10/10 17:49:51","新北市汐止區橫科路73巷20弄22號","121.619801666667","25.05167","6501100","汐止區"
"221018","753-BX","2017/10/10 17:49:44","新北市汐止區忠孝東路348號","121.665655","25.0696833333333","6501100","汐止區"
"242011","280-VK","2017/10/10 17:49:51","新北市新莊區中港路684號","121.450733333333","25.0567983333333","6500500","新莊區"
