"lineid","car","time","location","longitude","latitude","cityid","cityname"
"234046","148-BY","2017/10/10 18:39:44","新北市永和區林森路46巷2號","121.52511","25.004845","6500400","永和區"
"234013","149-BY","2017/10/10 18:39:45","新北市永和區保福路二段109巷2號","121.510186666667","25.0133666666667","6500400","永和區"
"234007","207-UY","2017/10/10 18:39:40","新北市永和區文化路170號","121.511751666667","25.015555","6500400","永和區"
"234081","298-R6","2017/10/10 18:39:53","新北市永和區林森路64號","121.523885","25.004055","6500400","永和區"
"234064","337-UY","2017/10/10 18:39:36","新北市永和區福和路1號","121.526545","25.0098283333333","6500400","永和區"
"234086","338-UY","2017/10/10 18:39:52","新北市永和區永貞路175號","121.5151","25.003925","6500400","永和區"
"234054","553-UM","2017/10/10 18:39:45","新北市永和區福和路1號","121.525916666667","25.0096766666667","6500400","永和區"
"234017","745-BX","2017/10/10 18:39:52","新北市永和區福和路1號","121.526476666667","25.0098866666667","6500400","永和區"
"234030","746-BX","2017/10/10 18:39:45","新北市永和區成功路一段89號","121.52689","25.0029283333333","6500400","永和區"
"234042","862-TW","2017/10/10 18:39:47","新北市永和區永和路一段122號","121.513866666667","25.0077833333333","6500400","永和區"
"234050","863-TW","2017/10/10 18:39:43","新北市永和區福和路1號","121.525813333333","25.0094183333333","6500400","永和區"
"234026","9371-KE","2017/10/10 18:39:49","新北市永和區保平路93巷5弄4號","121.512188333333","25.0066366666667","6500400","永和區"
"234011","9373-KE","2017/10/10 18:39:50","新北市永和區文化路9巷22弄60號","121.513823333333","25.01452","6500400","永和區"
"249005","172-UM","2017/10/10 18:39:42","新北市八里區中華路三段208號","121.388453333333","25.12595","6502300","八里區"
"249001","173-UM","2017/10/10 18:39:51","新北市八里區龍米路一段386巷1-1號","121.451515","25.1323433333333","6502300","八里區"
"249004","303-UY","2017/10/10 18:39:43","新北市八里區中山路一段178號","121.416895","25.1594366666667","6502300","八里區"
"248014","025-BX","2017/10/10 18:39:43","新北市五股區蓬萊路24號","121.433915","25.0798866666667","6501500","五股區"
"248016","026-BX","2017/10/10 18:39:50","新北市五股區凌雲路一段149巷5-1號","121.448908333333","25.101735","6501500","五股區"
"248020","225-UY","2017/10/10 18:39:40","新北市五股區孝義路102號","121.44536","25.1196283333333","6501500","五股區"
"248012","247-BX","2017/10/10 18:39:44","新北市五股區御史路79號","121.44069","25.0948683333333","6501500","五股區"
"248010","272-BY","2017/10/10 18:39:35","新北市五股區自強路90巷28號","121.431845","25.072115","6501500","五股區"
"248004","677-BX","2017/10/10 18:39:37","新北市五股區民義路一段206號","121.430365","25.08906","6501500","五股區"
"248002","678-BX","2017/10/10 18:01:18","新北市五股區中興路二段37巷28號","121.460186666667","25.07508","6501500","五股區"
"234023","9380-KE","2017/10/10 18:39:52","新北市永和區福和路76巷5弄14號","121.522376666667","25.0084033333333","6500400","永和區"
"234077","969-R7","2017/10/10 18:39:47","新北市永和區中正路161號","121.516475","24.9984466666667","6500400","永和區"
"234074","AAC-211","2017/10/10 18:39:50","新北市永和區福和路1號","121.526503333333","25.0098666666667","6500400","永和區"
"234067","AAC-212","2017/10/10 18:39:51","新北市中和區永貞路290號","121.512891666667","25.00415","6500400","永和區"
"234003","AAC-295","2017/10/10 18:39:48","新北市永和區福和路1號","121.525593333333","25.0094066666667","6500400","永和區"
"244013","069-UM","2017/10/10 18:39:22","新北市林口區中正路508號","121.38198","25.0772266666667","6501700","林口區"
"244007","080-UY","2017/10/10 18:39:51","新北市林口區太平里19號","121.377828333333","25.11595","6501700","林口區"
"244019","403-UM","2017/10/10 18:39:44","新北市林口區忠孝路594巷8號","121.375985","25.0675733333333","6501700","林口區"
"244025","742-UY","2017/10/10 18:39:35","新北市林口區南勢四街323號","121.35655","25.074825","6501700","林口區"
"244009","410-SL","2017/10/10 18:39:38","新北市林口區寶林路117號","121.383376666667","25.0853183333333","6501700","林口區"
"244023","483-VK","2017/10/10 18:39:43","新北市林口區文化二路二段105號","121.378176666667","25.0806533333333","6501700","林口區"
"244017","485-VK","2017/10/10 18:39:51","新北市林口區文化二路一段112號","121.367291666667","25.0705033333333","6501700","林口區"
"244011","656-BX","2017/10/10 18:39:35","新北市林口區中正路57巷12弄21號","121.394746666667","25.0763616666667","6501700","林口區"
"244021","838-TS","2017/10/10 18:39:39","新北市林口區粉寮路一段64號","121.39709","25.0785883333333","6501700","林口區"
"243013","AAD-798","2017/10/10 18:39:46","新北市泰山區明志路三段206巷3號","121.423305","25.0379166666667","6501600","泰山區"
"243015","380-SR","2017/10/10 18:39:41","新北市泰山區犁頭窠3-1號","121.422148333333","25.0604883333333","6501600","泰山區"
"243012","646-TV","2017/10/10 18:39:44","新北市泰山區福興三街13號","121.434473333333","25.0577316666667","6501600","泰山區"
"243016","680-BX","2017/10/10 18:39:53","新北市泰山區黎明路23-1號","121.42147","25.0611666666667","6501600","泰山區"
"222003","436-BY","2017/10/10 18:39:49","新北市深坑區翠谷街37巷2號","121.62659","25.00944","6501800","深坑區"
"222001","628-TS","2017/10/10 18:39:50","新北市深坑區北深路一段82號","121.636363333333","25.0107533333333","6501800","深坑區"
"222002","659-BX","2017/10/10 18:39:46","新北市深坑區文山路一段62巷33號","121.621181666667","25.00021","6501800","深坑區"
"231059","046-UY","2017/10/10 18:39:44","新北市新店區安華路28-1號","121.519711666667","24.9608116666667","6500600","新店區"
"231061","047-UY","2017/10/10 18:39:51","新北市新店區安華路28-1號","121.519256666667","24.9609816666667","6500600","新店區"
"231060","106-UY","2017/10/10 18:39:36","新北市新店區安華路28-1號","121.51954","24.9606633333333","6500600","新店區"
"231048","108-UY","2017/10/10 18:39:45","新北市新店區中正路111號","121.542498333333","24.9705316666667","6500600","新店區"
"231051","110-UY","2017/10/10 18:39:43","新北市新店區中央路63號","121.532543333333","24.977125","6500600","新店區"
"231053","187-VK","2017/10/10 18:39:44","新北市新店區新烏路一段58-2號","121.546121666667","24.945715","6500600","新店區"
"231069","189-VK","2017/10/10 11:52:26","新北市新店區安華路28-1號","121.519555","24.960925","6500600","新店區"
"231050","215-TC","2017/10/10 18:39:48","新北市新店區安華路28-1號","121.519855","24.9612633333333","6500600","新店區"
"231057","256-BX","2017/10/10 18:39:33","新北市新店區新烏路一段201號","121.547876666667","24.93233","6500600","新店區"
"231046","278-BY","2017/10/10 18:39:47","新北市新店區直潭二街1號","121.535575","24.9432266666667","6500600","新店區"
"231054","AAD-862","2017/10/10 18:39:37","新北市新店區安華路28-1號","121.519926666667","24.961295","6500600","新店區"
"231041","355-BY","2017/10/10 18:39:50","新北市新店區安華路28-1號","121.519275","24.9609283333333","6500600","新店區"
"231058","3712-VJ","2017/10/10 18:39:49","新北市新店區國校路76-1號","121.5386","24.95311","6500600","新店區"
"231055","3713-VJ","2017/10/10 18:39:41","新北市新店區華興街38巷3號","121.537216666667","24.9692333333333","6500600","新店區"
"231056","4716-K9","2017/10/10 18:39:38","新北市新店區大豐路86號","121.53815","24.9789883333333","6500600","新店區"
"231067","4772-VM","2017/10/10 18:39:41","新北市新店區安華路28-1號","121.519171666667","24.960635","6500600","新店區"
"231065","513-UM","2017/10/10 18:39:51","新北市新店區安華路28-1號","121.51924","24.961145","6500600","新店區"
"231064","515-UM","2017/10/10 18:39:34","新北市新店區安華路28-1號","121.519835","24.9612416666667","6500600","新店區"
"231040","619-UM","2017/10/10 18:39:40","新北市新店區安華路28-1號","121.519498333333","24.9608633333333","6500600","新店區"
"231042","641-BX","2017/10/10 18:39:34","新北市新店區安華路28-1號","121.519585","24.9605533333333","6500600","新店區"
"231063","645-TV","2017/10/10 18:39:50","新北市新店區安華路28-1號","121.519323333333","24.9605866666667","6500600","新店區"
"231049","719-UM","2017/10/10 18:39:50","新北市新店區安康路一段85號","121.529433333333","24.9614216666667","6500600","新店區"
"231062","720-UM","2017/10/10 18:39:40","新北市新店區安華路28-1號","121.519321666667","24.961195","6500600","新店區"
"231044","897-TW","2017/10/10 18:39:34","新北市新店區環河路29巷1號","121.53699","24.9613333333333","6500600","新店區"
"231045","898-TW","2017/10/10 18:39:45","新北市新店區安華路28-1號","121.51934","24.9608833333333","6500600","新店區"
"231043","899-TW","2017/10/10 18:39:40","新北市新店區安華路28-1號","121.51917","24.960905","6500600","新店區"
"231066","AKT-0513","2017/10/10 18:39:40","新北市新店區安華路1-1號","121.519496666667","24.9605016666667","6500600","新店區"
"241016","266-UM","2017/10/10 18:39:46","新北市五股區中直路11-21號","121.426798333333","25.1095333333333","6500200","三重區"
"241032","269-UM","2017/10/10 18:39:43","新北市三重區重陽路一段120巷48號","121.484991666667","25.0602","6500200","三重區"
"235066","003-UY","2017/10/10 18:39:52","新北市中和區水源路34巷2號","121.504715","25.0035583333333","6500300","中和區"
"235064","005-UY","2017/10/10 18:39:36","新北市中和區連城路96號","121.496598333333","25.0000916666667","6500300","中和區"
"235063","006-UY","2017/10/10 18:39:38","新北市中和區連城路347巷4弄12號","121.487736666667","24.9955833333333","6500300","中和區"
"235056","096-UM","2017/10/10 18:39:47","新北市中和區員山路611巷1號","121.477896666667","25.01125","6500300","中和區"
"235039","097-UM","2017/10/10 18:39:37","新北市永和區安樂路100巷5號","121.514246666667","24.9994633333333","6500300","中和區"
"235065","098-UM","2017/10/10 18:39:52","新北市中和區莊敬路49巷15弄4號","121.501096666667","25.00575","6500300","中和區"
"235040","150-BY","2017/10/10 18:39:36","新北市中和區保健路50巷68號","121.509163333333","24.9951616666667","6500300","中和區"
"235058","151-BY","2017/10/10 18:39:36","新北市中和區員山路32號","121.48108","24.987635","6500300","中和區"
"235055","183-VK","2017/10/10 18:39:46","新北市中和區中山路三段229巷59號","121.469036666667","25.0052166666667","6500300","中和區"
"235038","185-VK","2017/10/10 18:39:39","新北市中和區自強路12號","121.520288333333","24.9957666666667","6500300","中和區"
"235049","186-VK","2017/10/10 18:39:39","新北市中和區景平路506號","121.503948333333","24.993825","6500300","中和區"
"235067","255-BX","2017/10/10 18:39:35","新北市中和區新生街276號","121.483683333333","24.99691","6500300","中和區"
"235044","293-VK","2017/10/10 18:39:54","新北市中和區復興路282號","121.50225","24.9904083333333","6500300","中和區"
"235072","301-VK","2017/10/10 18:39:40","新北市中和區中山路二段172號","121.501166666667","25.0029","6500300","中和區"
"235043","352-BY","2017/10/10 18:39:38","新北市中和區景平路103號","121.517141666667","24.9917166666667","6500300","中和區"
"235068","375-QA","2017/10/10 18:39:39","新北市中和區中正路166號","121.498495","24.993805","6500300","中和區"
"235051","376-QA","2017/10/10 18:39:52","新北市中和區興南路二段110號","121.504526666667","24.9840883333333","6500300","中和區"
"235061","378-QA","2017/10/10 18:39:43","新北市中和區民享街114巷27號","121.473498333333","24.9995733333333","6500300","中和區"
"235050","4979-A6","2017/10/10 18:39:44","新北市中和區景新街496巷30弄8號","121.513185","24.9855483333333","6500300","中和區"
"235069","4980-A6","2017/10/10 18:39:51","新北市中和區連城路63號","121.49773","25.0013366666667","6500300","中和區"
"235042","551-UM","2017/10/10 18:39:45","新北市中和區成功路127巷16號","121.527003333333","24.9908166666667","6500300","中和區"
"235070","558-UM","2017/10/10 18:39:39","新北市中和區南華路13號","121.5024","24.9955783333333","6500300","中和區"
"235045","565-BX","2017/10/10 18:39:44","新北市中和區南山路236巷9號","121.505815","24.988935","6500300","中和區"
"235054","640-BX","2017/10/10 18:39:36","新北市中和區民享街86巷2號","121.474405","25.0010183333333","6500300","中和區"
"235060","647-TV","2017/10/10 18:39:40","新北市中和區中山路二段475號","121.483105","25.0050316666667","6500300","中和區"
"235047","732-UM","2017/10/10 18:39:43","新北市中和區南山路320巷1號","121.507723333333","24.98647","6500300","中和區"
"235046","733-UM","2017/10/10 18:39:45","新北市中和區興南路一段86號","121.509983333333","24.9893816666667","6500300","中和區"
"235062","800-TS","2017/10/10 18:39:39","新北市中和區中山路二段312巷37號","121.495201666667","25.0039916666667","6500300","中和區"
"235057","801-TS","2017/10/10 18:39:34","新北市中和區員山路327巷23號","121.480073333333","25.0018416666667","6500300","中和區"
"235041","802-TS","2017/10/10 18:39:36","新北市中和區景安路68號","121.505826666667","24.9967183333333","6500300","中和區"
"235052","805-TS","2017/10/10 18:39:49","新北市中和區興南路三段46號","121.49547","24.97635","6500300","中和區"
"235048","896-TW","2017/10/10 18:39:46","新北市中和區南山路393號","121.506555","24.99019","6500300","中和區"
"235053","900-TW","2017/10/10 18:39:46","新北市土城區延壽路118-3號","121.469115","24.99414","6500300","中和區"
"235037","AAC-213","2017/10/10 18:39:41","新北市中和區景平路111巷63號","121.515205","24.9903","6500300","中和區"
"235059","AAC-215","2017/10/10 18:39:41","新北市中和區錦和路354巷3號","121.490331666667","24.9916383333333","6500300","中和區"
"220065","072-UY","2017/10/10 18:39:42","新北市板橋區華東街11號","121.450711666667","24.9978383333333","6500100","板橋區"
"220086","073-UY","2017/10/10 18:39:50","新北市板橋區南雅西路一段110號","121.452458333333","25.00625","6500100","板橋區"
"220068","120-SR","2017/10/10 18:39:24","新北市板橋區民生路二段120號","121.47035","25.0197416666667","6500100","板橋區"
"226004","312-R5","2017/10/10 18:39:46","新北市平溪區石底里公園街18-3號","121.733253333333","25.0258683333333","6502400","平溪區"
"228003","097-TW","2017/10/10 18:39:40","新北市貢寮區和美里龍洞街5-1號","121.918423333333","25.11185","6502600","貢寮區"
"228001","212-TW","2017/10/10 18:39:52","新北市貢寮區仁理村研海街12-1號","121.923763333333","25.051685","6502600","貢寮區"
"228002","585-TW","2017/10/10 18:39:41","新北市貢寮區福隆里桂安街18號","121.958333333333","25.0198666666667","6502600","貢寮區"
"224010","AGQ-8101","2017/10/10 18:38:44","新北市瑞芳區烏勢巷108號","121.846395","25.108755","6501200","瑞芳區"
"224006","676-BX","2017/10/10 18:39:43","新北市瑞芳區明燈路三段130號","121.804565","25.1084766666667","6501200","瑞芳區"
"224002","639-TC","2017/10/10 18:39:45","新北市瑞芳區靜安路四段67-2號","121.793308333333","25.1088433333333","6501200","瑞芳區"
"224009","285-BY","2017/10/10 18:39:37","新北市瑞芳區五號路308號","121.856861666667","25.1115116666667","6501200","瑞芳區"
"224008","275-VK","2017/10/10 18:39:45","新北市瑞芳區瑞芳街139號","121.805045","25.1099","6501200","瑞芳區"
"224007","273-VK","2017/10/10 18:39:43","新北市瑞芳區大埔路115巷4號","121.763276666667","25.101105","6501200","瑞芳區"
"224005","271-BY","2017/10/10 18:39:43","新北市瑞芳區瑞濱路147-9號","121.818405","25.1182833333333","6501200","瑞芳區"
"227003","642-TC","2017/10/10 18:39:46","新北市雙溪區魚行里坤溪3-5號","121.875863333333","25.0211366666667","6502500","雙溪區"
"227009","400-TW","2017/10/10 18:39:44","新北市雙溪區牡丹里下坑11號","121.850983333333","25.0562083333333","6502500","雙溪區"
"253005","032-BX","2017/10/10 18:39:50","新北市石門區中山路33號","121.567146666667","25.2909533333333","6502200","石門區"
"253006","295-VK","2017/10/10 18:39:48","新北市石門區崁子腳45號","121.533611666667","25.2884283333333","6502200","石門區"
"208002","742-BX","2017/10/10 18:39:45","新北市金山區忠孝一路15巷11號","121.638343333333","25.2187566666667","6502700","金山區"
"208003","665-BX","2017/10/10 18:39:54","新北市金山區中山路315號","121.635645","25.2238666666667","6502700","金山區"
"208001","761-BX","2017/10/10 18:39:47","新北市金山區文化三路7號","121.635126666667","25.2249083333333","6502700","金山區"
"251002","012-UM","2017/10/10 18:39:42","新北市淡水區中正東路一段3巷2號","121.450485","25.1649433333333","6501000","淡水區"
"251008","181-VK","2017/10/10 18:39:39","新北市淡水區北投子68-2號","121.454356666667","25.18153","6501000","淡水區"
"251014","182-VK","2017/10/10 18:39:43","新北市淡水區南平21-2號","121.498071666667","25.21624","6501000","淡水區"
"251010","413-VK","2017/10/10 18:39:48","新北市淡水區沙崙路141號","121.423245","25.18296","6501000","淡水區"
"251012","441-VK","2017/10/10 18:39:37","新北市淡水區北新路117號","121.448863333333","25.1785983333333","6501000","淡水區"
"251016","442-VK","2017/10/10 18:39:34","新北市淡水區下圭柔山76號","121.442681666667","25.2052933333333","6501000","淡水區"
"251001","559-UM","2017/10/10 18:39:43","新北市淡水區自強路415巷2號","121.465548333333","25.1342233333333","6501000","淡水區"
"251006","561-UM","2017/10/10 18:39:39","新北市淡水區崁頂51-1號","121.44187","25.1975966666667","6501000","淡水區"
"251011","650-BX","2017/10/10 18:39:47","新北市淡水區鄧公路41號","121.458083333333","25.1688733333333","6501000","淡水區"
"251003","673-BX","2017/10/10 18:39:42","新北市淡水區北新路69巷20-1號","121.446401666667","25.1797633333333","6501000","淡水區"
"207003","550-UM","2017/10/10 18:39:49","新北市萬里區大鵬里頂社24-5號","121.663618333333","25.2059666666667","6502800","萬里區"
"207004","225-TW","2017/10/10 18:39:50","新北市萬里區萬里里獅頭路12-1號","121.692545","25.1792616666667","6502800","萬里區"
"252005","073-UM","2017/10/10 15:23:22","新北市三芝區埔坪里埔頭坑41號","121.504505","25.2644866666667","6502100","三芝區"
"252002","178-VK","2017/10/10 18:39:35","新北市三芝區民生街64巷11號","121.503621666667","25.2550566666667","6502100","三芝區"
"252003","249-BX","2017/10/10 18:39:46","新北市三芝區後厝里北勢子54-3號","121.466951666667","25.2499516666667","6502100","三芝區"
"252001","292-VK","2017/10/10 18:39:46","新北市三芝區中興街二段56號","121.499625","25.254925","6502100","三芝區"
"237004","078-UY","2017/10/10 18:39:36","新北市三峽區插角133-1號","121.411791666667","24.8698033333333","6500900","三峽區"
"237007","153-BY","2017/10/10 18:39:52","新北市三峽區柑樹路2巷15號","121.361981666667","24.9049016666667","6500900","三峽區"
"237009","210-TH","2017/10/10 18:39:55","新北市三峽區弘園街26號","121.366341666667","24.92723","6500900","三峽區"
"237013","252-BX","2017/10/10 18:39:43","新北市三峽區光明路69巷25號","121.376703333333","24.9291766666667","6500900","三峽區"
"237012","275-BY","2017/10/10 18:39:44","新北市三峽區三樹路328號","121.381698333333","24.9441066666667","6500900","三峽區"
"237008","302-VK","2017/10/10 18:39:53","新北市三峽區白雞67號","121.39649","24.91112","6500900","三峽區"
"237006","5529-G3","2017/10/10 18:39:46","新北市三峽區溪東路315巷42號","121.411303333333","24.93119","6500900","三峽區"
"237011","572-TV","2017/10/10 18:02:55","新北市三峽區橫溪路1號","121.396088333333","24.936215","6500900","三峽區"
"237016","649-BX","2017/10/10 18:39:48","新北市三峽區竹崙路167號","121.437695","24.905615","6500900","三峽區"
"237010","706-TV","2017/10/10 18:38:40","新北市三峽區復興路321號","121.364858333333","24.9387466666667","6500900","三峽區"
"237005","AKY-6261","2017/10/10 18:39:45","新北市三峽區復興路5號","121.374245","24.9360033333333","6500900","三峽區"
"236043","107-UM","2017/10/10 18:39:56","新北市土城區學成路94巷9弄16號","121.450456666667","24.9897083333333","6501300","土城區"
"236070","165-UM","2017/10/10 18:39:46","新北市土城區延吉街311號","121.465943333333","24.9843616666667","6501300","土城區"
"236079","166-UM","2017/10/10 18:39:41","新北市土城區中央路四段46巷28號","121.421935","24.9616366666667","6501300","土城區"
"236031","253-BX","2017/10/10 18:39:43","新北市土城區中央路二段276號","121.440995","24.9741333333333","6501300","土城區"
"236027","269-VK","2017/10/10 18:39:33","新北市土城區忠義路49號","121.440466666667","24.969115","6501300","土城區"
"236015","270-VK","2017/10/10 18:39:39","新北市土城區清水路234巷15弄29號","121.462128333333","24.9822583333333","6501300","土城區"
"236038","271-VK","2017/10/10 18:39:42","新北市土城區青山路3巷1號","121.461078333333","24.97699","6501300","土城區"
"236023","401-BY","2017/10/10 18:39:41","新北市土城區延吉街270號","121.465831666667","24.9845016666667","6501300","土城區"
"236059","912-UM","2017/10/10 18:39:38","新北市土城區中央路四段138號","121.417541666667","24.9585583333333","6501300","土城區"
"236049","913-UM","2017/10/10 18:39:40","新北市土城區明德路一段151號","121.465108333333","24.979975","6501300","土城區"
"236063","915-UM","2017/10/10 18:39:50","新北市土城區延和路177巷16號","121.469971666667","24.99068","6501300","土城區"
"236055","AAC-216","2017/10/10 18:39:47","新北市土城區裕民路6-3號","121.446878333333","24.9890666666667","6501300","土城區"
"242032","AAC-296","2017/10/10 18:39:41","新北市新莊區新泰路277巷48號","121.443471666667","25.0401233333333","6500500","新莊區"
"242061","362-BY","2017/10/10 18:39:39","新北市泰山區磚雅厝3號","121.442205","25.041725","6500500","新莊區"
"242046","172-VK","2017/10/10 18:39:34","新北市新莊區中正路857號","121.419733333333","25.0281983333333","6500500","新莊區"
"242042","347-TH","2017/10/10 18:39:36","新北市泰山區磚雅厝30號","121.43847","25.0432333333333","6500500","新莊區"
"238015","755-BX","2017/10/10 18:39:53","新北市樹林區備內街160巷1號","121.406996666667","24.9896566666667","6500700","樹林區"
"238023","601-UM","2017/10/10 18:39:50","新北市樹林區三福街114號","121.406491666667","25.016335","6500700","樹林區"
"238019","599-UM","2017/10/10 18:39:48","新北市樹林區中華路190-16號","121.411661666667","24.980605","6500700","樹林區"
"238018","571-TV","2017/10/10 18:39:50","新北市樹林區樹新路123號","121.428268333333","24.995965","6500700","樹林區"
"238024","5061-A6","2017/10/10 18:39:41","新北市樹林區太順街86巷9號","121.416798333333","24.9784316666667","6500700","樹林區"
"238022","KEA-2213","2017/10/10 18:39:44","新北市樹林區中華路190-1號","121.411356666667","24.9805616666667","6500700","樹林區"
"238025","303-VK","2017/10/10 18:39:49","新北市樹林區中山路三段22號","121.395676666667","24.9729583333333","6500700","樹林區"
"238017","283-BY","2017/10/10 18:39:42","新北市樹林區光興街50號","121.409848333333","25.0027783333333","6500700","樹林區"
"238014","282-BY","2017/10/10 18:39:40","新北市樹林區大安路111巷41號","121.423338333333","24.9976583333333","6500700","樹林區"
"238020","268-VK","2017/10/10 18:39:49","新北市樹林區俊英街223巷2號","121.42368","25.0135266666667","6500700","樹林區"
"238026","172-UY","2017/10/10 18:39:47","新北市樹林區八德街640號","121.39675","24.9693816666667","6500700","樹林區"
"238016","169-UY","2017/10/10 18:39:40","新北市樹林區文化街28號","121.419288333333","24.98769","6500700","樹林區"
"239007","AAC-297","2017/10/10 18:39:42","新北市鶯歌區中正一路461-2號","121.363468333333","24.9566","6500800","鶯歌區"
"239006","891-R6","2017/10/10 18:39:49","新北市鶯歌區鶯桃路296巷48-1號","121.33588","24.9612766666667","6500800","鶯歌區"
"239008","527-UM","2017/10/10 18:39:41","新北市鶯歌區國際一路179號","121.336261666667","24.9765183333333","6500800","鶯歌區"
"239005","526-UM","2017/10/10 18:39:44","新北市鶯歌區鶯桃路二段58號","121.325073333333","24.9729516666667","6500800","鶯歌區"
"239001","417-VK","2017/10/10 18:39:46","新北市鶯歌區中正二路184號","121.34093","24.9477433333333","6500800","鶯歌區"
"239003","360-BY","2017/10/10 18:39:37","新北市鶯歌區永和街148號","121.335408333333","24.9698783333333","6500800","鶯歌區"
"239002","359-BY","2017/10/10 18:39:38","新北市鶯歌區中山路273號","121.345011666667","24.95704","6500800","鶯歌區"
"239004","193-VK","2017/10/10 18:39:41","新北市鶯歌區中正三路186號","121.333106666667","24.9382566666667","6500800","鶯歌區"
"221008","489-VK","2017/10/10 18:26:33","新北市汐止區康寧街901號","121.651433333333","25.0751066666667","6501100","汐止區"
"221036","130-UY","2017/10/10 18:39:40","新北市汐止區南昌街27號","121.66324","25.0692733333333","6501100","汐止區"
"221015","131-UY","2017/10/10 18:39:38","新北市汐止區吉祥街27巷2號","121.667653333333","25.0815233333333","6501100","汐止區"
"221010","269-BY","2017/10/10 18:39:42","新北市汐止區汐萬路三段252巷1號","121.644073333333","25.1046183333333","6501100","汐止區"
"221012","276-VK","2017/10/10 13:17:13","新北市汐止區汐萬路一段256巷3號","121.653465","25.0746433333333","6501100","汐止區"
"221012","278-VK","2017/10/10 18:39:35","新北市汐止區保長路25號","121.672361666667","25.0797416666667","6501100","汐止區"
"221023","279-VK","2017/10/10 18:39:42","新北市汐止區翠峰街21巷3弄10號","121.643721666667","25.0757166666667","6501100","汐止區"
"221032","280-BY","2017/10/10 18:39:37","新北市汐止區民權街二段79號","121.61917","25.0481","6501100","汐止區"
"221027","281-BY","2017/10/10 18:39:50","新北市汐止區汐萬路一段147號","121.65335","25.071155","6501100","汐止區"
"221029","298-VK","2017/10/10 18:39:41","新北市汐止區樟樹一路133巷1號","121.642073333333","25.0651716666667","6501100","汐止區"
"221021","299-VK","2017/10/10 18:39:49","新北市汐止區新興路61號","121.657551666667","25.062385","6501100","汐止區"
"221031","353-TW","2017/10/10 18:39:36","新北市汐止區福德一路274號","121.632125","25.064","6501100","汐止區"
"221035","622-UM","2017/10/10 18:39:42","新北市汐止區汐萬路一段4號","121.656203333333","25.0672783333333","6501100","汐止區"
"221025","623-UM","2017/10/10 18:39:46","新北市汐止區仁愛路119巷24號","121.66209","25.06449","6501100","汐止區"
"221038","646-BX","2017/10/10 18:39:26","新北市汐止區汐萬路一段39號","121.654905","25.069075","6501100","汐止區"
"221033","647-BX","2017/10/10 18:39:51","新北市汐止區林森街11號","121.62119","25.0406183333333","6501100","汐止區"
"221002","707-TV","2017/10/10 18:39:34","新北市汐止區中興路25號","121.636913333333","25.0596083333333","6501100","汐止區"
"221018","753-BX","2017/10/10 18:39:44","新北市汐止區茄苳路293號","121.672956666667","25.0674016666667","6501100","汐止區"
"220079","145-BY","2017/10/10 18:39:50","新北市板橋區大觀路一段31號","121.44991","25.0085066666667","6500100","板橋區"
"220082","610-BX","2017/10/10 18:39:38","新北市板橋區華東街1-10號","121.448231666667","24.9949766666667","6500100","板橋區"
"220091","267-BY","2017/10/10 18:39:49","新北市板橋區民生路二段188號","121.470058333333","25.0203766666667","6500100","板橋區"
"220056","276-BY","2017/10/10 18:39:40","新北市板橋區四川路二段橋頭6號","121.448325","24.9940316666667","6500100","板橋區"
"220072","277-BY","2017/10/10 18:39:41","新北市板橋區華東街1-8號","121.447663333333","24.9948766666667","6500100","板橋區"
"220101","280-UM","2017/10/10 18:39:35","新北市板橋區民生路二段120號","121.470476666667","25.0196366666667","6500100","板橋區"
"220094","283-UM","2017/10/10 18:39:45","新北市板橋區民生路二段161巷1號","121.470173333333","25.01991","6500100","板橋區"
"220071","283-VK","2017/10/10 18:39:53","新北市板橋區華東街1-9號","121.448131666667","24.994925","6500100","板橋區"
"220053","285-VK","2017/10/10 18:39:54","新北市板橋區民生路二段161巷1號","121.470253333333","25.0199666666667","6500100","板橋區"
"220083","286-VK","2017/10/10 18:39:35","新北市板橋區華東街1-10號","121.448386666667","24.9951216666667","6500100","板橋區"
"220081","287-VK","2017/10/10 18:39:40","新北市板橋區華東街1-9號","121.448001666667","24.9948683333333","6500100","板橋區"
"220061","293-UM","2017/10/10 18:39:36","新北市板橋區民生路二段120號","121.470336666667","25.0199083333333","6500100","板橋區"
"220084","296-UM","2017/10/10 18:39:48","新北市板橋區板城路421號","121.448108333333","24.9956866666667","6500100","板橋區"
"220075","297-UM","2017/10/10 18:39:44","新北市板橋區板城路407號","121.447616666667","24.995375","6500100","板橋區"
"220080","461-BY","2017/10/10 18:39:42","新北市板橋區板城路407號","121.447405","24.9951933333333","6500100","板橋區"
"220064","486-VK","2017/10/10 18:39:38","新北市板橋區縣民大道一段193號","121.459358333333","25.0083283333333","6500100","板橋區"
"220035","560-BX","2017/10/10 18:39:40","新北市板橋區南雅西路二段145巷10號","121.451581666667","25.0119283333333","6500100","板橋區"
"220063","609-BX","2017/10/10 18:29:30","新北市板橋區民生路二段171號","121.46979","25.020085","6500100","板橋區"
"220057","686-BX","2017/10/10 18:39:43","新北市板橋區華東街1-9號","121.448228333333","24.994895","6500100","板橋區"
"220077","687-BX","2017/10/10 18:39:41","新北市板橋區華東街1-8號","121.447521666667","24.9950033333333","6500100","板橋區"
"220055","827-TW","2017/10/10 18:39:47","新北市板橋區華東街1-9號","121.448171666667","24.994935","6500100","板橋區"
"220067","829-TW","2017/10/10 18:39:36","新北市板橋區民生路二段120號","121.470333333333","25.01998","6500100","板橋區"
"220102","830-TW","2017/10/10 15:42:57","新北市板橋區民生路二段161巷9號","121.47024","25.019635","6500100","板橋區"
"220074","895-R6","2017/10/10 18:39:44","新北市板橋區四川路二段130巷25弄10號","121.448843333333","24.9946983333333","6500100","板橋區"
"220073","985-R7","2017/10/10 18:39:53","新北市板橋區四川路二段130巷25弄10號","121.448871666667","24.994635","6500100","板橋區"
"220070","AAC-253","2017/10/10 18:39:33","新北市板橋區華東街1-9號","121.448241666667","24.994885","6500100","板橋區"
