"lineid","car","time","location","longitude","latitude","cityid","cityname"
"234046","148-BY","2017/10/10 18:49:43","新北市永和區永元路40巷39號","121.523538333333","25.0006166666667","6500400","永和區"
"234013","149-BY","2017/10/10 18:49:45","新北市永和區保福路二段133巷32號","121.508921666667","25.0134583333333","6500400","永和區"
"234007","207-UY","2017/10/10 18:49:40","新北市永和區永和路二段207號","121.515516666667","25.0137466666667","6500400","永和區"
"234081","298-R6","2017/10/10 18:49:53","新北市永和區林森路112巷12弄34號","121.522865","25.00465","6500400","永和區"
"234038","336-UY","2017/10/10 18:49:44","新北市永和區福和路1號","121.52505","25.0090866666667","6500400","永和區"
"234064","337-UY","2017/10/10 18:49:36","新北市永和區豫溪街217巷1號","121.525288333333","25.0098316666667","6500400","永和區"
"234086","338-UY","2017/10/10 18:49:32","新北市中和區安樂路101號","121.51331","24.9949483333333","6500400","永和區"
"234070","552-UM","2017/10/10 18:49:46","新北市永和區中興街98號","121.518985","25.01208","6500400","永和區"
"234054","553-UM","2017/10/10 18:49:45","新北市永和區竹林路66巷15-7號","121.518368333333","25.0132366666667","6500400","永和區"
"234017","745-BX","2017/10/10 18:49:32","新北市永和區永和路二段405巷3號","121.515295","25.0170716666667","6500400","永和區"
"234030","746-BX","2017/10/10 18:49:45","新北市永和區得和路329號","121.523573333333","24.9996883333333","6500400","永和區"
"234061","AAD-866","2017/10/10 18:49:51","新北市永和區福和路305號","121.516335","25.0071816666667","6500400","永和區"
"234042","862-TW","2017/10/10 18:49:47","新北市永和區永貞路306號","121.511903333333","25.0048716666667","6500400","永和區"
"234050","863-TW","2017/10/10 18:49:43","新北市永和區環河西路一段107號","121.510935","25.0175283333333","6500400","永和區"
"234026","9371-KE","2017/10/10 18:49:49","新北市永和區自由街56號","121.513706666667","25.00598","6500400","永和區"
"234011","9373-KE","2017/10/10 18:49:50","新北市永和區仁愛路73巷2弄1號","121.513356666667","25.0129016666667","6500400","永和區"
"249005","172-UM","2017/10/10 18:49:42","新北市八里區長道坑16-7號","121.395501666667","25.11533","6502300","八里區"
"249001","173-UM","2017/10/10 18:49:31","新北市八里區龍米路二段52號","121.44821","25.1407333333333","6502300","八里區"
"248016","026-BX","2017/10/10 18:49:50","新北市五股區凌雲路一段135號","121.449545","25.10213","6501500","五股區"
"248006","077-UY","2017/10/10 18:49:44","新北市五股區四維路1巷3-1號","121.4664","25.0702316666667","6501500","五股區"
"248020","225-UY","2017/10/10 18:49:40","新北市五股區凌雲路三段82號","121.431913333333","25.1171666666667","6501500","五股區"
"248012","247-BX","2017/10/10 18:49:44","新北市五股區成泰路二段147巷5-17號","121.437143333333","25.088185","6501500","五股區"
"248010","272-BY","2017/10/10 18:49:36","新北市五股區水碓五路81號","121.429985","25.0719166666667","6501500","五股區"
"248004","677-BX","2017/10/10 18:49:37","新北市五股區民義路二段28-1號","121.418905","25.0976566666667","6501500","五股區"
"248002","678-BX","2017/10/10 18:01:18","新北市五股區中興路二段37巷28號","121.460186666667","25.07508","6501500","五股區"
"234023","9380-KE","2017/10/10 18:49:52","新北市永和區竹林路119巷45號","121.52189","25.0118133333333","6500400","永和區"
"234077","969-R7","2017/10/10 18:49:47","新北市永和區中正路42巷6弄1號","121.5133","24.994145","6500400","永和區"
"234074","AAC-211","2017/10/10 18:49:50","新北市永和區福和路1號","121.526531666667","25.0099316666667","6500400","永和區"
"234067","AAC-212","2017/10/10 18:49:32","新北市永和區中和路625號","121.512951666667","25.004855","6500400","永和區"
"234003","AAC-295","2017/10/10 18:49:48","新北市永和區永和路二段28號","121.514643333333","25.0103766666667","6500400","永和區"
"232011","375-UM","2017/10/10 18:49:46","新北市坪林區坪林街39號","121.711638333333","24.93722","6502000","坪林區"
"244013","069-UM","2017/10/10 18:49:22","新北市林口區文化一路一段120號","121.374116666667","25.07195","6501700","林口區"
"244019","403-UM","2017/10/10 18:49:44","新北市林口區忠孝路622巷2號","121.377786666667","25.0683183333333","6501700","林口區"
"244025","742-UY","2017/10/10 18:49:35","新北市林口區南勢街250巷66-1號","121.359103333333","25.0763916666667","6501700","林口區"
"244009","410-SL","2017/10/10 18:49:38","新北市林口區竹林路330巷15號","121.392573333333","25.0828483333333","6501700","林口區"
"244023","483-VK","2017/10/10 18:49:43","新北市林口區文化三路二段181-1號","121.376043333333","25.0825566666667","6501700","林口區"
"244017","485-VK","2017/10/10 18:49:31","新北市林口區文化二路一段20巷25弄7號","121.365511666667","25.0670516666667","6501700","林口區"
"244011","656-BX","2017/10/10 18:49:35","新北市林口區仁愛路一段285巷112號","121.395041666667","25.0756266666667","6501700","林口區"
"244021","838-TS","2017/10/10 18:49:51","新北市林口區工六路100號","121.401158333333","25.0763683333333","6501700","林口區"
"243013","AAD-798","2017/10/10 18:49:46","新北市泰山區明志路三段206巷3號","121.423315","25.0379383333333","6501600","泰山區"
"243015","380-SR","2017/10/10 18:49:41","新北市泰山區美寧街57巷35弄1號","121.430101666667","25.0649866666667","6501600","泰山區"
"243012","646-TV","2017/10/10 18:49:44","新北市泰山區福興三街13號","121.434455","25.05775","6501600","泰山區"
"243016","680-BX","2017/10/10 18:49:53","新北市泰山區明志路二段135號","121.427658333333","25.05081","6501600","泰山區"
"222003","436-BY","2017/10/10 18:49:49","新北市深坑區翠谷街17巷42弄8號","121.625405","25.0101916666667","6501800","深坑區"
"222001","628-TS","2017/10/10 18:49:50","新北市深坑區松柏街30巷1號","121.6387","25.0113016666667","6501800","深坑區"
"222002","659-BX","2017/10/10 18:49:46","新北市深坑區文山路一段69號","121.62696","25.0018533333333","6501800","深坑區"
"231059","046-UY","2017/10/10 18:49:44","新北市新店區安華路28-1號","121.519611666667","24.9608116666667","6500600","新店區"
"231061","047-UY","2017/10/10 18:49:51","新北市新店區安華路28-1號","121.51967","24.96146","6500600","新店區"
"231060","106-UY","2017/10/10 18:49:36","新北市新店區安華路28-1號","121.519606666667","24.960745","6500600","新店區"
"231048","108-UY","2017/10/10 18:49:45","新北市新店區德正街23巷3號","121.54426","24.97199","6500600","新店區"
"231051","110-UY","2017/10/10 18:49:43","新北市新店區中央路63號","121.532555","24.97708","6500600","新店區"
"231053","187-VK","2017/10/10 18:49:44","新北市新店區長興路43號","121.548973333333","24.9383466666667","6500600","新店區"
"231069","189-VK","2017/10/10 11:52:26","新北市新店區安華路28-1號","121.519555","24.960925","6500600","新店區"
"231050","215-TC","2017/10/10 18:49:48","新北市新店區安康路一段52巷1號","121.52986","24.96126","6500600","新店區"
"231046","278-BY","2017/10/10 18:49:47","新北市新店區直潭路65號","121.53275","24.94236","6500600","新店區"
"231054","AAD-862","2017/10/10 18:49:37","新北市新店區安康路一段35-1號","121.531968333333","24.960625","6500600","新店區"
"231041","355-BY","2017/10/10 18:49:50","新北市新店區安康路一段355-3號","121.519633333333","24.9615716666667","6500600","新店區"
"231058","3712-VJ","2017/10/10 18:49:49","新北市新店區能仁街12-1號","121.540683333333","24.9554666666667","6500600","新店區"
"231055","3713-VJ","2017/10/10 18:49:41","新北市新店區新生街55號","121.538858333333","24.9670533333333","6500600","新店區"
"231056","4716-K9","2017/10/10 18:49:38","新北市新店區大豐路68巷16號","121.538918333333","24.9800766666667","6500600","新店區"
"231067","4772-VM","2017/10/10 18:49:41","新北市新店區安康路一段106巷21號","121.527836666667","24.96334","6500600","新店區"
"231065","513-UM","2017/10/10 18:49:51","新北市新店區安豐路49號","121.500161666667","24.954095","6500600","新店區"
"231064","515-UM","2017/10/10 18:49:34","新北市新店區安華路28-1號","121.519766666667","24.9612283333333","6500600","新店區"
"231040","619-UM","2017/10/10 18:49:40","新北市新店區安康路一段20號","121.531063333333","24.9610483333333","6500600","新店區"
"231042","641-BX","2017/10/10 18:49:34","新北市新店區中正路82號","121.543681666667","24.9703233333333","6500600","新店區"
"231063","645-TV","2017/10/10 18:49:49","新北市新店區安華路28-1號","121.519338333333","24.960595","6500600","新店區"
"231049","719-UM","2017/10/10 18:49:50","新北市新店區中正路454-5號","121.534488333333","24.9790583333333","6500600","新店區"
"231062","720-UM","2017/10/10 18:49:40","新北市新店區車子路10-4號","121.505105","24.9546","6500600","新店區"
"231044","897-TW","2017/10/10 18:49:34","新北市新店區寶中路72號","121.547813333333","24.980555","6500600","新店區"
"231045","898-TW","2017/10/10 18:49:45","新北市新店區安華路28-1號","121.51934","24.9609083333333","6500600","新店區"
"231043","899-TW","2017/10/10 18:49:40","新北市新店區秀山路72號","121.531468333333","24.9609066666667","6500600","新店區"
"231066","AKT-0513","2017/10/10 18:49:40","新北市新店區安豐路22巷7號","121.500973333333","24.9547283333333","6500600","新店區"
"241016","266-UM","2017/10/10 18:49:46","新北市三重區五谷王北街161-1號","121.478113333333","25.0528533333333","6500200","三重區"
"241032","269-UM","2017/10/10 18:39:58","新北市三重區重陽路一段120巷48號","121.484991666667","25.0602033333333","6500200","三重區"
"235066","003-UY","2017/10/10 18:49:52","新北市中和區水源路18巷4號","121.504","25.0031833333333","6500300","中和區"
"235064","005-UY","2017/10/10 18:49:36","新北市中和區連城路87號","121.496778333333","25.0002466666667","6500300","中和區"
"235063","006-UY","2017/10/10 18:49:38","新北市中和區錦和路196巷6號","121.489793333333","24.9950433333333","6500300","中和區"
"235056","096-UM","2017/10/10 18:49:47","新北市中和區員山路611巷5弄1號","121.477953333333","25.0112166666667","6500300","中和區"
"235039","097-UM","2017/10/10 18:49:37","新北市中和區宜安路18巷15號","121.514088333333","24.996455","6500300","中和區"
"235065","098-UM","2017/10/10 18:49:52","新北市中和區莊敬路33巷19號","121.500441666667","25.007075","6500300","中和區"
"235040","150-BY","2017/10/10 18:49:36","新北市中和區安樂路51巷34號","121.510865","24.9944766666667","6500300","中和區"
"235058","151-BY","2017/10/10 18:49:36","新北市中和區連城路532巷12號","121.474891666667","24.992405","6500300","中和區"
"235055","183-VK","2017/10/10 18:49:46","新北市中和區民生街43號","121.469993333333","25.0053433333333","6500300","中和區"
"235038","185-VK","2017/10/10 18:49:38","新北市中和區大勇街45巷1號","121.518171666667","24.99487","6500300","中和區"
"235049","186-VK","2017/10/10 18:49:39","新北市中和區景安路122巷28號","121.50419","24.9944783333333","6500300","中和區"
"235067","255-BX","2017/10/10 18:49:35","新北市中和區中山路二段469號","121.483433333333","25.0048783333333","6500300","中和區"
"235044","293-VK","2017/10/10 18:49:37","新北市中和區中興街129號","121.499966666667","24.9916016666667","6500300","中和區"
"235072","301-VK","2017/10/10 18:49:40","新北市中和區中山路二段56號","121.504071666667","25.0048633333333","6500300","中和區"
"235043","352-BY","2017/10/10 18:49:38","新北市中和區成功路90號","121.52585","24.99121","6500300","中和區"
"235068","375-QA","2017/10/10 18:49:39","新北市中和區中正路167巷17號","121.498571666667","24.99279","6500300","中和區"
"235051","376-QA","2017/10/10 18:49:52","新北市中和區華新街109巷11弄2-4號","121.508698333333","24.9797066666667","6500300","中和區"
"235061","378-QA","2017/10/10 18:49:43","新北市中和區民享街54巷8號","121.473576666667","25.0024216666667","6500300","中和區"
"235050","4979-A6","2017/10/10 18:49:44","新北市中和區忠孝街64號","121.511953333333","24.9838333333333","6500300","中和區"
"235069","4980-A6","2017/10/10 18:49:51","新北市中和區南山路81巷8弄12號","121.502475","24.997665","6500300","中和區"
"235042","551-UM","2017/10/10 18:49:45","新北市中和區秀朗路三段153巷16弄3號","121.525745","24.991625","6500300","中和區"
"235070","558-UM","2017/10/10 18:49:39","新北市中和區南華路59號","121.504253333333","24.9971733333333","6500300","中和區"
"235045","565-BX","2017/10/10 18:49:44","新北市中和區復興路42號","121.50472","24.9900683333333","6500300","中和區"
"235054","640-BX","2017/10/10 18:49:40","新北市中和區民享街54巷12號","121.473348333333","25.0023666666667","6500300","中和區"
"235060","647-TV","2017/10/10 18:49:40","新北市中和區中山路三段162號","121.473066666667","25.0064116666667","6500300","中和區"
"235047","732-UM","2017/10/10 18:49:43","新北市中和區興南路二段34巷55弄1號","121.504871666667","24.98615","6500300","中和區"
"235046","733-UM","2017/10/10 18:49:45","新北市中和區仁愛街36巷42號","121.511383333333","24.9863883333333","6500300","中和區"
"235062","800-TS","2017/10/10 18:49:39","新北市中和區橋安街1號","121.492753333333","25.0030433333333","6500300","中和區"
"235057","801-TS","2017/10/10 18:49:54","新北市中和區民安街25巷11號","121.480555","25.0002983333333","6500300","中和區"
"235041","802-TS","2017/10/10 18:49:36","新北市中和區宜安路146號","121.509488333333","24.9985583333333","6500300","中和區"
"235052","805-TS","2017/10/10 18:49:29","新北市中和區興南路二段399巷86號","121.49993","24.978425","6500300","中和區"
"235048","896-TW","2017/10/10 18:49:46","新北市中和區華新街57號","121.507953333333","24.98429","6500300","中和區"
"235053","900-TW","2017/10/10 18:49:46","新北市中和區華福街40號","121.466396666667","24.9965966666667","6500300","中和區"
"235037","AAC-213","2017/10/10 18:49:41","新北市中和區秀朗路三段175巷7號","121.52503","24.99153","6500300","中和區"
"235059","AAC-215","2017/10/10 18:49:41","新北市中和區圓通路393巷23號","121.490305","24.9884233333333","6500300","中和區"
"220065","072-UY","2017/10/10 18:49:42","新北市板橋區漢生東路215號","121.470255","25.0108266666667","6500100","板橋區"
"220086","073-UY","2017/10/10 18:49:31","新北市板橋區南雅西路二段180巷2號","121.451775","25.0140366666667","6500100","板橋區"
"220106","075-UY","2017/10/10 18:49:42","新北市板橋區民生路二段161巷9號","121.470175","25.01956","6500100","板橋區"
"220069","AAD-861","2017/10/10 18:49:36","新北市板橋區南雅南路二段4巷18號","121.45362","25.0036683333333","6500100","板橋區"
"220068","120-SR","2017/10/10 18:49:44","新北市板橋區民生路二段123號","121.470681666667","25.0187133333333","6500100","板橋區"
"226004","312-R5","2017/10/10 18:49:46","新北市平溪區平溪里平溪街55號","121.73671","25.0271183333333","6502400","平溪區"
"228003","097-TW","2017/10/10 18:49:40","新北市貢寮區和美里龍洞街63號","121.916606666667","25.1178766666667","6502600","貢寮區"
"228001","212-TW","2017/10/10 18:49:52","新北市貢寮區仁理村研海街12-1號","121.923753333333","25.0516883333333","6502600","貢寮區"
"228002","585-TW","2017/10/10 18:49:41","新北市貢寮區福隆里東興街6-11號","121.95076","25.021055","6502600","貢寮區"
"224010","AGQ-8101","2017/10/10 18:44:41","新北市瑞芳區烏勢巷145號","121.847433333333","25.1085566666667","6501200","瑞芳區"
"224006","676-BX","2017/10/10 18:49:43","新北市瑞芳區中正路80-2號","121.805605","25.1076333333333","6501200","瑞芳區"
"224009","285-BY","2017/10/10 18:49:37","新北市瑞芳區祈堂路2號","121.85978","25.1117416666667","6501200","瑞芳區"
"224008","275-VK","2017/10/10 18:49:35","新北市瑞芳區裕民新城1號","121.801961666667","25.1121333333333","6501200","瑞芳區"
"224007","273-VK","2017/10/10 18:49:43","新北市瑞芳區大埔路186-1號","121.761463333333","25.1012683333333","6501200","瑞芳區"
"224005","271-BY","2017/10/10 18:49:43","新北市瑞芳區瑞濱路87號","121.820706666667","25.1210083333333","6501200","瑞芳區"
"227003","642-TC","2017/10/10 18:49:46","新北市雙溪區平林里梅竹蹊28號","121.861616666667","25.036075","6502500","雙溪區"
"227009","400-TW","2017/10/10 18:49:46","新北市雙溪區牡丹里聖南15號","121.859915","25.0512483333333","6502500","雙溪區"
"253005","032-BX","2017/10/10 18:49:50","新北市石門區中山路9號","121.565473333333","25.2905933333333","6502200","石門區"
"253006","295-VK","2017/10/10 18:49:48","新北市石門區下員坑16號","121.511326666667","25.2841066666667","6502200","石門區"
"208002","742-BX","2017/10/10 18:49:45","新北市金山區仁愛路37-9號","121.63622","25.219325","6502700","金山區"
"208003","665-BX","2017/10/10 18:49:35","新北市金山區中山路393號","121.633385","25.2252283333333","6502700","金山區"
"208001","761-BX","2017/10/10 18:49:47","新北市金山區文化三路66巷2弄3號","121.634318333333","25.2257683333333","6502700","金山區"
"251002","012-UM","2017/10/10 18:49:54","新北市淡水區學府路88號","121.44893","25.1706966666667","6501000","淡水區"
"251014","182-VK","2017/10/10 18:49:43","新北市淡水區崙頂29號","121.486893333333","25.22311","6501000","淡水區"
"251010","413-VK","2017/10/10 18:49:48","新北市淡水區沙崙路11號","121.421141666667","25.1812716666667","6501000","淡水區"
"251012","441-VK","2017/10/10 18:49:46","新北市淡水區新興街3號","121.443815","25.1803583333333","6501000","淡水區"
"251016","442-VK","2017/10/10 18:49:34","新北市淡水區下圭柔山71-3號","121.4471","25.20617","6501000","淡水區"
"251001","559-UM","2017/10/10 18:49:45","新北市淡水區自強路277號","121.462511666667","25.1283816666667","6501000","淡水區"
"251009","575-R6","2017/10/10 18:49:43","新北市淡水區重建街159號","121.44046","25.1737583333333","6501000","淡水區"
"251007","577-R6","2017/10/10 18:49:39","新北市淡水區民生路115號","121.464316666667","25.1385216666667","6501000","淡水區"
"251011","650-BX","2017/10/10 18:49:47","新北市淡水區學府路9號","121.447451666667","25.16809","6501000","淡水區"
"251003","673-BX","2017/10/10 18:49:42","新北市淡水區中山北路一段151號","121.443236666667","25.1773683333333","6501000","淡水區"
"207003","550-UM","2017/10/10 18:49:49","新北市萬里區大鵬里頂社1號","121.657005","25.2097283333333","6502800","萬里區"
"207004","225-TW","2017/10/10 18:49:50","新北市萬里區萬里里獅頭路23號","121.693246666667","25.1782716666667","6502800","萬里區"
"252005","073-UM","2017/10/10 15:23:22","新北市三芝區埔坪里埔頭坑41號","121.504505","25.2644866666667","6502100","三芝區"
"252002","178-VK","2017/10/10 18:49:35","新北市三芝區中正路一段101號","121.504763333333","25.2564683333333","6502100","三芝區"
"252003","249-BX","2017/10/10 18:49:46","新北市三芝區後厝里大片頭106號","121.457495","25.2407966666667","6502100","三芝區"
"252001","292-VK","2017/10/10 18:49:46","新北市三芝區中正路三段9號","121.50294","25.254045","6502100","三芝區"
"237004","078-UY","2017/10/10 18:49:36","新北市三峽區有木212號","121.440273333333","24.8520233333333","6500900","三峽區"
"237007","153-BY","2017/10/10 18:49:52","新北市三峽區大埔路68號","121.366428333333","24.9075433333333","6500900","三峽區"
"237013","252-BX","2017/10/10 18:49:43","新北市三峽區光明路69巷25號","121.37668","24.929135","6500900","三峽區"
"237012","275-BY","2017/10/10 18:49:44","新北市三峽區三樹路358號","121.383968333333","24.9433583333333","6500900","三峽區"
"237008","302-VK","2017/10/10 18:49:33","新北市三峽區白雞33-60號","121.37092","24.9131566666667","6500900","三峽區"
"237006","5529-G3","2017/10/10 18:49:46","新北市三峽區溪東路233巷4弄21號","121.407273333333","24.933805","6500900","三峽區"
"237011","572-TV","2017/10/10 18:02:55","新北市三峽區橫溪路1號","121.396088333333","24.936215","6500900","三峽區"
"237016","649-BX","2017/10/10 18:49:48","新北市三峽區竹崙路56號","121.43196","24.9197","6500900","三峽區"
"237010","706-TV","2017/10/10 18:46:00","新北市三峽區國光街350巷23號","121.371695","24.9403783333333","6500900","三峽區"
"237005","AKY-6261","2017/10/10 18:49:45","新北市三峽區中山路257巷29號","121.362391666667","24.9360083333333","6500900","三峽區"
"236043","107-UM","2017/10/10 18:49:37","新北市土城區裕民路92巷22弄1號","121.449638333333","24.9861816666667","6501300","土城區"
"236070","165-UM","2017/10/10 18:49:46","新北市土城區立德路103號","121.463325","24.987585","6501300","土城區"
"236079","166-UM","2017/10/10 18:49:41","新北市土城區中央路四段185巷32弄1號","121.41588","24.9558366666667","6501300","土城區"
"236031","253-BX","2017/10/10 18:49:43","新北市土城區忠義路26巷25號","121.43962","24.9695516666667","6501300","土城區"
"236027","269-VK","2017/10/10 18:49:53","新北市土城區興城路66號","121.441168333333","24.9722883333333","6501300","土城區"
"236015","270-VK","2017/10/10 18:49:39","新北市土城區清水路261巷1號","121.462896666667","24.9846533333333","6501300","土城區"
"236038","271-VK","2017/10/10 18:49:48","新北市土城區明德路一段247巷21號","121.463228333333","24.9775183333333","6501300","土城區"
"236023","401-BY","2017/10/10 18:49:41","新北市土城區延吉街253巷9號","121.467838333333","24.9844616666667","6501300","土城區"
"236059","912-UM","2017/10/10 18:49:38","新北市土城區中央路三段131號","121.433703333333","24.96546","6501300","土城區"
"236049","913-UM","2017/10/10 18:49:24","新北市土城區青雲路106號","121.459206666667","24.98619","6501300","土城區"
"236063","915-UM","2017/10/10 18:49:50","新北市土城區金城路三段151號","121.468553333333","24.9883783333333","6501300","土城區"
"236055","AAC-216","2017/10/10 18:49:47","新北市土城區裕民路191號","121.453635","24.98433","6501300","土城區"
"242046","172-VK","2017/10/10 18:49:34","新北市泰山區信華六街19號","121.441201666667","25.0449","6500500","新莊區"
"238023","601-UM","2017/10/10 18:49:50","新北市樹林區三福街114號","121.406548333333","25.016355","6500700","樹林區"
"238019","599-UM","2017/10/10 18:49:48","新北市樹林區東華街70巷8號","121.41487","24.9810816666667","6500700","樹林區"
"238018","571-TV","2017/10/10 18:49:43","新北市樹林區樹新路28號","121.426965","24.9944033333333","6500700","樹林區"
"238024","5061-A6","2017/10/10 18:49:41","新北市樹林區太平路270-1號","121.417985","24.9733666666667","6500700","樹林區"
"238022","KEA-2213","2017/10/10 18:49:44","新北市樹林區東大街1-3號","121.413508333333","24.9765483333333","6500700","樹林區"
"238025","303-VK","2017/10/10 18:49:49","新北市樹林區中山路三段22號","121.395698333333","24.972965","6500700","樹林區"
"238017","283-BY","2017/10/10 18:49:42","新北市樹林區光興街50號","121.40986","25.0027666666667","6500700","樹林區"
"238014","282-BY","2017/10/10 18:49:40","新北市樹林區大安路111巷41號","121.4233","24.9975666666667","6500700","樹林區"
"238020","268-VK","2017/10/10 18:49:49","新北市樹林區俊英街196-4號","121.425678333333","25.0086266666667","6500700","樹林區"
"238026","172-UY","2017/10/10 18:49:47","新北市樹林區育德街78-1號","121.388138333333","24.9680183333333","6500700","樹林區"
"238016","169-UY","2017/10/10 18:49:40","新北市樹林區文化街23號","121.41933","24.9876366666667","6500700","樹林區"
"239007","AAC-297","2017/10/10 18:49:43","新北市鶯歌區中正一路460號","121.36435","24.9565716666667","6500800","鶯歌區"
"239006","891-R6","2017/10/10 18:49:49","新北市鶯歌區鶯桃路296巷84弄37號","121.337706666667","24.9612016666667","6500800","鶯歌區"
"239008","527-UM","2017/10/10 18:49:41","新北市鶯歌區晨曦街9號","121.337398333333","24.97637","6500800","鶯歌區"
"239005","526-UM","2017/10/10 18:49:44","新北市鶯歌區大湖路361巷13號","121.331095","24.9773866666667","6500800","鶯歌區"
"239001","417-VK","2017/10/10 18:49:46","新北市鶯歌區永明街60巷52號","121.340663333333","24.95498","6500800","鶯歌區"
"239003","360-BY","2017/10/10 18:49:37","新北市鶯歌區鶯桃路628號","121.329745","24.9687466666667","6500800","鶯歌區"
"239002","359-BY","2017/10/10 18:49:38","新北市鶯歌區中正一路353號","121.357723333333","24.957065","6500800","鶯歌區"
"239004","193-VK","2017/10/10 18:49:41","新北市鶯歌區中正三路282巷12弄5號","121.328226666667","24.9372783333333","6500800","鶯歌區"
"221008","489-VK","2017/10/10 18:49:49","新北市汐止區康寧街901號","121.651431666667","25.0750933333333","6501100","汐止區"
"221036","130-UY","2017/10/10 18:49:40","新北市汐止區水碓街40號","121.665006666667","25.0685816666667","6501100","汐止區"
"221015","131-UY","2017/10/10 18:49:38","新北市汐止區鄉長路一段55巷6號","121.665431666667","25.0761433333333","6501100","汐止區"
"221010","269-BY","2017/10/10 18:49:38","新北市汐止區汐萬路三段268號","121.64296","25.105965","6501100","汐止區"
"221012","276-VK","2017/10/10 13:17:13","新北市汐止區汐萬路一段256巷3號","121.653465","25.0746433333333","6501100","汐止區"
"221012","278-VK","2017/10/10 18:49:35","新北市汐止區康寧街901號","121.65112","25.0752733333333","6501100","汐止區"
"221023","279-VK","2017/10/10 18:49:42","新北市汐止區康寧街901號","121.650983333333","25.0752283333333","6501100","汐止區"
"221032","280-BY","2017/10/10 18:49:37","新北市汐止區橫科路403巷13號","121.624871666667","25.0475816666667","6501100","汐止區"
"221027","281-BY","2017/10/10 18:49:50","新北市汐止區康寧街901號","121.651451666667","25.0749916666667","6501100","汐止區"
"221029","298-VK","2017/10/10 18:49:41","新北市汐止區工建路42號","121.641365","25.0629616666667","6501100","汐止區"
"221021","299-VK","2017/10/10 18:49:39","新北市汐止區汐萬路一段216號","121.65193","25.0725616666667","6501100","汐止區"
"221031","353-TW","2017/10/10 18:49:36","新北市汐止區福德一路300巷15號","121.630818333333","25.0639133333333","6501100","汐止區"
"221035","622-UM","2017/10/10 18:49:42","新北市汐止區汐萬路一段256巷3號","121.652945","25.0744316666667","6501100","汐止區"
"221025","623-UM","2017/10/10 18:49:46","新北市汐止區秀峰路62號","121.659765","25.0646466666667","6501100","汐止區"
"221038","646-BX","2017/10/10 18:49:36","新北市汐止區汐萬路一段256巷3號","121.653436666667","25.07456","6501100","汐止區"
"221033","647-BX","2017/10/10 18:49:51","新北市汐止區南勢街1巷1號","121.627083333333","25.0374616666667","6501100","汐止區"
"221002","707-TV","2017/10/10 18:49:34","新北市汐止區大同路一段139號","121.631508333333","25.0556333333333","6501100","汐止區"
"221018","753-BX","2017/10/10 18:49:44","新北市汐止區茄苳路26號","121.665003333333","25.0707633333333","6501100","汐止區"
"220079","145-BY","2017/10/10 18:49:50","新北市板橋區民權路202巷7弄2號","121.460065","25.0148016666667","6500100","板橋區"
"220082","610-BX","2017/10/10 18:49:50","新北市板橋區篤行路三段24號","121.428613333333","24.9869783333333","6500100","板橋區"
"220091","267-BY","2017/10/10 18:49:49","新北市板橋區民生路二段188號","121.470438333333","25.0203366666667","6500100","板橋區"
"220056","276-BY","2017/10/10 18:49:51","新北市板橋區信義路16-7號","121.45699","24.995725","6500100","板橋區"
"220072","277-BY","2017/10/10 18:49:41","新北市板橋區金門街19巷6號","121.433875","24.994755","6500100","板橋區"
"220101","280-UM","2017/10/10 18:49:35","新北市板橋區民生路二段120號","121.470461666667","25.0195916666667","6500100","板橋區"
"220094","283-UM","2017/10/10 18:49:45","新北市板橋區民生路二段161巷1號","121.470135","25.019865","6500100","板橋區"
"220071","283-VK","2017/10/10 18:49:33","新北市板橋區四川路一段246號","121.459185","25.0015133333333","6500100","板橋區"
"220053","285-VK","2017/10/10 18:49:34","新北市板橋區民生路二段89-6號","121.470728333333","25.019285","6500100","板橋區"
"220083","286-VK","2017/10/10 18:49:35","新北市板橋區大觀路二段22巷22號","121.445556666667","25.0036366666667","6500100","板橋區"
"220081","287-VK","2017/10/10 18:49:40","新北市板橋區大觀路一段28巷106-1號","121.450753333333","25.0110216666667","6500100","板橋區"
"220090","288-VK","2017/10/10 18:49:37","新北市板橋區民生路二段120號","121.470326666667","25.01973","6500100","板橋區"
"220061","293-UM","2017/10/10 18:49:36","新北市板橋區民生路二段89-6號","121.470836666667","25.0191066666667","6500100","板橋區"
"220096","295-UM","2017/10/10 16:16:46","新北市板橋區民生路二段120號","121.47051","25.0199716666667","6500100","板橋區"
"220084","296-UM","2017/10/10 18:49:48","新北市板橋區大觀路二段150巷72號","121.44147","25.001185","6500100","板橋區"
"220075","297-UM","2017/10/10 18:49:51","新北市板橋區館前西路257號","121.454211666667","25.0087266666667","6500100","板橋區"
"220062","303-R5","2017/10/10 18:49:49","新北市板橋區民生路二段89-4號","121.47116","25.0181466666667","6500100","板橋區"
"220092","307-R5","2017/10/10 18:49:39","新北市板橋區民生路二段120號","121.470568333333","25.0198733333333","6500100","板橋區"
"220080","461-BY","2017/10/10 18:49:42","新北市板橋區大觀路二段265巷66弄24號","121.441665","24.9970883333333","6500100","板橋區"
"220064","486-VK","2017/10/10 18:49:38","新北市板橋區民生路二段36-1號","121.472181666667","25.016665","6500100","板橋區"
"220089","487-VK","2017/10/10 18:49:39","新北市板橋區民生路二段161巷1號","121.470158333333","25.0201466666667","6500100","板橋區"
"220088","491-VK","2017/10/10 18:49:37","新北市板橋區民生路二段175號","121.46984","25.0202383333333","6500100","板橋區"
"220035","560-BX","2017/10/10 18:49:40","新北市板橋區中正路325巷47號","121.453063333333","25.018775","6500100","板橋區"
"220103","561-BX","2017/10/10 18:49:41","新北市板橋區民生路二段161巷9號","121.47022","25.01965","6500100","板橋區"
"220063","609-BX","2017/10/10 18:49:51","新北市板橋區民生路二段89-2號","121.471705","25.0174816666667","6500100","板橋區"
"220057","686-BX","2017/10/10 18:49:43","新北市板橋區南雅南路二段120-2號","121.45237","25.0001416666667","6500100","板橋區"
"220077","687-BX","2017/10/10 18:49:50","新北市板橋區龍興街103巷1號","121.44443","25.0034266666667","6500100","板橋區"
"220093","689-BX","2017/10/10 18:47:31","新北市板橋區民生路二段171號","121.469948333333","25.020225","6500100","板橋區"
"220055","827-TW","2017/10/10 18:49:47","新北市板橋區南雅西路一段7巷5號","121.454413333333","25.0038816666667","6500100","板橋區"
"220067","829-TW","2017/10/10 18:49:36","新北市板橋區民生路二段89-6號","121.470865","25.0192433333333","6500100","板橋區"
"220102","830-TW","2017/10/10 15:42:57","新北市板橋區民生路二段161巷9號","121.47024","25.019635","6500100","板橋區"
"220074","895-R6","2017/10/10 18:49:44","新北市板橋區府中路79號","121.457393333333","25.009385","6500100","板橋區"
"220073","985-R7","2017/10/10 18:49:33","新北市板橋區館前西路121號","121.456796666667","25.00748","6500100","板橋區"
"220097","AAC-210","2017/10/10 18:49:46","新北市板橋區民生路二段161巷9號","121.470311666667","25.0196483333333","6500100","板橋區"
"220070","AAC-253","2017/10/10 18:49:53","新北市板橋區館前西路4-1號","121.4593","25.0071383333333","6500100","板橋區"
