"lineid","car","time","location","longitude","latitude","cityid","cityname"
"234046","148-BY","2017/10/10 19:19:43","新北市永和區永元路52巷52號","121.524553333333","25.00073","6500400","永和區"
"234013","149-BY","2017/10/10 19:19:53","新北市永和區仁愛路130號","121.511188333333","25.0131433333333","6500400","永和區"
"234007","207-UY","2017/10/10 19:19:40","新北市永和區中山路一段242號","121.507723333333","25.0079733333333","6500400","永和區"
"234081","298-R6","2017/10/10 19:19:52","新北市永和區福和路7巷11弄2號","121.525516666667","25.0072133333333","6500400","永和區"
"234038","336-UY","2017/10/10 19:19:44","新北市永和區成功路二段121巷11號","121.527428333333","24.9985183333333","6500400","永和區"
"234064","337-UY","2017/10/10 19:19:56","新北市永和區永元路17巷6弄2號","121.521436666667","25.000665","6500400","永和區"
"234086","338-UY","2017/10/10 19:19:52","新北市永和區永利路62號","121.519315","25.0050716666667","6500400","永和區"
"234070","552-UM","2017/10/10 19:19:46","新北市永和區豫溪街55號","121.51722","25.0099433333333","6500400","永和區"
"234054","553-UM","2017/10/10 19:19:45","新北市永和區中興街61號","121.516686666667","25.0117316666667","6500400","永和區"
"234017","745-BX","2017/10/10 19:19:52","新北市永和區文化路144巷31弄10號","121.512316666667","25.01685","6500400","永和區"
"234030","746-BX","2017/10/10 19:19:45","新北市永和區厚德街52號","121.524843333333","24.9987916666667","6500400","永和區"
"234061","AAD-866","2017/10/10 19:19:51","新北市永和區秀朗路一段175號","121.517081666667","25.00369","6500400","永和區"
"234042","862-TW","2017/10/10 19:19:51","新北市永和區保平路151巷6弄11號","121.509846666667","25.005","6500400","永和區"
"234050","863-TW","2017/10/10 19:19:49","新北市永和區保福路二段88巷14號","121.511436666667","25.0136866666667","6500400","永和區"
"234026","9371-KE","2017/10/10 19:19:49","新北市中和區安樂路207號","121.514463333333","24.998635","6500400","永和區"
"234011","9373-KE","2017/10/10 19:19:50","新北市永和區仁愛路109巷9號","121.51239","25.0126516666667","6500400","永和區"
"249001","173-UM","2017/10/10 19:19:48","新北市八里區中華路二段103-1號","121.409325","25.1522833333333","6502300","八里區"
"249003","593-UM","2017/10/10 19:19:50","新北市八里區中山路二段448號","121.399185","25.1472766666667","6502300","八里區"
"248020","225-UY","2017/10/10 19:19:40","新北市五股區凌雲路三段57號","121.42521","25.1250583333333","6501500","五股區"
"248012","247-BX","2017/10/10 19:19:44","新北市五股區中興路四段48巷16號","121.43864","25.083455","6501500","五股區"
"248010","272-BY","2017/10/10 19:19:35","新北市五股區自強路90巷72號","121.430708333333","25.0712816666667","6501500","五股區"
"248004","677-BX","2017/10/10 19:19:45","新北市五股區五福路37號","121.433565","25.089505","6501500","五股區"
"248002","678-BX","2017/10/10 18:01:18","新北市五股區中興路二段37巷28號","121.460186666667","25.07508","6501500","五股區"
"234023","9380-KE","2017/10/10 19:19:32","新北市永和區竹林路109巷7號","121.52034","25.0119866666667","6500400","永和區"
"234077","969-R7","2017/10/10 19:19:47","新北市永和區民治街70號","121.517781666667","24.99805","6500400","永和區"
"234074","AAC-211","2017/10/10 19:19:50","新北市永和區竹林路90號","121.51944","25.01228","6500400","永和區"
"234067","AAC-212","2017/10/10 19:19:51","新北市永和區保平路30巷3號","121.511766666667","25.007515","6500400","永和區"
"234003","AAC-295","2017/10/10 19:19:48","新北市永和區永平路173號","121.510548333333","25.0090666666667","6500400","永和區"
"244013","069-UM","2017/10/10 19:19:43","新北市林口區麗園一街2巷1號","121.375831666667","25.0717166666667","6501700","林口區"
"244019","403-UM","2017/10/10 19:19:44","新北市林口區麗園二街87號","121.382628333333","25.0668533333333","6501700","林口區"
"244023","483-VK","2017/10/10 19:19:43","新北市林口區民富街99號","121.370398333333","25.0751533333333","6501700","林口區"
"244011","656-BX","2017/10/10 19:19:55","新北市林口區寶林路70號","121.371531666667","25.0924666666667","6501700","林口區"
"243013","AAD-798","2017/10/10 19:19:46","新北市泰山區明志路三段145巷5弄1號","121.425346666667","25.0400166666667","6501600","泰山區"
"243009","297-R6","2017/10/10 19:19:48","新北市泰山區文化街1巷1號","121.433796666667","25.0640416666667","6501600","泰山區"
"243015","380-SR","2017/10/10 19:19:41","新北市泰山區公園路71號","121.426376666667","25.05544","6501600","泰山區"
"243014","421-VK","2017/10/10 19:19:54","新北市泰山區泰林路二段124號","121.434536666667","25.0594366666667","6501600","泰山區"
"243010","KEA-2215","2017/10/10 19:19:35","新北市泰山區明志路一段492巷4弄1號","121.429976666667","25.05485","6501600","泰山區"
"243011","KEA-2216","2017/10/10 19:19:52","新北市泰山區中央路11巷3號","121.426356666667","25.0428016666667","6501600","泰山區"
"243012","646-TV","2017/10/10 19:19:44","新北市泰山區仁愛路98號","121.433261666667","25.05509","6501600","泰山區"
"243016","680-BX","2017/10/10 19:19:53","新北市泰山區工專路66號","121.422758333333","25.0403983333333","6501600","泰山區"
"222003","436-BY","2017/10/10 19:19:49","新北市深坑區深南路204號","121.626663333333","25.0160783333333","6501800","深坑區"
"222001","628-TS","2017/10/10 19:19:50","新北市深坑區北深路二段82號","121.617545","25.00348","6501800","深坑區"
"222002","659-BX","2017/10/10 19:19:46","新北市深坑區北深路一段177號","121.632561666667","25.0108833333333","6501800","深坑區"
"231059","046-UY","2017/10/10 19:19:44","新北市新店區安和路三段7號","121.518048333333","24.980575","6500600","新店區"
"231061","047-UY","2017/10/10 19:19:51","新北市新店區安康路一段250號","121.520945","24.964015","6500600","新店區"
"231060","106-UY","2017/10/10 19:19:36","新北市新店區安康路二段128號","121.512706666667","24.962455","6500600","新店區"
"231048","108-UY","2017/10/10 19:19:45","新北市新店區中興路一段282-1號","121.546008333333","24.9685216666667","6500600","新店區"
"231051","110-UY","2017/10/10 19:19:43","新北市新店區百忍街90號","121.532626666667","24.9771866666667","6500600","新店區"
"231053","187-VK","2017/10/10 19:19:43","新北市新店區屈尺路168號","121.54516","24.92363","6500600","新店區"
"231069","189-VK","2017/10/10 11:52:26","新北市新店區安華路28-1號","121.519555","24.960925","6500600","新店區"
"231050","215-TC","2017/10/10 19:19:48","新北市新店區竹林路84號","121.554315","24.9501766666667","6500600","新店區"
"231046","278-BY","2017/10/10 19:19:47","新北市新店區華城路36巷1-1號","121.528501666667","24.9552966666667","6500600","新店區"
"231054","AAD-862","2017/10/10 19:19:37","新北市新店區國校路47號","121.537931666667","24.9548566666667","6500600","新店區"
"231041","355-BY","2017/10/10 19:19:50","新北市新店區溪園路245-6號","121.525226666667","24.9831516666667","6500600","新店區"
"231058","3712-VJ","2017/10/10 19:19:49","新北市新店區光明街262號","121.540488333333","24.9639383333333","6500600","新店區"
"231067","4772-VM","2017/10/10 19:19:41","新北市新店區薏仁坑路11號","121.49841","24.9590683333333","6500600","新店區"
"231065","513-UM","2017/10/10 19:19:51","新北市新店區安祥路109巷6弄41號","121.475441666667","24.9574366666667","6500600","新店區"
"231064","515-UM","2017/10/10 19:19:38","新北市新店區安忠路90-1號","121.51147","24.9580416666667","6500600","新店區"
"231040","619-UM","2017/10/10 19:19:40","新北市新店區三民路24號","121.537141666667","24.9709816666667","6500600","新店區"
"231042","641-BX","2017/10/10 19:19:34","新北市新店區光明街32號","121.538548333333","24.9588283333333","6500600","新店區"
"231063","645-TV","2017/10/10 19:19:49","新北市新店區達觀路14巷5-3號","121.50353","24.9429233333333","6500600","新店區"
"231049","719-UM","2017/10/10 19:19:50","新北市新店區明德路74號","121.541236666667","24.9798933333333","6500600","新店區"
"231062","720-UM","2017/10/10 19:19:40","新北市新店區莒光路99號","121.522175","24.9535833333333","6500600","新店區"
"231044","897-TW","2017/10/10 19:19:34","新北市新店區中興路三段293號","121.54231","24.98496","6500600","新店區"
"231045","898-TW","2017/10/10 19:19:45","新北市新店區北宜路一段308號","121.54729","24.9522216666667","6500600","新店區"
"231043","899-TW","2017/10/10 19:19:40","新北市新店區北新路二段156號","121.542978333333","24.97548","6500600","新店區"
"231066","AKT-0513","2017/10/10 19:19:40","新北市新店區安康路三段355巷35號","121.484966666667","24.9496683333333","6500600","新店區"
"241017","063-VK","2017/10/10 19:19:53","新北市三重區大同北路217號","121.491585","25.06601","6500200","三重區"
"241026","066-VK","2017/10/10 19:19:47","新北市三重區正義南路81號","121.498456666667","25.0598933333333","6500200","三重區"
"241009","156-TC","2017/10/10 19:19:38","新北市三重區溪尾街230巷59號","121.486393333333","25.0812716666667","6500200","三重區"
"241016","266-UM","2017/10/10 19:19:46","新北市三重區大同北路91號","121.494636666667","25.0636916666667","6500200","三重區"
"241022","267-UM","2017/10/10 19:19:53","新北市三重區重陽路二段72號","121.48731","25.064085","6500200","三重區"
"241032","269-UM","2017/10/10 19:19:43","新北市三重區新生街91號","121.48387","25.059415","6500200","三重區"
"241025","271-UM","2017/10/10 19:19:46","新北市三重區中正北路404號","121.47534","25.0703533333333","6500200","三重區"
"241007","398-BY","2017/10/10 19:19:44","新北市三重區慈愛街48號","121.4858","25.07909","6500200","三重區"
"241020","413-TH","2017/10/10 19:19:46","新北市三重區大智街183號","121.489541666667","25.0730283333333","6500200","三重區"
"241035","462-BY","2017/10/10 19:19:47","新北市三重區大仁街92號","121.492858333333","25.0655133333333","6500200","三重區"
"241030","480-VK","2017/10/10 19:19:50","新北市三重區新興路42號","121.491416666667","25.05336","6500200","三重區"
"241006","AAD-863","2017/10/10 19:19:43","新北市三重區力行路二段145號","121.483615","25.077265","6500200","三重區"
"241031","887-TS","2017/10/10 19:19:54","新北市三重區重新路四段206-5號","121.485925","25.05448","6500200","三重區"
"241029","942-UM","2017/10/10 19:19:44","新北市三重區重安街39號","121.49124","25.0567966666667","6500200","三重區"
"235066","003-UY","2017/10/10 19:19:52","新北市中和區中和路102號","121.502658333333","24.9996716666667","6500300","中和區"
"235064","005-UY","2017/10/10 19:19:36","新北市中和區泰和街38巷41號","121.49831","25.0014833333333","6500300","中和區"
"235063","006-UY","2017/10/10 19:19:38","新北市中和區連勝街117號","121.495001666667","24.9952766666667","6500300","中和區"
"235056","096-UM","2017/10/10 19:19:50","新北市中和區中正路1163號","121.481626666667","25.0092166666667","6500300","中和區"
"235039","097-UM","2017/10/10 19:19:57","新北市中和區自立路58巷8號","121.523308333333","24.9914983333333","6500300","中和區"
"235065","098-UM","2017/10/10 19:19:52","新北市中和區中山路二段116巷5弄5號","121.502233333333","25.00418","6500300","中和區"
"235040","150-BY","2017/10/10 19:19:36","新北市中和區保健路50巷66號","121.509201666667","24.9952316666667","6500300","中和區"
"235058","151-BY","2017/10/10 19:19:56","新北市中和區連城路477巷6弄4號","121.482985","24.9951583333333","6500300","中和區"
"235055","183-VK","2017/10/10 19:19:46","新北市中和區德光路40號","121.470246666667","25.0043233333333","6500300","中和區"
"235038","185-VK","2017/10/10 19:19:38","新北市中和區大仁街20巷21號","121.518506666667","24.9933166666667","6500300","中和區"
"235049","186-VK","2017/10/10 19:19:39","新北市中和區景新街237號","121.50818","24.9945366666667","6500300","中和區"
"235067","255-BX","2017/10/10 19:19:55","新北市中和區新生街174號","121.483613333333","24.9999766666667","6500300","中和區"
"235044","293-VK","2017/10/10 19:19:37","新北市中和區中興街237巷2號","121.50052","24.9893366666667","6500300","中和區"
"235072","301-VK","2017/10/10 19:19:40","新北市中和區連城路265巷1號","121.491448333333","24.9963966666667","6500300","中和區"
"235043","352-BY","2017/10/10 19:19:38","新北市中和區景平路404號","121.509131666667","24.993215","6500300","中和區"
"235068","375-QA","2017/10/10 19:19:39","新北市中和區連勝街38巷24號","121.49798","24.99833","6500300","中和區"
"235051","376-QA","2017/10/10 19:19:52","新北市中和區和平街2巷3號","121.51004","24.9902633333333","6500300","中和區"
"235061","378-QA","2017/10/10 19:19:42","新北市中和區員山路314巷12號","121.482146666667","25.0027316666667","6500300","中和區"
"235071","269-TV","2017/10/10 19:19:42","新北市中和區連城路469巷67號","121.483486666667","24.994275","6500300","中和區"
"235050","4979-A6","2017/10/10 19:19:44","新北市中和區復興路262-1號","121.503321666667","24.9903533333333","6500300","中和區"
"235069","4980-A6","2017/10/10 19:19:51","新北市中和區福美路301巷13號","121.497528333333","25.00428","6500300","中和區"
"235042","551-UM","2017/10/10 19:19:45","新北市永和區民有街5號","121.516018333333","24.9970983333333","6500300","中和區"
"235070","558-UM","2017/10/10 19:19:19","新北市中和區中和路135號","121.501721666667","24.99982","6500300","中和區"
"235045","565-BX","2017/10/10 19:19:44","新北市中和區景新街437巷23號","121.51438","24.9893866666667","6500300","中和區"
"235054","640-BX","2017/10/10 19:19:56","新北市中和區國光街107巷2弄1號","121.4701","24.99997","6500300","中和區"
"235060","647-TV","2017/10/10 19:19:40","新北市中和區民有街9號","121.475603333333","25.00557","6500300","中和區"
"235047","732-UM","2017/10/10 19:19:43","新北市中和區景平路241巷37號","121.508598333333","24.9922733333333","6500300","中和區"
"235046","733-UM","2017/10/10 19:19:45","新北市中和區忠孝街2巷14弄10號","121.51073","24.981425","6500300","中和區"
"235062","800-TS","2017/10/10 19:19:39","新北市中和區員山路36巷16-3號","121.48486","24.9916416666667","6500300","中和區"
"235057","801-TS","2017/10/10 19:19:54","新北市中和區員山路327巷2號","121.481208333333","25.0012066666667","6500300","中和區"
"235041","802-TS","2017/10/10 19:19:56","新北市中和區中和路232號","121.506636666667","24.9995966666667","6500300","中和區"
"235052","805-TS","2017/10/10 19:19:49","新北市中和區興南路二段159巷1號","121.505203333333","24.9832066666667","6500300","中和區"
"235048","896-TW","2017/10/10 19:19:46","新北市中和區忠孝街91號","121.512118333333","24.9855483333333","6500300","中和區"
"235053","900-TW","2017/10/10 19:19:46","新北市中和區華安街19巷9號","121.467173333333","24.997985","6500300","中和區"
"235037","AAC-213","2017/10/10 19:19:41","新北市中和區秀朗路三段50巷21號","121.524588333333","24.99516","6500300","中和區"
"235059","AAC-215","2017/10/10 19:19:41","新北市中和區圓通路286巷7號","121.491501666667","24.9912766666667","6500300","中和區"
"220065","072-UY","2017/10/10 19:19:42","新北市板橋區民族路129巷14號","121.467646666667","25.0085133333333","6500100","板橋區"
"220086","073-UY","2017/10/10 19:19:50","新北市板橋區國光路173巷3弄1號","121.460365","25.0187433333333","6500100","板橋區"
"220106","075-UY","2017/10/10 19:19:42","新北市板橋區雙十路三段66巷1號","121.470543333333","25.031935","6500100","板橋區"
"220069","AAD-861","2017/10/10 19:19:56","新北市板橋區華興街33-2號","121.458323333333","25.0046183333333","6500100","板橋區"
"220068","120-SR","2017/10/10 19:19:44","新北市板橋區翠華街6巷109號","121.481785","25.0251183333333","6500100","板橋區"
"247008","053-VK","2017/10/10 19:19:52","新北市五股區中興路三段163號","121.449173333333","25.0808083333333","6501400","蘆洲區"
"226004","312-R5","2017/10/10 19:19:46","新北市平溪區十分里十分街157號","121.777705","25.0433683333333","6502400","平溪區"
"228003","097-TW","2017/10/10 19:19:40","新北市貢寮區和美里和美街22-1號","121.912796666667","25.0826433333333","6502600","貢寮區"
"228001","212-TW","2017/10/10 19:19:52","新北市貢寮區真理里新港街26巷6-3號","121.925631666667","25.0545833333333","6502600","貢寮區"
"228002","585-TW","2017/10/10 19:19:41","新北市貢寮區龍門里復興街27號","121.927001666667","25.0274566666667","6502600","貢寮區"
"224010","AGQ-8101","2017/10/10 19:19:41","新北市瑞芳區基山街107號","121.844521666667","25.10857","6501200","瑞芳區"
"224006","676-BX","2017/10/10 19:19:43","新北市瑞芳區中山路216號","121.800665","25.1068983333333","6501200","瑞芳區"
"224009","285-BY","2017/10/10 19:19:37","新北市瑞芳區洞頂路12號","121.861353333333","25.1222266666667","6501200","瑞芳區"
"224008","275-VK","2017/10/10 19:19:55","新北市瑞芳區一坑路70-8號","121.803503333333","25.1081766666667","6501200","瑞芳區"
"224005","271-BY","2017/10/10 19:19:43","新北市瑞芳區國中新村50號","121.817771666667","25.106635","6501200","瑞芳區"
"227003","642-TC","2017/10/10 19:19:46","新北市雙溪區平林里梅竹蹊66-1號","121.860133333333","25.03586","6502500","雙溪區"
"227009","400-TW","2017/10/10 19:19:44","新北市雙溪區新基里新基北街78號","121.870061666667","25.0391833333333","6502500","雙溪區"
"253005","032-BX","2017/10/10 19:19:50","新北市石門區阿里荖4-7號","121.612505","25.27923","6502200","石門區"
"253006","295-VK","2017/10/10 19:19:48","新北市石門區楓林18號","121.536546666667","25.29099","6502200","石門區"
"208002","742-BX","2017/10/10 19:19:48","新北市金山區中華路140號","121.633115","25.22117","6502700","金山區"
"208003","665-BX","2017/10/10 19:19:54","新北市金山區中山路118-1號","121.63928","25.21993","6502700","金山區"
"208001","761-BX","2017/10/10 19:19:47","新北市金山區慈護街24號","121.639443333333","25.2201133333333","6502700","金山區"
"251002","012-UM","2017/10/10 19:19:42","新北市淡水區中正路382號","121.42961","25.1754033333333","6501000","淡水區"
"251014","182-VK","2017/10/10 19:19:43","新北市淡水區小中寮19-7號","121.484766666667","25.22967","6501000","淡水區"
"251010","413-VK","2017/10/10 19:19:48","新北市淡水區沙崙路30號","121.421471666667","25.1815","6501000","淡水區"
"251016","442-VK","2017/10/10 19:19:34","新北市淡水區下圭柔山119-51號","121.450818333333","25.2083983333333","6501000","淡水區"
"251005","443-VK","2017/10/10 19:19:37","新北市淡水區水源街一段29號","121.443185","25.1724216666667","6501000","淡水區"
"251001","559-UM","2017/10/10 19:19:43","新北市淡水區自強路201巷39號","121.462088333333","25.1268316666667","6501000","淡水區"
"251009","575-R6","2017/10/10 19:19:42","新北市淡水區大忠街5巷6號","121.443286666667","25.17646","6501000","淡水區"
"251007","577-R6","2017/10/10 19:19:38","新北市淡水區中正東路二段69-12號","121.460918333333","25.1545516666667","6501000","淡水區"
"251011","650-BX","2017/10/10 19:19:47","新北市淡水區中正東路二段143巷2弄1號","121.460748333333","25.1473766666667","6501000","淡水區"
"251003","673-BX","2017/10/10 19:19:42","新北市淡水區中山北路一段33號","121.441613333333","25.1753483333333","6501000","淡水區"
"207003","550-UM","2017/10/10 19:19:48","新北市萬里區大鵬里萬里加投79-3號","121.647341666667","25.2123716666667","6502800","萬里區"
"207004","225-TW","2017/10/10 19:19:50","新北市萬里區萬里里瑪鋉路6號","121.687626666667","25.1750916666667","6502800","萬里區"
"252005","073-UM","2017/10/10 15:23:22","新北市三芝區埔坪里埔頭坑41號","121.504505","25.2644866666667","6502100","三芝區"
"252002","178-VK","2017/10/10 19:19:55","新北市三芝區淡金路二段18-1號","121.502666666667","25.25956","6502100","三芝區"
"252003","249-BX","2017/10/10 19:19:46","新北市三芝區埔坪里埔頭坑107號","121.50449","25.2615116666667","6502100","三芝區"
"252001","292-VK","2017/10/10 19:19:46","新北市三芝區長勤街9巷11弄1號","121.501695","25.2547633333333","6502100","三芝區"
"237004","078-UY","2017/10/10 19:19:36","新北市三峽區有木205-1號","121.43902","24.8515166666667","6500900","三峽區"
"237007","153-BY","2017/10/10 19:19:52","新北市三峽區二鬮路178號","121.359088333333","24.9068666666667","6500900","三峽區"
"237009","210-TH","2017/10/10 19:19:35","新北市三峽區信義街1號","121.370833333333","24.9361266666667","6500900","三峽區"
"237013","252-BX","2017/10/10 19:19:43","新北市三峽區光明路75巷13號","121.377196666667","24.9280333333333","6500900","三峽區"
"237012","275-BY","2017/10/10 19:19:44","新北市三峽區三樹路98巷111號","121.382173333333","24.9385633333333","6500900","三峽區"
"237008","302-VK","2017/10/10 19:19:53","新北市三峽區光明路106巷42號","121.37555","24.9269566666667","6500900","三峽區"
"237006","5529-G3","2017/10/10 19:19:46","新北市三峽區溪北街109號","121.398391666667","24.935465","6500900","三峽區"
"237016","649-BX","2017/10/10 19:19:48","新北市三峽區安坑64-5號","121.468966666667","24.9296783333333","6500900","三峽區"
"237005","AKY-6261","2017/10/10 19:19:45","新北市三峽區中山路459巷24號","121.357521666667","24.9390166666667","6500900","三峽區"
"236043","107-UM","2017/10/10 19:19:36","新北市土城區學府路一段276號","121.449961666667","24.9830183333333","6501300","土城區"
"236070","165-UM","2017/10/10 19:19:46","新北市土城區學成路118號","121.449518333333","24.9894133333333","6501300","土城區"
"236079","166-UM","2017/10/10 19:19:41","新北市土城區中央路四段293巷21號","121.411548333333","24.9514666666667","6501300","土城區"
"236031","253-BX","2017/10/10 19:19:43","新北市土城區城林路6巷80號","121.438571666667","24.9796466666667","6501300","土城區"
"236027","269-VK","2017/10/10 19:19:53","新北市土城區中央路二段160號","121.441943333333","24.976575","6501300","土城區"
"236015","270-VK","2017/10/10 19:19:39","新北市土城區學府路一段23巷23號","121.457655","24.9870116666667","6501300","土城區"
"236023","401-BY","2017/10/10 19:19:41","新北市土城區峰廷街3號","121.469131666667","24.987385","6501300","土城區"
"236059","912-UM","2017/10/10 19:19:47","新北市土城區中央路三段67號","121.438765","24.96938","6501300","土城區"
"236049","913-UM","2017/10/10 19:08:20","新北市土城區明德路一段398-1號","121.453821666667","24.979015","6501300","土城區"
"238015","755-BX","2017/10/10 19:19:52","新北市樹林區備內街3-1號","121.413406666667","24.98671","6500700","樹林區"
"238023","601-UM","2017/10/10 19:19:50","新北市樹林區三興路77號","121.392633333333","25.0145033333333","6500700","樹林區"
"238019","599-UM","2017/10/10 19:19:47","新北市樹林區鎮前街347巷3弄1號","121.416818333333","24.983515","6500700","樹林區"
"238018","571-TV","2017/10/10 19:19:35","新北市樹林區太平路56巷27號","121.418233333333","24.981725","6500700","樹林區"
"238021","KEA-2217","2017/10/10 19:19:46","新北市樹林區柑園街二段382巷1號","121.368248333333","24.949425","6500700","樹林區"
"238022","KEA-2213","2017/10/10 19:19:44","新北市樹林區中華路190-6號","121.410578333333","24.9805633333333","6500700","樹林區"
"238025","303-VK","2017/10/10 19:19:49","新北市樹林區中山路一段179-1號","121.421493333333","24.988175","6500700","樹林區"
"238017","283-BY","2017/10/10 19:19:50","新北市樹林區光興街263號","121.407295","25.0054433333333","6500700","樹林區"
"238014","282-BY","2017/10/10 19:19:40","新北市樹林區中正路23號","121.427385","24.999155","6500700","樹林區"
"238020","268-VK","2017/10/10 19:19:49","新北市樹林區俊英街133巷1弄1號","121.424063333333","25.0114083333333","6500700","樹林區"
"238026","172-UY","2017/10/10 19:19:47","新北市樹林區地政街41號","121.394945","24.9718183333333","6500700","樹林區"
"238016","169-UY","2017/10/10 19:19:40","新北市樹林區中山路二段34-2號","121.417121666667","24.9853516666667","6500700","樹林區"
"239007","AAC-297","2017/10/10 19:19:42","新北市鶯歌區西湖街45巷21號","121.339856666667","24.95967","6500800","鶯歌區"
"239006","891-R6","2017/10/10 19:19:49","新北市鶯歌區鶯桃路45號","121.342083333333","24.9514133333333","6500800","鶯歌區"
"239008","527-UM","2017/10/10 19:19:41","新北市鶯歌區大湖路560號","121.336943333333","24.9732866666667","6500800","鶯歌區"
"239005","526-UM","2017/10/10 19:19:44","新北市鶯歌區中湖街57-1號","121.349361666667","24.9738583333333","6500800","鶯歌區"
"239001","417-VK","2017/10/10 19:19:46","新北市鶯歌區鶯桃路40號","121.341535","24.95277","6500800","鶯歌區"
"239003","360-BY","2017/10/10 19:19:37","新北市鶯歌區中正二路85-1號","121.349375","24.950155","6500800","鶯歌區"
"239002","359-BY","2017/10/10 19:19:37","新北市鶯歌區大湖路336號","121.345923333333","24.97117","6500800","鶯歌區"
"239004","193-VK","2017/10/10 19:19:40","新北市鶯歌區二甲路65號","121.334883333333","24.933155","6500800","鶯歌區"
"221008","489-VK","2017/10/10 19:19:49","新北市汐止區康寧街304號","121.626346666667","25.0671583333333","6501100","汐止區"
"221036","130-UY","2017/10/10 19:19:40","新北市汐止區汐萬路一段256巷3號","121.653338333333","25.074675","6501100","汐止區"
"221015","131-UY","2017/10/10 19:19:38","新北市汐止區康寧街901號","121.651698333333","25.0749283333333","6501100","汐止區"
"221010","269-BY","2017/10/10 19:19:38","新北市汐止區康寧街901號","121.651531666667","25.075035","6501100","汐止區"
"221012","276-VK","2017/10/10 13:17:13","新北市汐止區汐萬路一段256巷3號","121.653465","25.0746433333333","6501100","汐止區"
"221012","278-VK","2017/10/10 19:19:35","新北市汐止區汐萬路一段282號","121.650828333333","25.0741683333333","6501100","汐止區"
"221023","279-VK","2017/10/10 19:19:42","新北市汐止區康寧街901號","121.651003333333","25.0752466666667","6501100","汐止區"
"221027","281-BY","2017/10/10 19:19:50","新北市汐止區康寧街901號","121.651468333333","25.074985","6501100","汐止區"
"221029","298-VK","2017/10/10 19:19:41","新北市汐止區康寧街901號","121.651653333333","25.0749666666667","6501100","汐止區"
"221021","299-VK","2017/10/10 19:19:39","新北市汐止區康寧街901號","121.651426666667","25.07508","6501100","汐止區"
"221031","353-TW","2017/10/10 19:19:56","新北市汐止區汐萬路一段256巷1號","121.65179","25.0749516666667","6501100","汐止區"
"221025","623-UM","2017/10/10 19:19:46","新北市汐止區汐萬路一段306號","121.650418333333","25.0745916666667","6501100","汐止區"
"221038","646-BX","2017/10/10 19:19:35","新北市汐止區康寧街901號","121.650705","25.07531","6501100","汐止區"
"221033","647-BX","2017/10/10 19:19:51","新北市汐止區南勢街1巷1號","121.627013333333","25.037495","6501100","汐止區"
"221002","707-TV","2017/10/10 19:19:38","新北市汐止區大同路一段398號","121.639768333333","25.0599016666667","6501100","汐止區"
"221018","753-BX","2017/10/10 19:19:44","新北市汐止區康寧街901號","121.651596666667","25.0749366666667","6501100","汐止區"
"220079","145-BY","2017/10/10 19:19:50","新北市板橋區民權路202巷18弄1號","121.460856666667","25.0166583333333","6500100","板橋區"
"220082","610-BX","2017/10/10 19:19:47","新北市板橋區滿平街84巷102號","121.426673333333","24.986675","6500100","板橋區"
"220091","267-BY","2017/10/10 19:19:49","新北市板橋區大同街52號","121.47879","25.0275983333333","6500100","板橋區"
"220056","276-BY","2017/10/10 19:19:47","新北市板橋區干城路148號","121.459828333333","24.99301","6500100","板橋區"
"220072","277-BY","2017/10/10 19:19:52","新北市板橋區金門街337巷7弄12號","121.430421666667","24.9849516666667","6500100","板橋區"
"220101","280-UM","2017/10/10 19:19:35","新北市板橋區雙十路二段47巷8弄20號","121.47407","25.0260416666667","6500100","板橋區"
"220094","283-UM","2017/10/10 19:19:45","新北市板橋區吳鳳路76號","121.467095","25.0310366666667","6500100","板橋區"
"220071","283-VK","2017/10/10 19:19:52","新北市板橋區重慶路295巷5號","121.463986666667","24.9992933333333","6500100","板橋區"
"220053","285-VK","2017/10/10 19:19:54","新北市板橋區富山街14號","121.478425","25.0218616666667","6500100","板橋區"
"220083","286-VK","2017/10/10 19:19:54","新北市板橋區大觀路二段174巷173弄12號","121.441373333333","25.0038783333333","6500100","板橋區"
"220081","287-VK","2017/10/10 19:19:42","新北市板橋區南雅西路二段82號","121.452538333333","25.0108433333333","6500100","板橋區"
"220090","288-VK","2017/10/10 19:19:37","新北市板橋區長江路一段156巷7號","121.46145","25.029815","6500100","板橋區"
"220061","293-UM","2017/10/10 19:19:36","新北市板橋區中山路二段326-3號","121.481111666667","25.0194466666667","6500100","板橋區"
"220096","295-UM","2017/10/10 19:19:41","新北市板橋區大同街26巷6號","121.478031666667","25.0270833333333","6500100","板橋區"
"220084","296-UM","2017/10/10 19:19:48","新北市板橋區溪北路112號","121.428993333333","24.9891216666667","6500100","板橋區"
"220075","297-UM","2017/10/10 19:19:44","新北市板橋區中正路275巷93號","121.451413333333","25.01869","6500100","板橋區"
"220098","299-UM","2017/10/10 19:19:50","新北市板橋區四維路266巷2弄25-1號","121.464096666667","25.028045","6500100","板橋區"
"220062","303-R5","2017/10/10 19:19:49","新北市板橋區三民路二段205-2號","121.479325","25.0132183333333","6500100","板橋區"
"220092","307-R5","2017/10/10 19:19:39","新北市板橋區光武街48巷16號","121.467768333333","25.026825","6500100","板橋區"
"220080","461-BY","2017/10/10 19:19:42","新北市板橋區大觀路二段19巷95號","121.44968","25.0028133333333","6500100","板橋區"
"220064","486-VK","2017/10/10 19:19:38","新北市板橋區板新路226號","121.468415","25.0161533333333","6500100","板橋區"
"220089","487-VK","2017/10/10 19:19:43","新北市板橋區文化路一段357號","121.46682","25.021045","6500100","板橋區"
"220088","491-VK","2017/10/10 19:19:37","新北市板橋區雙十路二段71號","121.476315","25.0268316666667","6500100","板橋區"
"220035","560-BX","2017/10/10 19:19:53","新北市板橋區中正路360巷14號","121.45509","25.0236316666667","6500100","板橋區"
"220103","561-BX","2017/10/10 19:19:41","新北市板橋區介壽街20號","121.467586666667","25.0200783333333","6500100","板橋區"
"220054","568-UM","2017/10/10 19:19:42","新北市板橋區四川路一段168號","121.459988333333","25.0032216666667","6500100","板橋區"
"220063","609-BX","2017/10/10 19:19:54","新北市板橋區三民路一段43號","121.479506666667","25.0226583333333","6500100","板橋區"
"220057","686-BX","2017/10/10 19:19:43","新北市板橋區國慶路199-2號","121.463135","24.9967183333333","6500100","板橋區"
"220077","687-BX","2017/10/10 19:19:41","新北市板橋區僑中一街80巷6弄18號","121.448243333333","25.0114766666667","6500100","板橋區"
"220093","689-BX","2017/10/10 19:19:54","新北市板橋區漢生西路17號","121.463561666667","25.01815","6500100","板橋區"
"220055","827-TW","2017/10/10 19:19:47","新北市板橋區館前東路156巷44號","121.464513333333","25.0065516666667","6500100","板橋區"
"220067","829-TW","2017/10/10 19:19:36","新北市板橋區長安街138巷1弄71號","121.474575","25.0108233333333","6500100","板橋區"
"220102","830-TW","2017/10/10 19:19:43","新北市板橋區松柏街78號","121.47648","25.0302866666667","6500100","板橋區"
"220074","895-R6","2017/10/10 19:19:44","新北市板橋區中正路自強新村93-2號","121.454946666667","25.0131916666667","6500100","板橋區"
"220073","985-R7","2017/10/10 19:19:53","新北市板橋區新生街92號","121.458193333333","25.0218516666667","6500100","板橋區"
"220097","AAC-210","2017/10/10 19:19:46","新北市板橋區幸福路58號","121.461081666667","25.0201833333333","6500100","板橋區"
"220070","AAC-253","2017/10/10 19:19:53","新北市板橋區實踐路132號","121.46439","25.0025916666667","6500100","板橋區"
