"lineid","car","time","location","longitude","latitude","cityid","cityname"
"234046","148-BY","2017/10/10 19:29:53","新北市永和區得和路307號","121.523065","24.9996633333333","6500400","永和區"
"234013","149-BY","2017/10/10 19:29:45","新北市永和區信義路14號","121.514461666667","25.0120816666667","6500400","永和區"
"234007","207-UY","2017/10/10 19:29:40","新北市永和區永和路一段149-2號","121.514178333333","25.0091933333333","6500400","永和區"
"234081","298-R6","2017/10/10 19:29:53","新北市永和區福和路5-9號","121.525481666667","25.0083866666667","6500400","永和區"
"234038","336-UY","2017/10/10 19:29:44","新北市永和區民樂街41巷1號","121.527506666667","25.00015","6500400","永和區"
"234064","337-UY","2017/10/10 19:29:51","新北市永和區得和路243巷28弄1號","121.52086","25.001375","6500400","永和區"
"234086","338-UY","2017/10/10 19:29:52","新北市永和區林森路62號","121.523973333333","25.004155","6500400","永和區"
"234070","552-UM","2017/10/10 19:29:46","新北市永和區警光街5-1號","121.519705","25.009515","6500400","永和區"
"234054","553-UM","2017/10/10 19:29:45","新北市永和區復興街19巷4號","121.51621","25.0131533333333","6500400","永和區"
"234017","745-BX","2017/10/10 19:29:52","新北市永和區環河西路一段77號","121.513161666667","25.0181166666667","6500400","永和區"
"234030","746-BX","2017/10/10 19:29:45","新北市永和區民生路69號","121.522635","24.99726","6500400","永和區"
"234061","AAD-866","2017/10/10 19:29:51","新北市永和區中正路526號","121.517231666667","25.0050383333333","6500400","永和區"
"234042","862-TW","2017/10/10 19:29:47","新北市永和區中和路573號","121.511858333333","25.0036333333333","6500400","永和區"
"234050","863-TW","2017/10/10 19:29:42","新北市永和區信義路122號","121.512413333333","25.0148116666667","6500400","永和區"
"234026","9371-KE","2017/10/10 19:29:49","新北市永和區安樂路104巷2弄2號","121.514353333333","24.999595","6500400","永和區"
"234011","9373-KE","2017/10/10 19:29:52","新北市永和區仁愛路141巷3弄2號","121.511691666667","25.0123466666667","6500400","永和區"
"249003","593-UM","2017/10/10 19:29:50","新北市八里區中山路二段500巷20號","121.397473333333","25.1475","6502300","八里區"
"248014","025-BX","2017/10/10 19:29:49","新北市五股區民義路一段185-20號","121.431188333333","25.0874266666667","6501500","五股區"
"248008","095-VK","2017/10/10 19:29:52","新北市五股區中興路一段95巷15號","121.466576666667","25.07233","6501500","五股區"
"248020","225-UY","2017/10/10 19:29:40","新北市五股區凌雲路三段100號","121.427008333333","25.1225133333333","6501500","五股區"
"248012","247-BX","2017/10/10 19:29:44","新北市五股區成泰路二段156號","121.438328333333","25.0840333333333","6501500","五股區"
"248010","272-BY","2017/10/10 19:29:55","新北市五股區水碓一路23號","121.430655","25.0712816666667","6501500","五股區"
"248004","677-BX","2017/10/10 19:29:37","新北市五股區五福路85-1號","121.432368333333","25.0903533333333","6501500","五股區"
"248002","678-BX","2017/10/10 18:01:18","新北市五股區中興路二段37巷28號","121.460186666667","25.07508","6501500","五股區"
"234023","9380-KE","2017/10/10 19:29:52","新北市永和區竹林路91巷45號","121.52132","25.0129016666667","6500400","永和區"
"234077","969-R7","2017/10/10 19:29:56","新北市永和區民族街43巷6號","121.518736666667","24.9984233333333","6500400","永和區"
"234074","AAC-211","2017/10/10 19:29:52","新北市永和區環河東路二段54號","121.523315","25.0115833333333","6500400","永和區"
"234067","AAC-212","2017/10/10 19:29:51","新北市永和區永貞路370巷6號","121.510383333333","25.007025","6500400","永和區"
"234003","AAC-295","2017/10/10 19:29:48","新北市永和區福和路379號","121.514488333333","25.00752","6500400","永和區"
"244019","403-UM","2017/10/10 19:29:44","新北市林口區麗園二街1巷6-2號","121.378053333333","25.07016","6501700","林口區"
"244023","483-VK","2017/10/10 19:29:43","新北市林口區文化三路一段636-1號","121.37195","25.077025","6501700","林口區"
"244011","656-BX","2017/10/10 19:29:35","新北市林口區瑞平里52-3號","121.341563333333","25.125745","6501700","林口區"
"243013","AAD-798","2017/10/10 19:29:48","新北市泰山區貴子路36巷16號","121.425933333333","25.0411016666667","6501600","泰山區"
"243009","297-R6","2017/10/10 19:29:47","新北市泰山區和平街13巷68號","121.434515","25.0664083333333","6501600","泰山區"
"243015","380-SR","2017/10/10 19:29:41","新北市泰山區明志路二段78號","121.428606666667","25.0523383333333","6501600","泰山區"
"243014","421-VK","2017/10/10 19:29:34","新北市泰山區仁愛路6巷4弄3號","121.431326666667","25.053495","6501600","泰山區"
"243010","KEA-2215","2017/10/10 19:29:55","新北市泰山區民生路17巷63號","121.429258333333","25.0510433333333","6501600","泰山區"
"243011","KEA-2216","2017/10/10 19:29:52","新北市泰山區貴子路74號","121.42705","25.0413983333333","6501600","泰山區"
"243012","646-TV","2017/10/10 19:29:44","新北市泰山區仁義路160號","121.432716666667","25.05423","6501600","泰山區"
"243016","680-BX","2017/10/10 19:29:53","新北市泰山區明志路三段354號","121.42099","25.0350216666667","6501600","泰山區"
"222003","436-BY","2017/10/10 19:29:49","新北市深坑區深南路88巷1號","121.620961666667","25.0117383333333","6501800","深坑區"
"222001","628-TS","2017/10/10 19:29:50","新北市深坑區北深路二段130號","121.615925","25.0028883333333","6501800","深坑區"
"222002","659-BX","2017/10/10 19:29:46","新北市深坑區北深路一段177號","121.632543333333","25.0109","6501800","深坑區"
"231059","046-UY","2017/10/10 19:29:44","新北市新店區安和路三段153號","121.516543333333","24.9856233333333","6500600","新店區"
"231061","047-UY","2017/10/10 19:29:51","新北市新店區安民街50號","121.516121666667","24.9657966666667","6500600","新店區"
"231060","106-UY","2017/10/10 19:29:36","新北市新店區安康路二段66號","121.51481","24.96362","6500600","新店區"
"231048","108-UY","2017/10/10 19:29:45","新北市新店區五峰路63巷10號","121.54641","24.9685133333333","6500600","新店區"
"231051","110-UY","2017/10/10 19:29:43","新北市新店區中央路97號","121.531166666667","24.9751","6500600","新店區"
"231053","187-VK","2017/10/10 19:29:43","新北市新店區櫻花街190號","121.547965","24.9201133333333","6500600","新店區"
"231069","189-VK","2017/10/10 11:52:26","新北市新店區安華路28-1號","121.519555","24.960925","6500600","新店區"
"231050","215-TC","2017/10/10 19:29:48","新北市新店區北宜路二段239號","121.553868333333","24.95349","6500600","新店區"
"231057","256-BX","2017/10/10 19:29:38","新北市新店區花園一路二段15號","121.550801666667","24.933425","6500600","新店區"
"231046","278-BY","2017/10/10 19:29:47","新北市新店區光明街207號","121.539965","24.9637383333333","6500600","新店區"
"231054","AAD-862","2017/10/10 19:29:37","新北市新店區文中路40號","121.539763333333","24.9565683333333","6500600","新店區"
"231041","355-BY","2017/10/10 19:29:50","新北市新店區中正路641號","121.533888333333","24.9895416666667","6500600","新店區"
"231058","3712-VJ","2017/10/10 19:29:49","新北市新店區北新路二段228巷13號","121.543408333333","24.9771633333333","6500600","新店區"
"231067","4772-VM","2017/10/10 19:29:41","新北市新店區安康路二段320巷15弄18號","121.502278333333","24.95892","6500600","新店區"
"231065","513-UM","2017/10/10 19:29:51","新北市新店區安祥路109巷1弄41號","121.477058333333","24.9604233333333","6500600","新店區"
"231064","515-UM","2017/10/10 19:29:39","新北市新店區安忠路57巷7弄1號","121.513291666667","24.9585916666667","6500600","新店區"
"231040","619-UM","2017/10/10 19:29:43","新北市新店區北新路一段235號","121.54075","24.9657416666667","6500600","新店區"
"231042","641-BX","2017/10/10 19:29:54","新北市新店區中興路一段136號","121.542025","24.9633916666667","6500600","新店區"
"231063","645-TV","2017/10/10 19:29:49","新北市新店區達觀路16號","121.502791666667","24.9411716666667","6500600","新店區"
"231049","719-UM","2017/10/10 19:29:53","新北市新店區北新路三段65巷34弄1號","121.540035","24.9812966666667","6500600","新店區"
"231062","720-UM","2017/10/10 19:29:40","新北市新店區安康路一段35-5號","121.53191","24.9606583333333","6500600","新店區"
"231044","897-TW","2017/10/10 19:29:34","新北市新店區中興路三段128號","121.544835","24.979685","6500600","新店區"
"231045","898-TW","2017/10/10 19:29:45","新北市新店區北宜路二段211號","121.553201666667","24.9534233333333","6500600","新店區"
"231043","899-TW","2017/10/10 19:29:40","新北市新店區北新路二段200號","121.542898333333","24.9766966666667","6500600","新店區"
"231066","AKT-0513","2017/10/10 19:29:40","新北市新店區安康路三段165巷5號","121.489668333333","24.9512983333333","6500600","新店區"
"241011","013-R5","2017/10/10 19:29:36","新北市三重區秀江街57號","121.500908333333","25.0725533333333","6500200","三重區"
"241028","022-UY","2017/10/10 19:29:46","新北市三重區中寮街90號","121.493261666667","25.0580366666667","6500200","三重區"
"241008","059-VK","2017/10/10 19:29:48","新北市三重區永福街135巷32弄2號","121.477116666667","25.0769383333333","6500200","三重區"
"241017","063-VK","2017/10/10 19:29:33","新北市三重區中正北路25巷2號","121.493228333333","25.0627333333333","6500200","三重區"
"241026","066-VK","2017/10/10 19:29:47","新北市三重區文化南路45號","121.500248333333","25.0613683333333","6500200","三重區"
"241009","156-TC","2017/10/10 19:29:38","新北市三重區溪尾街242巷79號","121.485768333333","25.0813683333333","6500200","三重區"
"241022","267-UM","2017/10/10 19:29:54","新北市三重區三民街175巷1號","121.483668333333","25.06527","6500200","三重區"
"241032","269-UM","2017/10/10 19:29:43","新北市三重區三陽路43號","121.484936666667","25.0588183333333","6500200","三重區"
"241025","271-UM","2017/10/10 19:29:46","新北市三重區頂崁街210巷28弄3號","121.475791666667","25.0676516666667","6500200","三重區"
"241007","398-BY","2017/10/10 19:29:44","新北市三重區溪尾街146號","121.489133333333","25.0799366666667","6500200","三重區"
"241020","413-TH","2017/10/10 19:29:46","新北市三重區三和路四段27號","121.491035","25.0744033333333","6500200","三重區"
"241035","462-BY","2017/10/10 19:29:46","新北市三重區信義西街1巷3號","121.498081666667","25.065075","6500200","三重區"
"241030","480-VK","2017/10/10 19:29:50","新北市三重區成功路41巷10號","121.490188333333","25.05157","6500200","三重區"
"241006","AAD-863","2017/10/10 19:29:43","新北市三重區車路頭街89號","121.48445","25.0741433333333","6500200","三重區"
"241031","887-TS","2017/10/10 19:29:34","新北市三重區集美街65號","121.488455","25.054225","6500200","三重區"
"241029","942-UM","2017/10/10 19:29:44","新北市三重區中正南路216號","121.493775","25.0550783333333","6500200","三重區"
"235066","003-UY","2017/10/10 19:29:52","新北市中和區景新街137號","121.506095","24.9970416666667","6500300","中和區"
"235064","005-UY","2017/10/10 19:29:36","新北市中和區南山路81巷61-1號","121.504176666667","24.9978866666667","6500300","中和區"
"235063","006-UY","2017/10/10 19:29:38","新北市中和區連城路203巷1號","121.494901666667","24.9977016666667","6500300","中和區"
"235056","096-UM","2017/10/10 19:29:47","新北市中和區民富街36號","121.476726666667","25.0066416666667","6500300","中和區"
"235039","097-UM","2017/10/10 19:29:37","新北市中和區秀峰街38號","121.521415","24.9903333333333","6500300","中和區"
"235065","098-UM","2017/10/10 19:29:32","新北市中和區中山路二段64巷16弄16號","121.50386","25.0061616666667","6500300","中和區"
"235040","150-BY","2017/10/10 19:29:36","新北市中和區保健路46巷22弄1號","121.508706666667","24.9957683333333","6500300","中和區"
"235058","151-BY","2017/10/10 19:29:36","新北市中和區中正路637巷52弄3號","121.48531","24.993725","6500300","中和區"
"235055","183-VK","2017/10/10 19:29:46","新北市中和區莒光路120巷38號","121.471593333333","25.0014116666667","6500300","中和區"
"235038","185-VK","2017/10/10 19:29:39","新北市中和區大仁街20巷47號","121.519435","24.9932533333333","6500300","中和區"
"235049","186-VK","2017/10/10 19:29:55","新北市中和區安和路11號","121.511363333333","24.9935733333333","6500300","中和區"
"235067","255-BX","2017/10/10 19:29:35","新北市中和區中正路803號","121.484868333333","25.0011766666667","6500300","中和區"
"235044","293-VK","2017/10/10 19:29:37","新北市中和區捷運路122號","121.50546","24.9915133333333","6500300","中和區"
"235072","301-VK","2017/10/10 19:29:40","新北市中和區連城路263巷8弄7號","121.491801666667","24.9952","6500300","中和區"
"235043","352-BY","2017/10/10 19:29:38","新北市中和區景新街149號","121.506463333333","24.99656","6500300","中和區"
"235068","375-QA","2017/10/10 19:29:39","新北市中和區連勝街57巷21號","121.498051666667","24.9967333333333","6500300","中和區"
"235051","376-QA","2017/10/10 19:29:52","新北市中和區景新街224-6號","121.507496666667","24.99488","6500300","中和區"
"235061","378-QA","2017/10/10 19:29:42","新北市中和區員山路149號","121.480881666667","24.9963216666667","6500300","中和區"
"235071","269-TV","2017/10/10 19:29:42","新北市中和區連城路469巷21弄12號","121.484028333333","24.9950766666667","6500300","中和區"
"235050","4979-A6","2017/10/10 19:29:44","新北市中和區中正路637巷60弄61號","121.485371666667","24.99277","6500300","中和區"
"235069","4980-A6","2017/10/10 19:29:51","新北市中和區建一路87號","121.488018333333","25.0024133333333","6500300","中和區"
"235042","551-UM","2017/10/10 19:29:45","新北市中和區中和路378巷14弄1號","121.511275","25.0016383333333","6500300","中和區"
"235070","558-UM","2017/10/10 19:29:43","新北市中和區中山路二段248號","121.497748333333","25.002495","6500300","中和區"
"235045","565-BX","2017/10/10 19:29:44","新北市中和區景新街423巷33弄1號","121.513808333333","24.98979","6500300","中和區"
"235054","640-BX","2017/10/10 19:29:36","新北市中和區國光街112巷16弄2號","121.469885","25.0014183333333","6500300","中和區"
"235060","647-TV","2017/10/10 19:29:40","新北市中和區新生街114巷2號","121.48338","25.002455","6500300","中和區"
"235047","732-UM","2017/10/10 19:29:43","新北市中和區景平路241巷62號","121.507783333333","24.9923416666667","6500300","中和區"
"235046","733-UM","2017/10/10 19:29:45","新北市中和區忠孝街37巷52號","121.511158333333","24.9849916666667","6500300","中和區"
"235026","800-TS","2017/10/10 19:22:27","新北市中和區員山路36巷16-3號","121.484963333333","24.9915266666667","6500300","中和區"
"235057","801-TS","2017/10/10 19:29:54","新北市中和區員山路425號","121.480971666667","25.0035016666667","6500300","中和區"
"235041","802-TS","2017/10/10 19:29:36","新北市中和區中和路260號","121.507951666667","24.9992316666667","6500300","中和區"
"235052","805-TS","2017/10/10 19:29:49","新北市中和區華新街143巷69弄21號","121.507516666667","24.9789133333333","6500300","中和區"
"235048","896-TW","2017/10/10 19:29:46","新北市中和區忠孝街109-3號","121.512318333333","24.9872583333333","6500300","中和區"
"235053","900-TW","2017/10/10 19:29:46","新北市中和區華順街58號","121.46561","24.9984266666667","6500300","中和區"
"235037","AAC-213","2017/10/10 19:29:41","新北市中和區秀朗路三段10巷14弄72號","121.523913333333","24.9966016666667","6500300","中和區"
"235059","AAC-215","2017/10/10 19:29:41","新北市中和區圓通路252巷5弄2號","121.493305","24.9914333333333","6500300","中和區"
"220065","072-UY","2017/10/10 19:29:42","新北市板橋區國泰街75巷45號","121.468261666667","25.004835","6500100","板橋區"
"220086","073-UY","2017/10/10 19:29:50","新北市板橋區中正路216巷73號","121.457996666667","25.0191083333333","6500100","板橋區"
"220106","075-UY","2017/10/10 19:29:42","新北市板橋區長江路三段58號","121.473588333333","25.034005","6500100","板橋區"
"220069","AAD-861","2017/10/10 19:29:56","新北市板橋區貴興路29號","121.457705","25.004065","6500100","板橋區"
"220068","120-SR","2017/10/10 19:29:50","新北市板橋區中山路二段531巷5弄9號","121.482593333333","25.0215883333333","6500100","板橋區"
"247004","336-TH","2017/10/10 19:29:42","新北市蘆洲區長安街154號","121.459616666667","25.0827133333333","6501400","蘆洲區"
"247008","053-VK","2017/10/10 19:29:52","新北市蘆洲區永安南路二段228號","121.460723333333","25.079385","6501400","蘆洲區"
"226004","312-R5","2017/10/10 19:29:46","新北市平溪區十分里十分街90號","121.776503333333","25.0424783333333","6502400","平溪區"
"228003","097-TW","2017/10/10 19:29:40","新北市貢寮區和美里和美街22-1號","121.912805","25.0826366666667","6502600","貢寮區"
"228001","212-TW","2017/10/10 19:29:52","新北市貢寮區真理里延平街68-2號","121.92538","25.0574683333333","6502600","貢寮區"
"228002","585-TW","2017/10/10 19:29:50","新北市貢寮區龍門里龍門街78號","121.931135","25.026875","6502600","貢寮區"
"224010","AGQ-8101","2017/10/10 19:29:41","新北市瑞芳區基山街169號","121.843303333333","25.1080733333333","6501200","瑞芳區"
"224006","676-BX","2017/10/10 19:29:43","新北市瑞芳區三爪子坑路106巷1-11號","121.808008333333","25.1051016666667","6501200","瑞芳區"
"224008","275-VK","2017/10/10 19:29:35","新北市瑞芳區一坑路97-1號","121.802083333333","25.107955","6501200","瑞芳區"
"224005","271-BY","2017/10/10 19:29:43","新北市瑞芳區員山子路23號","121.821776666667","25.1029183333333","6501200","瑞芳區"
"227003","642-TC","2017/10/10 19:29:46","新北市雙溪區雙溪里太平路58號","121.865048333333","25.0355733333333","6502500","雙溪區"
"227009","400-TW","2017/10/10 19:29:44","新北市雙溪區新基里新基北街43號","121.868163333333","25.0397366666667","6502500","雙溪區"
"253005","032-BX","2017/10/10 19:29:50","新北市石門區小坑9號","121.594316666667","25.2886633333333","6502200","石門區"
"253006","295-VK","2017/10/10 19:29:48","新北市石門區老崩山11-13號","121.551685","25.29055","6502200","石門區"
"208002","742-BX","2017/10/10 19:29:45","新北市金山區仁愛路78巷2號","121.634648333333","25.2215316666667","6502700","金山區"
"208003","665-BX","2017/10/10 19:29:35","新北市金山區中山路263巷14號","121.63643","25.22162","6502700","金山區"
"208001","761-BX","2017/10/10 19:29:47","新北市金山區金包里街81號","121.638098333333","25.2220133333333","6502700","金山區"
"251014","182-VK","2017/10/10 19:29:43","新北市淡水區小中寮19-7號","121.484763333333","25.22966","6501000","淡水區"
"251010","413-VK","2017/10/10 19:29:48","新北市淡水區中正路二段131-3號","121.422203333333","25.18762","6501000","淡水區"
"251016","442-VK","2017/10/10 19:29:54","新北市淡水區淡金路三段350巷18號","121.450816666667","25.2083916666667","6501000","淡水區"
"251005","443-VK","2017/10/10 19:29:37","新北市淡水區水源街一段71巷13號","121.444456666667","25.1730316666667","6501000","淡水區"
"251001","559-UM","2017/10/10 19:29:43","新北市淡水區民權路167號","121.459945","25.1358016666667","6501000","淡水區"
"251006","561-UM","2017/10/10 19:29:50","新北市淡水區大義街31號","121.442386666667","25.1781966666667","6501000","淡水區"
"251009","575-R6","2017/10/10 19:29:43","新北市淡水區大忠街5巷9號","121.443408333333","25.176575","6501000","淡水區"
"251007","577-R6","2017/10/10 19:29:38","新北市淡水區中正東路一段111巷19號","121.455106666667","25.1612283333333","6501000","淡水區"
"251011","650-BX","2017/10/10 19:29:47","新北市淡水區中正東路二段143巷2弄1號","121.460736666667","25.1474116666667","6501000","淡水區"
"251003","673-BX","2017/10/10 19:29:42","新北市淡水區中山北路二段184號","121.44431","25.1849966666667","6501000","淡水區"
"207003","550-UM","2017/10/10 19:29:49","新北市萬里區大鵬里萬里加投197-5號","121.644001666667","25.21512","6502800","萬里區"
"207004","225-TW","2017/10/10 19:29:50","新北市萬里區萬里里瑪鋉頂街1號","121.689086666667","25.1784216666667","6502800","萬里區"
"252005","073-UM","2017/10/10 15:23:22","新北市三芝區埔坪里埔頭坑41號","121.504505","25.2644866666667","6502100","三芝區"
"252002","178-VK","2017/10/10 19:29:35","新北市三芝區淡金路二段18-1號","121.502698333333","25.2595733333333","6502100","三芝區"
"252001","292-VK","2017/10/10 19:29:46","新北市三芝區長勤街48-1號","121.500333333333","25.2554083333333","6502100","三芝區"
"237004","078-UY","2017/10/10 19:29:36","新北市三峽區有木137號","121.43767","24.8526233333333","6500900","三峽區"
"237007","153-BY","2017/10/10 19:29:52","新北市三峽區二鬮路178號","121.359113333333","24.90681","6500900","三峽區"
"237009","210-TH","2017/10/10 19:29:35","新北市三峽區民權街126號","121.368826666667","24.9321616666667","6500900","三峽區"
"237013","252-BX","2017/10/10 19:29:43","新北市三峽區介壽路一段318巷13號","121.381125","24.929565","6500900","三峽區"
"237012","275-BY","2017/10/10 19:29:44","新北市三峽區介壽路一段121號","121.375968333333","24.931835","6500900","三峽區"
"237008","302-VK","2017/10/10 19:29:53","新北市三峽區中正路一段219號","121.372126666667","24.92738","6500900","三峽區"
"237006","5529-G3","2017/10/10 19:29:46","新北市三峽區大同路137號","121.371833333333","24.9268283333333","6500900","三峽區"
"237016","649-BX","2017/10/10 19:29:48","新北市三峽區建安63號","121.447346666667","24.9274566666667","6500900","三峽區"
"237005","AKY-6261","2017/10/10 19:29:45","新北市三峽區復興路367巷13號","121.363941666667","24.9376283333333","6500900","三峽區"
"236043","107-UM","2017/10/10 19:29:36","新北市土城區學府路一段276號","121.44997","24.983065","6501300","土城區"
"236070","165-UM","2017/10/10 19:29:55","新北市土城區學府路一段157號","121.45318","24.9859283333333","6501300","土城區"
"236079","166-UM","2017/10/10 19:29:41","新北市土城區中州路24巷19號","121.41502","24.9577983333333","6501300","土城區"
"236031","253-BX","2017/10/10 19:29:43","新北市土城區中央路一段324號","121.443203333333","24.9814883333333","6501300","土城區"
"236027","269-VK","2017/10/10 19:29:33","新北市土城區中央路二段61巷22號","121.443195","24.9787616666667","6501300","土城區"
"236023","401-BY","2017/10/10 19:29:41","新北市土城區峰廷街3號","121.469128333333","24.9873933333333","6501300","土城區"
"236059","912-UM","2017/10/10 19:29:37","新北市土城區中央路二段280號","121.4407","24.9739833333333","6501300","土城區"
"236049","913-UM","2017/10/10 19:29:40","新北市土城區清水路180號","121.46014","24.981635","6501300","土城區"
"242032","AAC-296","2017/10/10 19:29:52","新北市新莊區新泰路225巷20號","121.44532","25.039245","6500500","新莊區"
"238015","755-BX","2017/10/10 19:29:52","新北市樹林區復興路197號","121.420555","24.9917416666667","6500700","樹林區"
"238023","601-UM","2017/10/10 19:29:50","新北市樹林區中正路865號","121.408803333333","25.018185","6500700","樹林區"
"238019","599-UM","2017/10/10 19:29:48","新北市樹林區大同街22號","121.418148333333","24.9825716666667","6500700","樹林區"
"238018","571-TV","2017/10/10 19:29:34","新北市樹林區中華路90號","121.418798333333","24.9810166666667","6500700","樹林區"
"238024","5061-A6","2017/10/10 19:29:51","新北市樹林區福德街47號","121.39969","24.9748983333333","6500700","樹林區"
"238021","KEA-2217","2017/10/10 19:29:45","新北市樹林區柑園街二段303巷22號","121.373268333333","24.9495533333333","6500700","樹林區"
"238022","KEA-2213","2017/10/10 19:29:44","新北市樹林區名園街21號","121.419398333333","24.979325","6500700","樹林區"
"238025","303-VK","2017/10/10 19:29:49","新北市樹林區中山路一段146號","121.422558333333","24.99003","6500700","樹林區"
"238017","283-BY","2017/10/10 19:29:42","新北市樹林區光榮街69號","121.412048333333","25.00314","6500700","樹林區"
"238014","282-BY","2017/10/10 19:29:43","新北市樹林區千歲街4號","121.424986666667","24.9956016666667","6500700","樹林區"
"238020","268-VK","2017/10/10 19:29:49","新北市樹林區俊英街121巷24號","121.423386666667","25.0100616666667","6500700","樹林區"
"238026","172-UY","2017/10/10 19:29:47","新北市樹林區佳園路二段16-2號","121.392135","24.9636066666667","6500700","樹林區"
"238016","169-UY","2017/10/10 19:29:41","新北市樹林區復興路397-1號","121.414668333333","24.98503","6500700","樹林區"
"239007","AAC-297","2017/10/10 19:29:43","新北市鶯歌區大湖路109巷14號","121.341775","24.9636033333333","6500800","鶯歌區"
"239006","891-R6","2017/10/10 19:29:49","新北市鶯歌區尖山埔路144號","121.34351","24.949835","6500800","鶯歌區"
"239001","417-VK","2017/10/10 19:29:46","新北市鶯歌區中山路251號","121.3457","24.957015","6500800","鶯歌區"
"239003","360-BY","2017/10/10 19:29:37","新北市鶯歌區國華路56號","121.342286666667","24.954965","6500800","鶯歌區"
"239002","359-BY","2017/10/10 19:29:37","新北市鶯歌區中山路300號","121.342911666667","24.9571683333333","6500800","鶯歌區"
"221008","489-VK","2017/10/10 19:29:49","新北市汐止區康寧街145號","121.62199","25.066665","6501100","汐止區"
"221036","130-UY","2017/10/10 19:29:40","新北市汐止區汐萬路一段256巷1號","121.65169","25.0748716666667","6501100","汐止區"
"221015","131-UY","2017/10/10 19:29:38","新北市汐止區康寧街901號","121.651568333333","25.0750316666667","6501100","汐止區"
"221010","269-BY","2017/10/10 19:29:38","新北市汐止區康寧街901號","121.65155","25.0750266666667","6501100","汐止區"
"221012","276-VK","2017/10/10 13:17:13","新北市汐止區汐萬路一段256巷3號","121.653465","25.0746433333333","6501100","汐止區"
"221012","278-VK","2017/10/10 19:29:51","新北市汐止區大同路三段184號","121.674286666667","25.0746483333333","6501100","汐止區"
"221023","279-VK","2017/10/10 19:29:42","新北市汐止區康寧街543號","121.634435","25.069315","6501100","汐止區"
"221032","280-BY","2017/10/10 19:29:37","新北市汐止區大同路二段171號","121.651658333333","25.0648783333333","6501100","汐止區"
"221027","281-BY","2017/10/10 19:29:50","新北市汐止區忠孝東路9號","121.658418333333","25.06597","6501100","汐止區"
"221029","298-VK","2017/10/10 19:29:41","新北市汐止區康寧街901號","121.651661666667","25.0749383333333","6501100","汐止區"
"221021","299-VK","2017/10/10 19:29:39","新北市汐止區康寧街901號","121.651456666667","25.07511","6501100","汐止區"
"221031","353-TW","2017/10/10 19:29:36","新北市汐止區康寧街901號","121.65161","25.07491","6501100","汐止區"
"221025","623-UM","2017/10/10 19:29:46","新北市汐止區新台五路二段10號","121.66029","25.0650366666667","6501100","汐止區"
"221038","646-BX","2017/10/10 19:29:55","新北市汐止區汐萬路一段312號","121.650573333333","25.0754083333333","6501100","汐止區"
"221033","647-BX","2017/10/10 19:29:31","新北市汐止區南勢街1巷1號","121.627105","25.0376033333333","6501100","汐止區"
"221002","707-TV","2017/10/10 19:29:54","新北市汐止區大同路一段337巷9號","121.638113333333","25.0598983333333","6501100","汐止區"
"221018","753-BX","2017/10/10 19:29:44","新北市汐止區康寧街901號","121.651428333333","25.0750466666667","6501100","汐止區"
"220079","145-BY","2017/10/10 19:29:50","新北市板橋區建國街5號","121.457248333333","25.0169083333333","6500100","板橋區"
"220082","610-BX","2017/10/10 19:29:38","新北市板橋區金門街267號","121.43159","24.9885766666667","6500100","板橋區"
"220091","267-BY","2017/10/10 19:29:49","新北市板橋區文聖街135巷27號","121.478993333333","25.029045","6500100","板橋區"
"220056","276-BY","2017/10/10 19:29:40","新北市板橋區信義路1巷26弄1號","121.458173333333","24.9969766666667","6500100","板橋區"
"220072","277-BY","2017/10/10 19:29:21","新北市板橋區金門街236號","121.430665","24.98737","6500100","板橋區"
"220101","280-UM","2017/10/10 19:29:35","新北市板橋區縣民大道三段133巷25號","121.477031666667","25.023925","6500100","板橋區"
"220094","283-UM","2017/10/10 19:29:45","新北市板橋區吳鳳路17巷1號","121.467668333333","25.0301733333333","6500100","板橋區"
"220071","283-VK","2017/10/10 19:29:33","新北市板橋區忠孝路48巷7弄1-3號","121.461075","25.0004333333333","6500100","板橋區"
"220053","285-VK","2017/10/10 19:29:54","新北市板橋區富山街53巷33號","121.477583333333","25.02095","6500100","板橋區"
"220083","286-VK","2017/10/10 19:29:35","新北市板橋區龍興街95巷16號","121.443456666667","25.0027683333333","6500100","板橋區"
"220081","287-VK","2017/10/10 19:22:00","新北市板橋區南雅西路二段2-1號","121.453126666667","25.0088866666667","6500100","板橋區"
"220090","288-VK","2017/10/10 19:29:37","新北市板橋區裕民街96號","121.460206666667","25.028045","6500100","板橋區"
"220061","293-UM","2017/10/10 19:29:49","新北市板橋區成功路6巷15號","121.476045","25.0171483333333","6500100","板橋區"
"220096","295-UM","2017/10/10 19:29:41","新北市板橋區大同街35巷31號","121.476461666667","25.0274916666667","6500100","板橋區"
"220084","296-UM","2017/10/10 19:29:48","新北市板橋區滿平街84巷120弄14號","121.426541666667","24.9859116666667","6500100","板橋區"
"220075","297-UM","2017/10/10 19:29:44","新北市板橋區中正路253巷52號","121.453803333333","25.017635","6500100","板橋區"
"220098","299-UM","2017/10/10 19:29:50","新北市板橋區四維路326巷10號","121.462771666667","25.0303316666667","6500100","板橋區"
"220062","303-R5","2017/10/10 19:29:49","新北市板橋區三民路二段153巷7弄2號","121.480531666667","25.01507","6500100","板橋區"
"220092","307-R5","2017/10/10 19:29:39","新北市板橋區光武街4巷2號","121.468323333333","25.0256533333333","6500100","板橋區"
"220080","461-BY","2017/10/10 19:29:42","新北市板橋區大觀路二段3巷91號","121.450248333333","25.00335","6500100","板橋區"
"220064","486-VK","2017/10/10 19:29:38","新北市板橋區館前西路4-1號","121.459226666667","25.00721","6500100","板橋區"
"220089","487-VK","2017/10/10 19:29:39","新北市板橋區文化路一段29號","121.46022","25.01287","6500100","板橋區"
"220088","491-VK","2017/10/10 19:29:46","新北市板橋區雙十路二段193號","121.473553333333","25.028785","6500100","板橋區"
"220035","560-BX","2017/10/10 19:29:40","新北市板橋區中正路399巷26號","121.453296666667","25.0226433333333","6500100","板橋區"
"220103","561-BX","2017/10/10 19:29:41","新北市板橋區文化路一段270巷1弄1號","121.467476666667","25.0209516666667","6500100","板橋區"
"220054","568-UM","2017/10/10 19:29:55","新北市板橋區光明街55號","121.461608333333","25.0028","6500100","板橋區"
"220063","609-BX","2017/10/10 19:29:50","新北市板橋區林森街3巷1弄23號","121.482678333333","25.02361","6500100","板橋區"
"220057","686-BX","2017/10/10 19:29:43","新北市板橋區五權街1-8號","121.463885","24.9950566666667","6500100","板橋區"
"220077","687-BX","2017/10/10 19:29:41","新北市板橋區僑中二街114巷1號","121.445785","25.00666","6500100","板橋區"
"220093","689-BX","2017/10/10 19:29:51","新北市板橋區雨農路32號","121.461265","25.02437","6500100","板橋區"
"220055","827-TW","2017/10/10 19:29:47","新北市板橋區重慶路290巷22弄1號","121.462231666667","24.99909","6500100","板橋區"
"220067","829-TW","2017/10/10 19:29:36","新北市板橋區漢生東路352號","121.472128333333","25.00728","6500100","板橋區"
"220102","830-TW","2017/10/10 19:29:43","新北市板橋區松柏街23-3號","121.474691666667","25.0299483333333","6500100","板橋區"
"220074","895-R6","2017/10/10 19:29:44","新北市板橋區西門街14號","121.455338333333","25.0115216666667","6500100","板橋區"
"220073","985-R7","2017/10/10 19:29:33","新北市板橋區瑞安街46巷5號","121.455258333333","25.02223","6500100","板橋區"
"220097","AAC-210","2017/10/10 19:29:46","新北市板橋區漢生西路197號","121.463205","25.0241633333333","6500100","板橋區"
"220070","AAC-253","2017/10/10 19:29:53","新北市板橋區四川路一段56號","121.459515","25.005765","6500100","板橋區"
