"lineid","car","time","location","longitude","latitude","cityid","cityname"
"231059","046-UY","2017/10/10 21:09:44","新北市新店區僑義路12號","121.500408333333","24.9507","6500600","新店區"
"231061","047-UY","2017/10/10 21:09:51","新北市新店區永平街56號","121.516173333333","24.9846083333333","6500600","新店區"
"231060","106-UY","2017/10/10 21:09:36","新北市新店區安康路三段73號","121.49235","24.9521183333333","6500600","新店區"
"231048","108-UY","2017/10/10 21:09:45","新北市新店區寶強路29號","121.543318333333","24.9794383333333","6500600","新店區"
"231051","110-UY","2017/10/10 21:09:43","新北市新店區中正路663巷1弄15號","121.532798333333","24.98978","6500600","新店區"
"231069","189-VK","2017/10/10 11:52:26","新北市新店區安華路28-1號","121.519555","24.960925","6500600","新店區"
"231050","215-TC","2017/10/10 21:09:48","新北市新店區三民路31-10號","121.537843333333","24.9705183333333","6500600","新店區"
"231054","AAD-862","2017/10/10 21:09:37","新北市新店區中興路一段283號","121.545303333333","24.96854","6500600","新店區"
"231067","4772-VM","2017/10/10 21:09:41","新北市新店區安德街130巷11號","121.508186666667","24.9607533333333","6500600","新店區"
"231065","513-UM","2017/10/10 21:09:51","新北市新店區安祥路69巷89弄35號","121.48256","24.9610183333333","6500600","新店區"
"231064","515-UM","2017/10/10 21:09:54","新北市新店區安民街178號","121.516965","24.97095","6500600","新店區"
"231040","619-UM","2017/10/10 21:09:40","新北市新店區北新路一段353號","121.542028333333","24.9696683333333","6500600","新店區"
"231042","641-BX","2017/10/10 21:09:54","新北市新店區寶興路60巷4號","121.549808333333","24.9718683333333","6500600","新店區"
"231063","645-TV","2017/10/10 21:09:49","新北市新店區玫瑰路60巷2號","121.495578333333","24.9463866666667","6500600","新店區"
"231062","720-UM","2017/10/10 21:09:40","新北市新店區安康路三段75號","121.492058333333","24.9519683333333","6500600","新店區"
"241011","013-R5","2017/10/10 21:09:56","新北市三重區龍濱路118-4號","121.502053333333","25.0706016666667","6500200","三重區"
"241028","022-UY","2017/10/10 21:09:46","新北市三重區正義南路60-1號","121.498306666667","25.0606016666667","6500200","三重區"
"241008","059-VK","2017/10/10 21:09:48","新北市三重區自強路一段60號","121.497361666667","25.0667066666667","6500200","三重區"
"241015","062-VK","2017/10/10 21:09:43","新北市三重區福德北路79號","121.501893333333","25.0658533333333","6500200","三重區"
"241017","063-VK","2017/10/10 21:09:53","新北市三重區大同北路132巷4號","121.492586666667","25.064615","6500200","三重區"
"241024","065-VK","2017/10/10 21:09:48","新北市三重區大勇街82巷15弄30號","121.481198333333","25.0719816666667","6500200","三重區"
"241026","066-VK","2017/10/10 21:09:47","新北市三重區文化南路42號","121.500405","25.06023","6500200","三重區"
"241002","090-VK","2017/10/10 21:09:35","新北市三重區五華街16號","121.49489","25.080285","6500200","三重區"
"241003","091-VK","2017/10/10 21:09:37","新北市三重區仁義街228巷1號","121.494816666667","25.08481","6500200","三重區"
"241009","156-TC","2017/10/10 21:09:38","新北市三重區忠孝路二段122號","121.483018333333","25.0687183333333","6500200","三重區"
"241005","262-UM","2017/10/10 21:09:53","新北市三重區三信路182號","121.488091666667","25.0860866666667","6500200","三重區"
"241016","266-UM","2017/10/10 21:09:46","新北市三重區信義西街118號","121.495718333333","25.0643316666667","6500200","三重區"
"241022","267-UM","2017/10/10 21:09:52","新北市三重區中正北路64巷24號","121.486135","25.0636883333333","6500200","三重區"
"241018","268-UM","2017/10/10 21:09:36","新北市三重區正義北路340號","121.494338333333","25.0706583333333","6500200","三重區"
"241032","269-UM","2017/10/10 21:09:43","新北市三重區光復路二段143巷16號","121.474173333333","25.0615566666667","6500200","三重區"
"241013","270-UM","2017/10/10 21:09:41","新北市三重區仁愛街141巷20號","121.49653","25.0756583333333","6500200","三重區"
"241025","271-UM","2017/10/10 21:09:46","新北市三重區中正北路208巷10弄4號","121.482411666667","25.0668633333333","6500200","三重區"
"241007","398-BY","2017/10/10 21:09:44","新北市三重區三和路四段145巷85號","121.486391666667","25.0787783333333","6500200","三重區"
"241020","413-TH","2017/10/10 21:09:46","新北市三重區忠孝路二段34號","121.485861666667","25.0710216666667","6500200","三重區"
"241004","475-VK","2017/10/10 21:09:42","新北市三重區仁愛街420號","121.490366666667","25.0814133333333","6500200","三重區"
"241019","478-VK","2017/10/10 21:09:47","新北市三重區自強路二段74巷19號","121.488046666667","25.0698816666667","6500200","三重區"
"241030","480-VK","2017/10/10 21:09:49","新北市三重區五谷王北街20巷15弄1號","121.475065","25.0484883333333","6500200","三重區"
"241014","543-UM","2017/10/10 21:09:49","新北市三重區長安街82-1號","121.501338333333","25.06771","6500200","三重區"
"241023","545-UM","2017/10/10 21:09:45","新北市三重區忠孝路三段50巷41弄64號","121.482413333333","25.0637816666667","6500200","三重區"
"241001","547-UM","2017/10/10 21:09:49","新北市三重區福隆路44號","121.492343333333","25.0784316666667","6500200","三重區"
"241006","AAD-863","2017/10/10 21:09:43","新北市三重區中正北路105號","121.489316666667","25.06324","6500200","三重區"
"241031","887-TS","2017/10/10 21:09:34","新北市三重區重新路五段406-1號","121.476128333333","25.0476583333333","6500200","三重區"
"241012","941-UM","2017/10/10 21:09:45","新北市三重區河邊北街236號","121.502075","25.0755533333333","6500200","三重區"
"241029","942-UM","2017/10/10 21:09:44","新北市三重區正義南路107號","121.498195","25.0585416666667","6500200","三重區"
"241033","AAC-255","2017/10/10 21:09:52","新北市三重區重光街105-2號","121.467201666667","25.0645433333333","6500200","三重區"
"235026","800-TS","2017/10/10 19:22:27","新北市中和區員山路36巷16-3號","121.484963333333","24.9915266666667","6500300","中和區"
"247022","893-R6","2017/10/10 21:09:43","新北市蘆洲區三民路251號","121.468303333333","25.0893516666667","6501400","蘆洲區"
"247012","546-UM","2017/10/10 21:09:53","新北市蘆洲區三民路74號","121.475138333333","25.083955","6501400","蘆洲區"
"247010","339-TH","2017/10/10 21:09:37","新北市蘆洲區鷺江街73號","121.477136666667","25.08315","6501400","蘆洲區"
"247002","337-TH","2017/10/10 21:09:40","新北市蘆洲區永樂街38巷40號","121.458653333333","25.08999","6501400","蘆洲區"
"247004","336-TH","2017/10/10 21:09:42","新北市蘆洲區永安南路二段286號","121.45756","25.081285","6501400","蘆洲區"
"247016","057-VK","2017/10/10 21:09:56","新北市蘆洲區正和街96巷15號","121.467426666667","25.0809433333333","6501400","蘆洲區"
"247006","056-VK","2017/10/10 21:09:37","新北市蘆洲區永安南路二段16巷18號","121.468098333333","25.0778566666667","6501400","蘆洲區"
"247008","053-VK","2017/10/10 21:09:51","新北市蘆洲區民生街26號","121.474976666667","25.0788883333333","6501400","蘆洲區"
"247014","007-UY","2017/10/10 21:09:48","新北市蘆洲區中央路155號","121.472663333333","25.0846916666667","6501400","蘆洲區"
"247024","002-UY","2017/10/10 21:09:53","新北市蘆洲區長興路50巷1號","121.463788333333","25.0837616666667","6501400","蘆洲區"
"247018","001-UY","2017/10/10 21:09:53","新北市蘆洲區民族路408巷12號","121.474925","25.0919266666667","6501400","蘆洲區"
"251002","012-UM","2017/10/10 21:09:40","新北市淡水區學府路96號","121.449348333333","25.1711216666667","6501000","淡水區"
"251014","182-VK","2017/10/10 21:09:43","新北市淡水區六塊厝2-6號","121.449585","25.2417683333333","6501000","淡水區"
"251010","413-VK","2017/10/10 21:09:48","新北市淡水區中正路一段63巷11號","121.422475","25.177035","6501000","淡水區"
"251012","441-VK","2017/10/10 21:09:36","新北市淡水區淡金路五段53號","121.454398333333","25.2335916666667","6501000","淡水區"
"251016","442-VK","2017/10/10 21:09:54","新北市淡水區前洲子2-1號","121.443958333333","25.2165766666667","6501000","淡水區"
"251005","443-VK","2017/10/10 21:09:45","新北市淡水區博愛街61號","121.446846666667","25.1689616666667","6501000","淡水區"
"251001","559-UM","2017/10/10 21:09:43","新北市淡水區新市一路三段1號","121.444858333333","25.1829866666667","6501000","淡水區"
"251009","575-R6","2017/10/10 21:09:42","新北市淡水區民族路112巷58號","121.461868333333","25.1345083333333","6501000","淡水區"
"251007","577-R6","2017/10/10 21:09:38","新北市淡水區水源街二段181號","121.455553333333","25.1755383333333","6501000","淡水區"
"251011","650-BX","2017/10/10 21:09:47","新北市淡水區新民街222巷16弄15號","121.437206666667","25.1797966666667","6501000","淡水區"
"251003","673-BX","2017/10/10 21:09:42","新北市淡水區新春街103-9號","121.440403333333","25.1818816666667","6501000","淡水區"
"252005","073-UM","2017/10/10 15:23:22","新北市三芝區埔坪里埔頭坑41號","121.504505","25.2644866666667","6502100","三芝區"
"242029","986-R7","2017/10/10 21:09:52","新北市新莊區復興路二段31號","121.454306666667","25.0440016666667","6500500","新莊區"
"221012","276-VK","2017/10/10 13:17:13","新北市汐止區汐萬路一段256巷3號","121.653465","25.0746433333333","6501100","汐止區"
"221018","753-BX","2017/10/10 21:09:46","新北市汐止區汐萬路一段256巷1號","121.65199","25.0748","6501100","汐止區"
"220088","491-VK","2017/10/10 21:09:37","新北市三重區光復路二段192號","121.47044","25.0630483333333","6500100","板橋區"
"220070","AAC-253","2017/10/10 21:09:52","新北市八里區中山路三段409號","121.36857","25.1349166666667","6500100","板橋區"
