"lineid","car","time","location","longitude","latitude","cityid","cityname"
"248005","653-BX","2017/06/30 09:39:22","新北市五股區成泰路一段7巷13號","121.432616666667","25.066815","6501500","五股區"
"222005","289-BY","2017/06/30 09:39:28","新北市深坑區文山路一段28號","121.629848333333","25.00653","6501800","深坑區"
"231009","188-VK","2017/06/30 09:33:41","新北市新店區平廣路一段256號","121.507625","24.8881266666667","6500600","新店區"
"231007","189-VK","2017/06/30 09:39:20","新北市新店區新潭路三段256號","121.508176666667","24.9039866666667","6500600","新店區"
"247002","402-BY","2017/06/30 09:39:32","新北市蘆洲區信義路300號","121.477536666667","25.087625","6501400","蘆洲區"
"223002","198-BX","2017/06/30 09:39:30","新北市石碇區小粗坑(潭邊里)1-6號","121.672281666667","24.9827033333333","6501900","石碇區"
"223008","406-TH","2017/06/30 09:36:27","新北市石碇區南勢坑2-3號","121.699835","24.9907216666667","6501900","石碇區"
"223004","660-BX","2017/06/30 09:39:34","新北市石碇區碇坪路一段226號","121.674551666667","24.9812016666667","6501900","石碇區"
"223007","661-BX","2017/06/30 09:25:55","新北市石碇區南勢坑4-1號","121.697648333333","24.9832766666667","6501900","石碇區"
"227005","282-VK","2017/06/30 09:26:11","新北市雙溪區泰平里溪尾寮2-2號","121.819471666667","24.9635183333333","6502500","雙溪區"
"237001","159-UY","2017/06/30 09:39:32","新北市三峽區國學街36號","121.373185","24.9423766666667","6500900","三峽區"
"236026","269-VK","2017/06/30 09:39:36","新北市土城區城林路6巷80號","121.438603333333","24.9797233333333","6501300","土城區"
"236006","498-BY","2017/06/30 09:39:31","新北市土城區忠承路22號","121.441015","24.96738","6501300","土城區"
