"lineid","car","time","location","longitude","latitude","cityid","cityname"
"248005","653-BX","2017/06/30 09:59:22","新北市五股區中興路二段182巷50號","121.454368333333","25.0810383333333","6501500","五股區"
"222005","289-BY","2017/06/30 09:59:28","新北市深坑區深南路88巷1號","121.620946666667","25.0117133333333","6501800","深坑區"
"231009","188-VK","2017/06/30 09:33:41","新北市新店區平廣路一段256號","121.507625","24.8881266666667","6500600","新店區"
"231007","189-VK","2017/06/30 09:59:20","新北市新店區新潭路三段215巷25號","121.508136666667","24.90403","6500600","新店區"
"247002","402-BY","2017/06/30 09:59:32","新北市蘆洲區仁愛街37號","121.472216666667","25.0927983333333","6501400","蘆洲區"
"223002","198-BX","2017/06/30 09:59:21","新北市石碇區石崁1號","121.651516666667","25.002455","6501900","石碇區"
"227005","282-VK","2017/06/30 09:54:51","新北市雙溪區泰平里灣潭路36號","121.811808333333","24.9287583333333","6502500","雙溪區"
"236006","498-BY","2017/06/30 09:59:31","新北市土城區城林路6巷80號","121.43871","24.9797033333333","6501300","土城區"
