"lineid","car","time","location","longitude","latitude","cityid","cityname"
"231009","188-VK","2017/06/30 10:59:21","新北市新店區廣興路96-2號","121.538388333333","24.9128333333333","6500600","新店區"
"231007","189-VK","2017/06/30 10:59:40","新北市新店區新潭路二段9號","121.527678333333","24.9262616666667","6500600","新店區"
"247002","402-BY","2017/06/30 10:53:44","新北市五股區中興路三段3-6號","121.449888333333","25.0786066666667","6501400","蘆洲區"
"223002","198-BX","2017/06/30 10:59:33","新北市石碇區靜安路一段94號","121.647605","25.0105216666667","6501900","石碇區"
"227005","282-VK","2017/06/30 10:52:11","新北市雙溪區泰平里泰平54號","121.829791666667","24.9766216666667","6502500","雙溪區"
"237001","159-UY","2017/06/30 10:59:25","新北市三峽區大學路156號","121.373388333333","24.9455116666667","6500900","三峽區"
