"lineid","car","time","location","longitude","latitude","cityid","cityname"
"234036","336-UY","2017/06/30 12:19:24","新北市永和區福和路1號","121.526595","25.0102016666667","6500400","永和區"
"234040","862-TW","2017/06/30 12:19:20","新北市永和區福和路1號","121.526371666667","25.0097533333333","6500400","永和區"
"234076","969-R7","2017/06/30 12:19:28","新北市永和區福和路1號","121.52659","25.0098016666667","6500400","永和區"
"235031","255-BX","2017/06/30 12:19:28","新北市中和區和城路一段271巷1號","121.485393333333","24.9918533333333","6500300","中和區"
"247002","402-BY","2017/06/30 10:53:44","新北市五股區中興路三段3-6號","121.449888333333","25.0786066666667","6501400","蘆洲區"
"207002","749-BX","2017/06/30 12:19:13","新北市萬里區中幅里大湖路6號","121.66063","25.1711366666667","6502800","萬里區"
"221010","276-VK","2017/06/30 12:19:23","新北市汐止區中正路235號","121.657753333333","25.068725","6501100","汐止區"
