"lineid","car","time","location","longitude","latitude","cityid","cityname"
"234062","337-UY","2017/06/30 14:37:36","新北市中和區中和路428號","121.511706666667","25.0033166666667","6500400","永和區"
"234084","338-UY","2017/06/30 14:39:22","新北市中和區光環路二段27號","121.488208333333","25.0122633333333","6500400","永和區"
"234025","9371-KE","2017/06/30 14:39:23","新北市永和區雙和街25巷4號","121.508901666667","25.0019016666667","6500400","永和區"
"248019","225-UY","2017/06/30 14:39:30","新北市五股區凌雲路三段82-1號","121.431685","25.1173916666667","6501500","五股區"
"234066","AAC-212","2017/06/30 14:39:29","新北市永和區保平路290號","121.508033333333","25.004465","6500400","永和區"
"234001","AAC-295","2017/06/30 14:37:59","新北市永和區中正路626號","121.517008333333","25.00791","6500400","永和區"
"244004","248-BX","2017/06/30 14:39:23","新北市林口區竹林路267號","121.389588333333","25.08081","6501700","林口區"
"231002","002-UM","2017/06/30 14:39:22","新北市新店區中正路468號","121.533965","24.97963","6500600","新店區"
"231025","0293-UT","2017/06/30 14:39:31","新北市新店區民族路161號","121.537776666667","24.9767466666667","6500600","新店區"
"231028","046-UY","2017/06/30 14:39:30","新北市新店區安德街60巷35號","121.511208333333","24.963635","6500600","新店區"
"231029","106-UY","2017/06/30 14:39:27","新北市新店區安康路三段242號","121.48777","24.9517916666667","6500600","新店區"
"231018","107-UY","2017/06/30 14:39:18","新北市新店區中央五街1號","121.530148333333","24.9740733333333","6500600","新店區"
"231012","108-UY","2017/06/30 14:39:32","新北市新店區寶橋路85巷5弄3號","121.54587","24.9757383333333","6500600","新店區"
"231022","187-VK","2017/06/30 14:39:21","新北市新店區桂山路2-1號","121.556805","24.904435","6500600","新店區"
"231034","268-BY","2017/06/30 14:39:32","新北市新店區黎明路45號","121.50203","24.9497266666667","6500600","新店區"
"231016","AAD-862","2017/06/30 14:39:22","新北市新店區北宜路三段265巷1號","121.600588333333","24.9552216666667","6500600","新店區"
"231027","3712-VJ","2017/06/30 14:39:18","新北市新店區中正路76巷11弄19號","121.543706666667","24.9716983333333","6500600","新店區"
"231038","4715-K9","2017/06/30 14:39:19","新北市新店區溪洲路187-2號","121.529286666667","24.9645516666667","6500600","新店區"
"231036","512-UM","2017/06/30 14:39:24","新北市新店區安祥路106巷6弄1號","121.478821666667","24.9625883333333","6500600","新店區"
"231023","513-UM","2017/06/30 14:39:32","新北市新店區檳榔路59號","121.543451666667","24.9624683333333","6500600","新店區"
"231035","515-UM","2017/06/30 14:39:11","新北市新店區安民街3巷5號","121.514446666667","24.96448","6500600","新店區"
"231003","616-UM","2017/06/30 14:39:31","新北市新店區五峰路57-1號","121.546986666667","24.9708083333333","6500600","新店區"
"231006","617-UM","2017/06/30 14:39:21","新北市新店區北宜路二段151號","121.551811666667","24.9532683333333","6500600","新店區"
"231030","618-UM","2017/06/30 14:39:22","新北市新店區安民街235號","121.517145","24.9719816666667","6500600","新店區"
"231001","619-UM","2017/06/30 14:39:31","新北市新店區中正路69號","121.543726666667","24.9701966666667","6500600","新店區"
"231013","719-UM","2017/06/30 14:39:14","新北市新店區明德路15號","121.542203333333","24.9769216666667","6500600","新店區"
"231005","897-TW","2017/06/30 14:39:17","新北市新店區復興路27號","121.53899","24.986615","6500600","新店區"
"231004","899-TW","2017/06/30 14:39:16","新北市新店區中正路263-5號","121.538186666667","24.97386","6500600","新店區"
"231037","AKT-0513","2017/06/30 14:39:29","新北市新店區柴埕路52巷1-2號","121.512303333333","24.9645133333333","6500600","新店區"
"235030","003-UY","2017/06/30 14:39:16","新北市中和區景新街162號","121.50575","24.9971733333333","6500300","中和區"
"235028","005-UY","2017/06/30 14:39:23","新北市中和區南山路127巷31號","121.503588333333","24.9975733333333","6500300","中和區"
"235027","006-UY","2017/06/30 14:39:25","新北市中和區連城路190-1號","121.49273","24.99778","6500300","中和區"
"235026","031-BX","2017/06/30 14:39:23","新北市中和區中山路二段427號","121.485356666667","25.004845","6500300","中和區"
"235020","096-UM","2017/06/30 14:39:34","新北市中和區員山路514巷1號","121.479336666667","25.00958","6500300","中和區"
"235003","097-UM","2017/06/30 14:39:18","新北市中和區景平路266號","121.514523333333","24.9924066666667","6500300","中和區"
"235004","150-BY","2017/06/30 14:39:28","新北市中和區安平路59號","121.509655","24.99494","6500300","中和區"
"235022","151-BY","2017/06/30 14:39:23","新北市中和區員山路124巷4號","121.481643333333","24.9959183333333","6500300","中和區"
"235019","183-VK","2017/06/30 14:39:20","新北市中和區德光路38-1號","121.470428333333","25.0047233333333","6500300","中和區"
"235002","185-VK","2017/06/30 14:39:25","新北市中和區立人街3號","121.521773333333","24.99405","6500300","中和區"
"235013","186-VK","2017/06/30 14:39:29","新北市中和區安平路31號","121.509411666667","24.9946","6500300","中和區"
"235031","255-BX","2017/06/30 14:39:28","新北市中和區新生街220巷15弄5號","121.482936666667","24.998145","6500300","中和區"
"235008","293-VK","2017/06/30 14:39:15","新北市中和區復興路287號","121.501963333333","24.9902666666667","6500300","中和區"
"235036","301-VK","2017/06/30 14:39:16","新北市中和區中和路74號","121.500803333333","25.0001483333333","6500300","中和區"
"235007","352-BY","2017/06/30 14:39:11","新北市中和區景平路448-3號","121.506111666667","24.9934066666667","6500300","中和區"
"235015","376-QA","2017/06/30 14:39:30","新北市中和區中興街162號","121.499891666667","24.9916516666667","6500300","中和區"
"235032","377-QA","2017/06/30 14:39:11","新北市中和區中山路二段189號","121.500196666667","25.0026816666667","6500300","中和區"
"235025","378-QA","2017/06/30 14:39:29","新北市中和區員山路174巷14號","121.482276666667","24.999685","6500300","中和區"
"235014","4979-A6","2017/06/30 14:39:24","新北市中和區景平路357號","121.504655","24.9932166666667","6500300","中和區"
"235006","551-UM","2017/06/30 14:39:27","新北市中和區保健路2巷32號","121.507003333333","24.9973833333333","6500300","中和區"
"235034","558-UM","2017/06/30 14:39:16","新北市中和區中山路二段228號","121.498988333333","25.0027433333333","6500300","中和區"
"235009","565-BX","2017/06/30 14:39:18","新北市中和區景新街416號","121.51282","24.9889683333333","6500300","中和區"
"235018","640-BX","2017/06/30 14:39:30","新北市中和區國光街112巷20弄5號","121.470671666667","25.0018266666667","6500300","中和區"
"235024","647-TV","2017/06/30 14:39:22","新北市中和區中山路二段513號","121.482103333333","25.0051133333333","6500300","中和區"
"235011","732-UM","2017/06/30 14:39:25","新北市中和區捷運路129號","121.507123333333","24.99063","6500300","中和區"
"235035","783-BX","2017/06/30 14:39:28","新北市中和區連城路469巷7號","121.483651666667","24.9956466666667","6500300","中和區"
"235021","801-TS","2017/06/30 14:39:29","新北市中和區員山路372號","121.480753333333","25.0041016666667","6500300","中和區"
"235005","802-TS","2017/06/30 14:39:28","新北市中和區中和路228號","121.506618333333","24.999355","6500300","中和區"
"235016","805-TS","2017/06/30 14:39:27","新北市中和區華新街143巷72號","121.506318333333","24.9791316666667","6500300","中和區"
"235012","896-TW","2017/06/30 14:39:32","新北市中和區景新街462號","121.513493333333","24.9874166666667","6500300","中和區"
"235017","900-TW","2017/06/30 14:39:32","新北市中和區國光街215巷26號","121.46714","25.000285","6500300","中和區"
"235004","157-BY","2017/06/30 14:39:30","新北市中和區忠孝街92號","121.511708333333","24.9844483333333","6500300","中和區"
"235001","AAC-213","2017/06/30 14:39:18","新北市中和區秀朗路三段50巷21號","121.524671666667","24.9950666666667","6500300","中和區"
"235023","AAC-215","2017/06/30 14:39:33","新北市中和區圓通路305巷7弄1號","121.493701666667","24.9899416666667","6500300","中和區"
"220016","013-TV","2017/06/30 14:39:33","新北市板橋區中山路二段412巷29弄8-3號","121.484276666667","25.020035","6500100","板橋區"
"220013","072-UY","2017/06/30 14:39:31","新北市板橋區國泰街38巷3弄7號","121.468198333333","25.0066616666667","6500100","板橋區"
"220034","073-UY","2017/06/30 14:39:31","新北市板橋區中正路自強新村36號","121.45636","25.0136383333333","6500100","板橋區"
"220105","075-UY","2017/06/30 14:39:31","新北市板橋區民治街26巷18號","121.477346666667","25.0336216666667","6500100","板橋區"
"247009","546-UM","2017/06/30 14:39:17","新北市蘆洲區永安南路一段282號","121.468858333333","25.0762233333333","6501400","蘆洲區"
"247017","500-BY","2017/06/30 14:39:17","新北市蘆洲區中正路520巷9號","121.461768333333","25.0990616666667","6501400","蘆洲區"
"247002","402-BY","2017/06/30 14:39:24","新北市蘆洲區忠孝路62號","121.471503333333","25.0848966666667","6501400","蘆洲區"
"247007","339-TH","2017/06/30 14:39:19","新北市蘆洲區信義路39號","121.474648333333","25.0794966666667","6501400","蘆洲區"
"247023","337-TH","2017/06/30 14:39:21","新北市蘆洲區中山二路222巷21弄8號","121.469006666667","25.0801583333333","6501400","蘆洲區"
"247001","336-TH","2017/06/30 14:39:18","新北市蘆洲區長安街335號","121.457325","25.0867566666667","6501400","蘆洲區"
"247013","057-VK","2017/06/30 14:39:17","新北市蘆洲區中央路56號","121.473388333333","25.0836383333333","6501400","蘆洲區"
"247003","056-VK","2017/06/30 14:39:20","新北市蘆洲區長安街283號","121.458236666667","25.0844483333333","6501400","蘆洲區"
"247015","001-UY","2017/06/30 14:39:18","新北市蘆洲區正和街96巷52號","121.467405","25.081625","6501400","蘆洲區"
"224011","201-TW","2017/06/30 12:52:46","新北市瑞芳區大寮路356-1號","121.784683333333","25.1031333333333","6501200","瑞芳區"
"227011","400-TW","2017/06/30 14:02:42","新北市雙溪區三貂里政光路3-1號","121.850906666667","25.0630216666667","6502500","雙溪區"
"208004","AAC-292","2017/06/30 14:39:28","新北市金山區半嶺61號","121.60899","25.2370383333333","6502700","金山區"
"207002","749-BX","2017/06/30 14:39:32","新北市萬里區崁腳里崁腳路73號","121.647633333333","25.1595666666667","6502800","萬里區"
"207001","463-BY","2017/06/30 14:39:14","新北市萬里區雙興里豐稟路27-2號","121.641361666667","25.18919","6502800","萬里區"
"236067","105-UM","2017/06/30 14:39:21","新北市土城區永豐路304號","121.47201","24.9775716666667","6501300","土城區"
"236041","107-UM","2017/06/30 14:39:32","新北市土城區學成路126號","121.449285","24.989515","6501300","土城區"
"236076","166-UM","2017/06/30 14:39:18","新北市土城區中央路四段47號","121.422328333333","24.9615516666667","6501300","土城區"
"236029","253-BX","2017/06/30 14:39:15","新北市土城區中華路二段185號","121.43845","24.974715","6501300","土城區"
"236025","269-VK","2017/06/30 14:39:23","新北市土城區忠義路47號","121.44057","24.9693466666667","6501300","土城區"
"236013","270-VK","2017/06/30 14:39:18","新北市土城區清水路211號","121.460623333333","24.9820083333333","6501300","土城區"
"236035","271-VK","2017/06/30 14:39:34","新北市土城區明德路一段313巷5弄1號","121.459646666667","24.976135","6501300","土城區"
"236019","401-BY","2017/06/30 14:39:29","新北市土城區永豐路10號","121.465608333333","24.9846033333333","6501300","土城區"
"236006","498-BY","2017/06/30 14:39:14","新北市土城區城林路6巷80號","121.438443333333","24.9800816666667","6501300","土城區"
"236057","912-UM","2017/06/30 14:39:31","新北市土城區中央路四段21號","121.425153333333","24.9626133333333","6501300","土城區"
"236046","913-UM","2017/06/30 14:39:29","新北市土城區明德路一段1號","121.464885","24.9857916666667","6501300","土城區"
"236061","915-UM","2017/06/30 14:39:23","新北市土城區延壽路30號","121.471128333333","24.991025","6501300","土城區"
"236054","AAC-216","2017/06/30 14:39:32","新北市土城區中華路一段127號","121.444338333333","24.9866783333333","6501300","土城區"
"221010","276-VK","2017/06/30 13:26:27","新北市汐止區汐萬路一段256巷3號","121.653458333333","25.07458","6501100","汐止區"
"221038","646-BX","2017/06/30 14:39:19","台北市文山區新光路二段96號","121.594576666667","24.999195","6501100","汐止區"
"221002","753-BX","2017/06/30 14:39:31","新北市汐止區大同路三段271號","121.673961666667","25.0756066666667","6501100","汐止區"
"220027","145-BY","2017/06/30 14:39:30","新北市板橋區建國街54巷29號","121.459951666667","25.0170783333333","6500100","板橋區"
"220028","200-UY","2017/06/30 14:39:26","新北市板橋區大觀路二段153巷46弄4號","121.448888333333","24.9995433333333","6500100","板橋區"
"220030","610-BX","2017/06/30 14:39:21","新北市板橋區金門街105號","121.433133333333","24.992305","6500100","板橋區"
"220050","245-BX","2017/06/30 14:39:34","新北市板橋區莊敬路220巷29弄2號","121.472771666667","25.0203533333333","6500100","板橋區"
"220017","258-TC","2017/06/30 14:39:17","新北市板橋區貴興路51號","121.45761","25.00317","6500100","板橋區"
"220004","276-BY","2017/06/30 14:39:19","新北市板橋區德興街37巷10號","121.453828333333","24.993765","6500100","板橋區"
"220020","277-BY","2017/06/30 14:39:25","新北市板橋區金門街226號","121.430838333333","24.9875716666667","6500100","板橋區"
"220021","282-UM","2017/06/30 14:39:21","新北市板橋區中正路302號","121.45494","25.02056","6500100","板橋區"
"220043","283-UM","2017/06/30 14:39:28","新北市板橋區宏國路47號","121.468418333333","25.0318116666667","6500100","板橋區"
"220019","283-VK","2017/06/30 14:39:22","新北市板橋區四川路一段473號","121.457158333333","24.9975083333333","6500100","板橋區"
"220001","285-VK","2017/06/30 14:39:23","新北市板橋區民享街97號","121.477183333333","25.0160366666667","6500100","板橋區"
"220031","286-VK","2017/06/30 14:39:30","新北市板橋區龍興街63巷14號","121.442805","25.0014533333333","6500100","板橋區"
"220029","287-VK","2017/06/30 14:39:28","新北市板橋區南雅西路一段110號","121.452435","25.00621","6500100","板橋區"
"220039","288-VK","2017/06/30 14:39:27","新北市板橋區新海路431巷16號","121.45789","25.0269133333333","6500100","板橋區"
"220009","293-UM","2017/06/30 14:39:23","新北市板橋區板新路200巷16號","121.468836666667","25.0164016666667","6500100","板橋區"
"220032","296-UM","2017/06/30 14:39:25","新北市板橋區滿平二街2巷1弄50號","121.42483","24.9879833333333","6500100","板橋區"
"220023","297-UM","2017/06/30 14:39:24","新北市板橋區中正路253巷59號","121.452833333333","25.0171666666667","6500100","板橋區"
"220010","305-R5","2017/06/30 14:39:26","新北市板橋區光復街25號","121.48142","25.0191766666667","6500100","板橋區"
"220041","307-R5","2017/06/30 14:39:21","新北市板橋區自由路6號","121.465553333333","25.022415","6500100","板橋區"
"220047","317-R6","2017/06/30 14:39:30","新北市板橋區四維路269巷39-3號","121.461536666667","25.027535","6500100","板橋區"
"220012","486-VK","2017/06/30 14:39:32","新北市板橋區民族路19號","121.461785","25.0096733333333","6500100","板橋區"
"220038","487-VK","2017/06/30 14:39:11","新北市板橋區文化路一段27-1號","121.460048333333","25.0127533333333","6500100","板橋區"
"220037","491-VK","2017/06/30 14:39:00","新北市板橋區文化路二段367號","121.473181666667","25.03097","6500100","板橋區"
"220104","560-BX","2017/06/30 14:39:15","新北市板橋區金華街100號","121.45842","25.020725","6500100","板橋區"
"220052","561-BX","2017/06/30 14:39:17","新北市板橋區文化路一段288號","121.467473333333","25.0215016666667","6500100","板橋區"
"220011","609-BX","2017/06/30 14:39:19","新北市板橋區三民路一段1巷30號","121.48016","25.0243366666667","6500100","板橋區"
"220040","637-BX","2017/06/30 14:39:21","新北市板橋區懷德街139巷20弄10號","121.48019","25.03062","6500100","板橋區"
"220005","686-BX","2017/06/30 14:39:17","新北市板橋區和平路182號","121.463586666667","24.9958016666667","6500100","板橋區"
"220025","687-BX","2017/06/30 14:39:17","新北市板橋區僑中二街108巷1號","121.445798333333","25.0071316666667","6500100","板橋區"
"220042","689-BX","2017/06/30 14:39:26","新北市板橋區新海路387號","121.458958333333","25.0261566666667","6500100","板橋區"
"220002","741-BX","2017/06/30 14:39:16","新北市板橋區忠孝路239巷2號","121.466198333333","25.003155","6500100","板橋區"
"220003","827-TW","2017/06/30 14:39:16","新北市板橋區國慶路149巷4弄18-3號","121.461985","24.99698","6500100","板橋區"
"220014","829-TW","2017/06/30 14:39:25","新北市板橋區長安街331巷91-2號","121.471981666667","25.0126366666667","6500100","板橋區"
"220051","830-TW","2017/06/30 14:39:17","新北市板橋區雙十路二段70巷26號","121.476016666667","25.0285883333333","6500100","板橋區"
"220045","831-TW","2017/06/30 14:39:19","新北市板橋區民生路二段234巷26弄9號","121.470538333333","25.022005","6500100","板橋區"
"220022","895-R6","2017/06/30 14:39:30","新北市板橋區府中路29-2號","121.458558333333","25.0081133333333","6500100","板橋區"
"220046","AAC-210","2017/06/30 14:39:16","新北市板橋區幸福路38號","121.461583333333","25.0202316666667","6500100","板橋區"
"220018","AAC-253","2017/06/30 14:39:25","新北市板橋區四川路一段107號","121.459748333333","25.0052316666667","6500100","板橋區"
