"lineid","car","time","location","longitude","latitude","cityid","cityname"
"234084","338-UY","2017/06/30 14:49:23","新北市五股區新城三路43號","121.44857","25.0921916666667","6500400","永和區"
"234025","9371-KE","2017/06/30 14:49:23","新北市永和區水源街27巷5號","121.51123","25.0041566666667","6500400","永和區"
"248019","225-UY","2017/06/30 14:49:33","新北市五股區中直路28-5號","121.42455","25.1119633333333","6501500","五股區"
"234066","AAC-212","2017/06/30 14:49:29","新北市中和區環河西路三段123號","121.489383333333","25.0104633333333","6500400","永和區"
"244004","248-BX","2017/06/30 14:49:23","新北市林口區竹林路266號","121.38968","25.08073","6501700","林口區"
"231002","002-UM","2017/06/30 14:49:22","新北市新店區民權路63號","121.539265","24.9829333333333","6500600","新店區"
"231025","0293-UT","2017/06/30 14:49:30","新北市新店區民族路66號","121.539491666667","24.9783666666667","6500600","新店區"
"231028","046-UY","2017/06/30 14:49:30","新北市新店區安德街160號","121.508445","24.9592183333333","6500600","新店區"
"231029","106-UY","2017/06/30 14:49:27","新北市新店區錦秀路11巷90弄1號","121.480338333333","24.9429116666667","6500600","新店區"
"231018","107-UY","2017/06/30 14:49:18","新北市新店區中央路232號","121.52948","24.972615","6500600","新店區"
"231012","108-UY","2017/06/30 14:49:32","新北市新店區永華街43號","121.544153333333","24.9760533333333","6500600","新店區"
"231022","187-VK","2017/06/30 14:49:21","新北市新店區永福路30號","121.549318333333","24.9292116666667","6500600","新店區"
"231026","256-BX","2017/06/30 14:49:29","新北市新店區安康路一段355-3號","121.519773333333","24.9617233333333","6500600","新店區"
"231034","268-BY","2017/06/30 14:49:31","新北市新店區玫瑰路4-1號","121.493583333333","24.9513616666667","6500600","新店區"
"231016","AAD-862","2017/06/30 14:49:22","新北市新店區北宜路三段335巷15號","121.609995","24.959125","6500600","新店區"
"231027","3712-VJ","2017/06/30 14:49:18","新北市新店區中正路338號","121.536678333333","24.97506","6500600","新店區"
"231024","3713-VJ","2017/06/30 14:49:31","新北市新店區力行路14巷16弄6號","121.539418333333","24.9655316666667","6500600","新店區"
"231036","512-UM","2017/06/30 14:49:24","新北市新店區安祥路104巷6弄24號","121.48234","24.9623116666667","6500600","新店區"
"231023","513-UM","2017/06/30 14:49:12","新北市新店區檳榔路109號","121.544425","24.961675","6500600","新店區"
"231035","515-UM","2017/06/30 14:49:31","新北市新店區安樂街16號","121.520855","24.9732366666667","6500600","新店區"
"231003","616-UM","2017/06/30 14:49:30","新北市新店區中興路二段55號","121.546415","24.9702666666667","6500600","新店區"
"231006","617-UM","2017/06/30 14:49:20","新北市新店區北宜路一段175號","121.544666666667","24.9531483333333","6500600","新店區"
"231030","618-UM","2017/06/30 14:49:22","新北市新店區安民街382號","121.516208333333","24.9767433333333","6500600","新店區"
"231001","619-UM","2017/06/30 14:49:31","新北市新店區三民路123號","121.534708333333","24.9723633333333","6500600","新店區"
"231039","718-UY","2017/06/30 14:49:26","新北市新店區力行路11巷57號","121.538551666667","24.9617233333333","6500600","新店區"
"231013","719-UM","2017/06/30 14:49:14","新北市新店區北新路二段35號","121.542708333333","24.972525","6500600","新店區"
"231032","720-UM","2017/06/30 14:49:18","新北市新店區安泰路7巷16號","121.485655","24.950945","6500600","新店區"
"231005","897-TW","2017/06/30 14:49:17","新北市新店區復興路2號","121.53233","24.988265","6500600","新店區"
"231004","899-TW","2017/06/30 14:49:16","新北市新店區民族路103號","121.538508333333","24.9774833333333","6500600","新店區"
"231037","AKT-0513","2017/06/30 14:49:29","新北市新店區柴埕路60巷2號","121.509928333333","24.9640783333333","6500600","新店區"
"235030","003-UY","2017/06/30 14:49:16","新北市中和區南工路22巷2號","121.505536666667","25.00063","6500300","中和區"
"235027","006-UY","2017/06/30 14:49:21","新北市中和區連城路263巷27弄2號","121.492713333333","24.9946616666667","6500300","中和區"
"235026","031-BX","2017/06/30 14:49:23","新北市中和區建六路69號","121.486953333333","25.0023433333333","6500300","中和區"
"235020","096-UM","2017/06/30 14:49:14","新北市中和區中山路三段114巷17號","121.47556","25.00798","6500300","中和區"
"235003","097-UM","2017/06/30 14:49:19","新北市中和區安平路186號","121.512996666667","24.9989733333333","6500300","中和區"
"235004","150-BY","2017/06/30 14:49:28","新北市中和區安和路71號","121.508268333333","24.9951133333333","6500300","中和區"
"235022","151-BY","2017/06/30 14:49:23","新北市中和區員山路146巷2號","121.48149","24.99679","6500300","中和區"
"235019","183-VK","2017/06/30 14:49:20","新北市中和區民生街85巷5弄2號","121.469313333333","25.0039816666667","6500300","中和區"
"235002","185-VK","2017/06/30 14:49:25","新北市中和區自立路141巷2號","121.522326666667","24.9934583333333","6500300","中和區"
"235013","186-VK","2017/06/30 14:49:29","新北市中和區景平路528號","121.502848333333","24.9944733333333","6500300","中和區"
"235031","255-BX","2017/06/30 14:49:28","新北市中和區新生街268號","121.483728333333","24.9971016666667","6500300","中和區"
"235008","293-VK","2017/06/30 14:49:15","新北市中和區捷運路129號","121.507076666667","24.9907183333333","6500300","中和區"
"235036","301-VK","2017/06/30 14:49:16","新北市中和區連城路209號","121.494506666667","24.9979","6500300","中和區"
"235007","352-BY","2017/06/30 14:49:31","新北市中和區安和路61號","121.508661666667","24.9949183333333","6500300","中和區"
"235015","376-QA","2017/06/30 14:49:29","新北市中和區中興街233巷8弄15號","121.50116","24.98881","6500300","中和區"
"235032","377-QA","2017/06/30 14:49:31","新北市中和區福美路301巷2號","121.497138333333","25.0046933333333","6500300","中和區"
"235014","4979-A6","2017/06/30 14:49:24","新北市中和區景平路241巷64弄10號","121.50759","24.992545","6500300","中和區"
"235033","4980-A6","2017/06/30 14:49:25","新北市中和區南山路37巷3弄1號","121.502703333333","24.9988366666667","6500300","中和區"
"235034","558-UM","2017/06/30 14:49:16","新北市中和區泰和街43號","121.499015","24.9994183333333","6500300","中和區"
"235018","640-BX","2017/06/30 14:49:30","新北市中和區莒光路115號","121.472476666667","25.00242","6500300","中和區"
"235024","647-TV","2017/06/30 14:49:22","新北市中和區新生街30巷1號","121.482995","25.0038533333333","6500300","中和區"
"235011","732-UM","2017/06/30 14:49:25","新北市中和區和平街78號","121.507791666667","24.9912033333333","6500300","中和區"
"235035","783-BX","2017/06/30 14:49:28","新北市中和區建八路130巷6號","121.48822","24.9977566666667","6500300","中和區"
"235021","801-TS","2017/06/30 14:49:29","新北市中和區員山路150-26號","121.481395","24.9981116666667","6500300","中和區"
"235005","802-TS","2017/06/30 14:49:28","新北市中和區永貞路288號","121.513006666667","25.0041833333333","6500300","中和區"
"235016","805-TS","2017/06/30 14:49:27","新北市中和區華新街192巷31號","121.506278333333","24.9832683333333","6500300","中和區"
"235012","896-TW","2017/06/30 14:49:32","新北市中和區忠孝街56號","121.511515","24.98364","6500300","中和區"
"235017","900-TW","2017/06/30 14:49:32","新北市中和區國光街215巷6弄2號","121.466468333333","25.00161","6500300","中和區"
"235004","157-BY","2017/06/30 14:49:30","新北市中和區仁愛街67號","121.51142","24.9875783333333","6500300","中和區"
"235001","AAC-213","2017/06/30 14:49:18","新北市中和區秀朗路三段10巷14弄55號","121.523268333333","24.9965783333333","6500300","中和區"
"235023","AAC-215","2017/06/30 14:49:19","新北市中和區圓通路305巷5弄9號","121.493895","24.990355","6500300","中和區"
"220016","013-TV","2017/06/30 14:49:13","新北市板橋區光復街31巷1號","121.481526666667","25.0189733333333","6500100","板橋區"
"220013","072-UY","2017/06/30 14:49:33","新北市板橋區民族路276巷1弄2號","121.469818333333","25.0065283333333","6500100","板橋區"
"220034","073-UY","2017/06/30 14:49:31","新北市板橋區南雅西路二段7巷25號","121.451911666667","25.0094783333333","6500100","板橋區"
"220105","075-UY","2017/06/30 14:49:31","新北市板橋區民治街71巷27號","121.48062","25.03304","6500100","板橋區"
"247017","500-BY","2017/06/30 14:49:17","新北市五股區中興路三段2巷10號","121.448873333333","25.0815366666667","6501400","蘆洲區"
"247002","402-BY","2017/06/30 14:49:24","新北市蘆洲區中央路155號","121.47269","25.0846233333333","6501400","蘆洲區"
"247023","337-TH","2017/06/30 14:49:21","新北市蘆洲區中山二路300巷2號","121.46864","25.0770766666667","6501400","蘆洲區"
"224011","201-TW","2017/06/30 12:52:46","新北市瑞芳區大寮路356-1號","121.784683333333","25.1031333333333","6501200","瑞芳區"
"227011","400-TW","2017/06/30 14:02:42","新北市雙溪區三貂里政光路3-1號","121.850906666667","25.0630216666667","6502500","雙溪區"
"208004","AAC-292","2017/06/30 14:48:55","新北市金山區西湖里西勢湖6號","121.614361666667","25.244185","6502700","金山區"
"207002","749-BX","2017/06/30 14:49:12","新北市萬里區崁腳里崁腳路73號","121.647596666667","25.159575","6502800","萬里區"
"207001","463-BY","2017/06/30 14:49:14","新北市萬里區雙興里二坪路5-1號","121.64915","25.1754216666667","6502800","萬里區"
"236067","105-UM","2017/06/30 14:49:21","新北市土城區青雲路113號","121.459013333333","24.9844333333333","6501300","土城區"
"236041","107-UM","2017/06/30 14:49:32","新北市土城區裕民路114巷1-2號","121.450693333333","24.9861783333333","6501300","土城區"
"236076","166-UM","2017/06/30 14:49:18","新北市土城區中央路四段165巷23號","121.416168333333","24.95594","6501300","土城區"
"236029","253-BX","2017/06/30 14:49:15","新北市土城區忠義路26巷19號","121.439826666667","24.9698683333333","6501300","土城區"
"236025","269-VK","2017/06/30 14:49:26","新北市土城區慶安街37號","121.441355","24.973225","6501300","土城區"
"236013","270-VK","2017/06/30 14:49:18","新北市土城區金城路二段356號","121.461506666667","24.985025","6501300","土城區"
"236035","271-VK","2017/06/30 14:49:31","新北市土城區仁愛路54巷1號","121.46249","24.9785183333333","6501300","土城區"
"236019","401-BY","2017/06/30 14:49:29","新北市土城區延安街2號","121.467193333333","24.9861383333333","6501300","土城區"
"236057","912-UM","2017/06/30 14:49:31","新北市土城區中央路三段58-2號","121.437025","24.9673333333333","6501300","土城區"
"236046","913-UM","2017/06/30 14:49:29","新北市板橋區信義路170巷10號","121.460026666667","24.9906033333333","6501300","土城區"
"236061","915-UM","2017/06/30 14:49:23","新北市土城區金城路三段207巷6弄13號","121.470791666667","24.9902883333333","6501300","土城區"
"236054","AAC-216","2017/06/30 14:49:31","新北市土城區裕民路179號","121.453393333333","24.984705","6501300","土城區"
"221010","276-VK","2017/06/30 13:26:27","新北市汐止區汐萬路一段256巷3號","121.653458333333","25.07458","6501100","汐止區"
"221038","646-BX","2017/06/30 14:49:19","新北市汐止區南興路28號","121.65215","25.0616316666667","6501100","汐止區"
"221002","753-BX","2017/06/30 14:49:31","新北市汐止區大同路二段227號","121.653071666667","25.065015","6501100","汐止區"
"220027","145-BY","2017/06/30 14:49:30","新北市板橋區南雅西路二段216號","121.452028333333","25.01526","6500100","板橋區"
"220028","200-UY","2017/06/30 14:49:26","新北市板橋區大觀路二段37巷1號","121.446991666667","25.0029133333333","6500100","板橋區"
"220030","610-BX","2017/06/30 14:49:25","新北市板橋區沙崙街2-5號","121.431063333333","24.9943133333333","6500100","板橋區"
"220050","245-BX","2017/06/30 14:49:28","新北市板橋區莒光路200-1號","121.474158333333","25.0220883333333","6500100","板橋區"
"220017","258-TC","2017/06/30 14:49:17","新北市板橋區縣民大道一段64巷12號","121.455315","25.003785","6500100","板橋區"
"220020","277-BY","2017/06/30 14:49:19","新北市板橋區金門街253巷6弄2號","121.432401666667","24.9886016666667","6500100","板橋區"
"220021","282-UM","2017/06/30 14:49:31","新北市板橋區南雅西路二段194號","121.451725","25.0145783333333","6500100","板橋區"
"220043","283-UM","2017/06/30 14:49:28","新北市板橋區溪頭街2號","121.457385","25.0286983333333","6500100","板橋區"
"220019","283-VK","2017/06/30 14:49:28","新北市板橋區廣權路85號","121.464098333333","24.99244","6500100","板橋區"
"220001","285-VK","2017/06/30 14:49:25","新北市板橋區中山路二段60巷1弄20號","121.474988333333","25.0156933333333","6500100","板橋區"
"220031","286-VK","2017/06/30 14:49:26","新北市板橋區僑中二街10巷17號","121.446215","25.0110233333333","6500100","板橋區"
"220029","287-VK","2017/06/30 14:49:31","新北市板橋區大觀路一段29巷127號","121.450666666667","25.005345","6500100","板橋區"
"220039","288-VK","2017/06/30 14:49:26","新北市板橋區龍泉街90巷3號","121.456098333333","25.02484","6500100","板橋區"
"220009","293-UM","2017/06/30 14:49:23","新北市板橋區觀光街21號","121.471348333333","25.0162033333333","6500100","板橋區"
"220032","296-UM","2017/06/30 14:49:20","新北市板橋區溪崑二街124巷1號","121.42585","24.9880933333333","6500100","板橋區"
"220023","297-UM","2017/06/30 14:49:24","新北市板橋區金華街1號","121.455506666667","25.0200583333333","6500100","板橋區"
"220010","305-R5","2017/06/30 14:49:26","新北市板橋區光復街106號","121.483373333333","25.0180383333333","6500100","板橋區"
"220041","307-R5","2017/06/30 14:49:21","新北市板橋區陽明街164巷29號","121.464641666667","25.02465","6500100","板橋區"
"220047","317-R6","2017/06/30 14:49:16","新北市板橋區四維路269巷94弄18號","121.459351666667","25.0269783333333","6500100","板橋區"
"220012","486-VK","2017/06/30 14:49:29","新北市板橋區實踐路63號","121.463805","25.0063283333333","6500100","板橋區"
"220038","487-VK","2017/06/30 14:49:31","新北市板橋區英士路61號","121.460543333333","25.02428","6500100","板橋區"
"220037","491-VK","2017/06/30 14:48:08","新北市板橋區仁化街189號","121.478443333333","25.034105","6500100","板橋區"
"220104","560-BX","2017/06/30 14:49:15","新北市板橋區新生街53巷3弄12號","121.457038333333","25.021765","6500100","板橋區"
"220052","561-BX","2017/06/30 14:49:31","新北市板橋區陽明街29巷12號","121.464665","25.0220733333333","6500100","板橋區"
"220011","609-BX","2017/06/30 14:49:19","新北市板橋區中山路二段531巷28號","121.482943333333","25.0222583333333","6500100","板橋區"
"220040","637-BX","2017/06/30 14:49:21","新北市板橋區懷德街201巷1號","121.48068","25.0294033333333","6500100","板橋區"
"220005","686-BX","2017/06/30 14:49:17","新北市板橋區廣和街56號","121.462188333333","24.9940383333333","6500100","板橋區"
"220025","687-BX","2017/06/30 14:49:17","新北市板橋區僑中一街90號","121.447078333333","25.0116733333333","6500100","板橋區"
"220042","689-BX","2017/06/30 14:49:26","新北市板橋區民生路三段309號","121.463721666667","25.0311766666667","6500100","板橋區"
"220002","741-BX","2017/06/30 14:49:20","新北市板橋區國泰街75巷28弄76號","121.46719","25.0042966666667","6500100","板橋區"
"220003","827-TW","2017/06/30 14:49:16","新北市板橋區國慶路149巷29弄15號","121.46032","24.9975333333333","6500100","板橋區"
"220014","829-TW","2017/06/30 14:49:25","新北市板橋區中山路一段216巷6號","121.470948333333","25.01292","6500100","板橋區"
"220051","830-TW","2017/06/30 14:49:17","新北市板橋區仁化街56號","121.47573","25.031705","6500100","板橋區"
"220045","831-TW","2017/06/30 14:49:19","新北市板橋區民生路二段234巷77號","121.47029","25.0226033333333","6500100","板橋區"
"220022","895-R6","2017/06/30 14:49:30","新北市板橋區文化路一段46巷23號","121.460391666667","25.0114033333333","6500100","板橋區"
"220046","AAC-210","2017/06/30 14:49:16","新北市板橋區文化路一段285巷1弄15號","121.464188333333","25.0187","6500100","板橋區"
"220018","AAC-253","2017/06/30 14:49:25","新北市板橋區民族路230號","121.468805","25.0072766666667","6500100","板橋區"
