"lineid","car","time","location","longitude","latitude","cityid","cityname"
"234013","149-BY","2017/06/30 18:19:18","新北市永和區福和路1號","121.526451666667","25.009775","6500400","永和區"
"234007","207-UY","2017/06/30 18:19:23","新北市永和區保生路55-1號","121.504771666667","25.011595","6500400","永和區"
"234042","862-TW","2017/06/30 18:19:26","新北市永和區福和路1號","121.526393333333","25.0098133333333","6500400","永和區"
"234026","9371-KE","2017/06/30 18:19:27","新北市永和區豫溪街40號","121.51553","25.009665","6500400","永和區"
"234011","9373-KE","2017/06/30 18:19:23","新北市永和區環河東路二段20號","121.522491666667","25.0130183333333","6500400","永和區"
"249005","172-UM","2017/06/30 18:19:19","新北市八里區荖阡坑路15-28號","121.400378333333","25.1403533333333","6502300","八里區"
"249001","173-UM","2017/06/30 18:19:29","新北市八里區龍米路一段368號","121.45164","25.1315133333333","6502300","八里區"
"249004","303-UY","2017/06/30 18:19:20","新北市八里區觀海大道35-2號","121.429786666667","25.1607666666667","6502300","八里區"
"249002","305-UY","2017/06/30 18:19:21","新北市八里區龍形二街41號","121.450181666667","25.1328833333333","6502300","八里區"
"249003","593-UM","2017/06/30 18:19:32","新北市八里區松子腳3-2號","121.402956666667","25.1443216666667","6502300","八里區"
"248014","025-BX","2017/06/30 18:19:29","新北市五股區自強路20號","121.434406666667","25.0741316666667","6501500","五股區"
"248006","077-UY","2017/06/30 18:19:34","新北市五股區中興路一段169號","121.46469","25.0737016666667","6501500","五股區"
"248008","095-VK","2017/06/30 18:19:11","新北市五股區更洲路32巷8弄17號","121.459271666667","25.07963","6501500","五股區"
"248018","225-UY","2017/06/30 18:19:15","新北市五股區御史路199號","121.434721666667","25.0986733333333","6501500","五股區"
"248012","247-BX","2017/06/30 18:19:23","新北市五股區御史路1巷101弄4號","121.440813333333","25.091345","6501500","五股區"
"248016","261-SL","2017/06/30 18:19:28","新北市五股區西雲路290號","121.449803333333","25.0989183333333","6501500","五股區"
"248010","272-BY","2017/06/30 18:19:13","新北市五股區成泰路一段189巷2號","121.434638333333","25.0766033333333","6501500","五股區"
"248004","677-BX","2017/06/30 18:19:20","新北市五股區成泰路二段156號","121.438301666667","25.0841083333333","6501500","五股區"
"248002","678-BX","2017/06/30 18:19:30","新北市五股區西雲路66號","121.443606666667","25.09166","6501500","五股區"
"232011","375-UM","2017/06/30 18:18:48","新北市坪林區坪雙路一段43號","121.711735","24.9424566666667","6502000","坪林區"
"244013","069-UM","2017/06/30 18:19:29","新北市林口區中山路150號","121.391153333333","25.0787366666667","6501700","林口區"
"244007","080-UY","2017/06/30 18:19:27","新北市林口區林口路113巷57號","121.387653333333","25.0795216666667","6501700","林口區"
"244019","403-UM","2017/06/30 18:19:16","新北市林口區文化一路一段126號","121.375386666667","25.0724833333333","6501700","林口區"
"244009","410-SL","2017/06/30 18:19:19","新北市林口區文化二路二段126號","121.379991666667","25.0829166666667","6501700","林口區"
"244023","483-VK","2017/06/30 18:19:15","新北市林口區東湖路165號","121.382748333333","25.0739","6501700","林口區"
"244017","485-VK","2017/06/30 18:19:10","新北市林口區八德路48巷1號","121.366783333333","25.066265","6501700","林口區"
"244021","657-BX","2017/06/30 18:19:14","新北市林口區自強二街6號","121.397371666667","25.0784583333333","6501700","林口區"
"244011","701-TV","2017/06/30 18:19:32","新北市林口區中正路74巷3弄2號","121.394573333333","25.0777233333333","6501700","林口區"
"244025","837-TS","2017/06/30 18:19:28","新北市林口區南勢六街55號","121.355776666667","25.071545","6501700","林口區"
"243013","AAD-798","2017/06/30 18:19:25","新北市泰山區南林路93號","121.415505","25.0511666666667","6501600","泰山區"
"222003","436-BY","2017/06/30 18:19:12","新北市深坑區文山路二段7號","121.622855","25.000315","6501800","深坑區"
"222001","628-TS","2017/06/30 18:19:32","新北市深坑區北深路二段66號","121.619016666667","25.004175","6501800","深坑區"
"222002","659-BX","2017/06/30 18:19:11","新北市深坑區雲鄉路3-1號","121.621006666667","25.000195","6501800","深坑區"
"231056","0293-UT","2017/06/30 18:19:10","新北市新店區力行路15號","121.537035","24.966265","6500600","新店區"
"231059","046-UY","2017/06/30 18:19:32","新北市新店區安華路28-1號","121.519685","24.960845","6500600","新店區"
"231060","106-UY","2017/06/30 18:19:30","新北市新店區安華路28-1號","121.519663333333","24.9606216666667","6500600","新店區"
"231051","107-UY","2017/06/30 18:19:22","新北市新店區安華路28-1號","121.519425","24.961125","6500600","新店區"
"231048","108-UY","2017/06/30 16:28:56","新北市新店區安華路28-1號","121.519358333333","24.960955","6500600","新店區"
"231053","187-VK","2017/06/30 18:19:13","新北市新店區安康路一段105號","121.528873333333","24.9615433333333","6500600","新店區"
"231057","256-BX","2017/06/30 18:19:27","新北市新店區安華路30巷1號","121.519335","24.9596233333333","6500600","新店區"
"231063","268-BY","2017/06/30 18:19:13","新北市新店區安華路28-1號","121.51941","24.9605766666667","6500600","新店區"
"231046","278-BY","2017/06/30 18:19:19","新北市新店區直潭七街60號","121.532286666667","24.9398166666667","6500600","新店區"
"231050","AAD-862","2017/06/30 18:19:17","新北市新店區安華路28-1號","121.519885","24.9612233333333","6500600","新店區"
"231058","3712-VJ","2017/06/30 18:19:26","新北市新店區環河路29巷1號","121.537096666667","24.961115","6500600","新店區"
"231055","3713-VJ","2017/06/30 18:19:22","新北市新店區安康路一段70號","121.528468333333","24.96181","6500600","新店區"
"231067","4772-VM","2017/06/30 18:19:26","新北市新店區安華路1-1號","121.519136666667","24.960565","6500600","新店區"
"231065","512-UM","2017/06/30 16:00:14","新北市新店區安華路28-1號","121.519325","24.961255","6500600","新店區"
"231054","513-UM","2017/06/30 18:19:13","新北市新店區安華路28-1號","121.519543333333","24.96127","6500600","新店區"
"231064","515-UM","2017/06/30 18:19:25","新北市新店區安華路28-1號","121.519638333333","24.9605716666667","6500600","新店區"
"231042","616-UM","2017/06/30 18:19:28","新北市新店區安華路3號","121.519418333333","24.9598716666667","6500600","新店區"
"231045","617-UM","2017/06/30 18:19:14","新北市新店區安華路28-1號","121.519333333333","24.9609933333333","6500600","新店區"
"231061","618-UM","2017/06/30 16:26:37","新北市新店區安華路28-1號","121.519408333333","24.9607033333333","6500600","新店區"
"231040","619-UM","2017/06/30 18:19:26","新北市新店區安華路1-1號","121.5196","24.9604833333333","6500600","新店區"
"231049","719-UM","2017/06/30 18:19:18","新北市新店區安華路28-1號","121.519413333333","24.96143","6500600","新店區"
"231062","720-UM","2017/06/30 18:19:14","新北市新店區安華路28-1號","121.519155","24.9611933333333","6500600","新店區"
"231043","899-TW","2017/06/30 15:48:50","新北市新店區安華路28-1號","121.519331666667","24.96079","6500600","新店區"
"241031","156-TC","2017/06/30 18:19:23","新北市三重區重新路四段121號","121.484841666667","25.05201","6500200","三重區"
"235066","003-UY","2017/06/30 18:19:15","新北市中和區中山路二段122號","121.502611666667","25.0036583333333","6500300","中和區"
"235064","005-UY","2017/06/30 18:19:15","新北市中和區圓通路141巷48弄15號","121.49828","24.9938416666667","6500300","中和區"
"235063","006-UY","2017/06/30 18:19:23","新北市中和區中正路637巷60弄61號","121.485488333333","24.9932216666667","6500300","中和區"
"235062","031-BX","2017/06/30 18:19:29","新北市中和區景平路999巷1號","121.495426666667","25.00593","6500300","中和區"
"235056","096-UM","2017/06/30 18:19:20","新北市中和區中山路二段570號","121.483001666667","25.0051366666667","6500300","中和區"
"235039","097-UM","2017/06/30 18:19:20","新北市中和區中正路277-2號","121.495378333333","24.9936066666667","6500300","中和區"
"235040","150-BY","2017/06/30 18:19:21","新北市中和區中正路273號","121.495685","24.9937566666667","6500300","中和區"
"235058","151-BY","2017/06/30 18:19:19","新北市中和區圓通路369巷2號","121.491185","24.9895583333333","6500300","中和區"
"235055","183-VK","2017/06/30 18:19:17","新北市中和區員山路36巷16-3號","121.484981666667","24.9915216666667","6500300","中和區"
"235038","185-VK","2017/06/30 18:19:29","新北市中和區大智街26號","121.521061666667","24.992","6500300","中和區"
"235049","186-VK","2017/06/30 18:19:22","新北市中和區員山路36巷16-2號","121.48529","24.9916666666667","6500300","中和區"
"235072","301-VK","2017/06/30 18:19:16","新北市中和區和城路一段271巷1號","121.485388333333","24.9920516666667","6500300","中和區"
"235043","352-BY","2017/06/30 18:19:11","新北市中和區中正路173號","121.497661666667","24.9936866666667","6500300","中和區"
"235051","376-QA","2017/06/30 18:19:28","新北市中和區復興路261號","121.50287","24.9903716666667","6500300","中和區"
"235068","377-QA","2017/06/30 18:19:21","新北市中和區員山路36巷16-3號","121.485143333333","24.99125","6500300","中和區"
"235061","378-QA","2017/06/30 18:19:24","新北市中和區國光街215巷71-2號","121.467863333333","24.99951","6500300","中和區"
"235050","4979-A6","2017/06/30 18:19:26","新北市中和區捷運路8-7號","121.509401666667","24.9894883333333","6500300","中和區"
"235069","4980-A6","2017/06/30 18:19:21","新北市中和區連城路127巷9號","121.496561666667","24.998745","6500300","中和區"
"235042","551-UM","2017/06/30 18:19:22","新北市中和區大勇街48號","121.517615","24.9938316666667","6500300","中和區"
"235045","565-BX","2017/06/30 18:19:26","新北市中和區景安路217號","121.50437","24.991515","6500300","中和區"
"235054","640-BX","2017/06/30 18:19:21","新北市中和區莒光路203號","121.472606666667","24.998975","6500300","中和區"
"235047","732-UM","2017/06/30 18:19:15","新北市中和區中正路637巷52弄1號","121.485493333333","24.993425","6500300","中和區"
"235071","783-BX","2017/06/30 18:19:16","新北市中和區員山路36巷16-2號","121.485378333333","24.9911266666667","6500300","中和區"
"235057","801-TS","2017/06/30 18:19:22","新北市中和區員山路80號","121.481008333333","24.99403","6500300","中和區"
"235052","805-TS","2017/06/30 18:19:25","新北市中和區中正路19號","121.502828333333","24.9932816666667","6500300","中和區"
"235048","896-TW","2017/06/30 18:19:30","新北市中和區員山路36巷16-2號","121.48525","24.9917066666667","6500300","中和區"
"235040","157-BY","2017/06/30 18:19:14","新北市中和區員山路36巷13號","121.484145","24.9909016666667","6500300","中和區"
"235037","AAC-213","2017/06/30 18:19:15","新北市中和區景平路149號","121.513883333333","24.992125","6500300","中和區"
"247002","402-BY","2017/06/30 16:22:12","新北市五股區中興路三段3-6號","121.449546666667","25.0787783333333","6501400","蘆洲區"
"247006","341-TH","2017/06/30 18:19:13","新北市林口區太平里180號","121.366491666667","25.1343883333333","6501400","蘆洲區"
"247014","057-VK","2017/06/30 18:19:26","新北市八里區商港路10號","121.396895","25.1443916666667","6501400","蘆洲區"
"226004","205-ST","2017/06/30 18:19:25","新北市平溪區薯榔里一坑路51號","121.713531666667","25.0219366666667","6502400","平溪區"
"228002","663-BX","2017/06/30 18:19:11","新北市貢寮區福連里福興街39-3號","121.99453","25.0143783333333","6502600","貢寮區"
"228001","670-TC","2017/06/30 18:19:21","新北市貢寮區真理里新港街26巷55弄2-1號","121.927321666667","25.0528683333333","6502600","貢寮區"
"228003","828-UM","2017/06/30 18:18:27","新北市貢寮區和美里和美街63號","121.922608333333","25.0706066666667","6502600","貢寮區"
"224006","676-BX","2017/06/30 18:19:22","新北市瑞芳區民權街3-2號","121.80808","25.1074116666667","6501200","瑞芳區"
"224002","639-TC","2017/06/30 18:19:19","新北市瑞芳區三爪子坑路91巷1號","121.81162","25.107355","6501200","瑞芳區"
"224009","285-BY","2017/06/30 18:19:27","新北市瑞芳區金光路127號","121.85412","25.1067666666667","6501200","瑞芳區"
"224008","275-VK","2017/06/30 18:19:30","新北市瑞芳區逢甲路87號","121.807488333333","25.1096483333333","6501200","瑞芳區"
"224007","273-VK","2017/06/30 18:19:28","新北市瑞芳區頂埔巷1弄1號","121.766453333333","25.1024366666667","6501200","瑞芳區"
"224005","272-VK","2017/06/30 18:19:31","新北市瑞芳區建基路二段7號","121.807835","25.1326966666667","6501200","瑞芳區"
"224011","201-TW","2017/06/30 12:52:46","新北市瑞芳區大寮路356-1號","121.784683333333","25.1031333333333","6501200","瑞芳區"
"227003","642-TC","2017/06/30 18:19:19","新北市雙溪區共和里中山路2號","121.863875","25.033745","6502500","雙溪區"
"227011","400-TW","2017/06/30 18:19:25","新北市雙溪區牡丹里牡丹73號","121.851723333333","25.05934","6502500","雙溪區"
"253006","032-BX","2017/06/30 18:19:23","新北市石門區老梅路59號","121.545703333333","25.2892733333333","6502200","石門區"
"253005","295-VK","2017/06/30 18:19:33","新北市石門區中央路18號","121.567878333333","25.2924616666667","6502200","石門區"
"208003","665-BX","2017/06/30 18:19:18","新北市金山區中山路16號","121.641615","25.217805","6502700","金山區"
"208001","761-BX","2017/06/30 18:19:31","新北市金山區自強路11號","121.640386666667","25.2165966666667","6502700","金山區"
"251004","009-UM","2017/06/30 18:18:45","新北市淡水區民族路33巷16-19號","121.462348333333","25.1359966666667","6501000","淡水區"
"251001","011-UM","2017/06/30 18:19:19","新北市淡水區自強路110-12號","121.46232","25.131785","6501000","淡水區"
"251002","012-UM","2017/06/30 18:19:18","新北市淡水區中正東路一段79號","121.452853333333","25.1620033333333","6501000","淡水區"
"251013","180-VK","2017/06/30 18:19:15","新北市淡水區行忠路862號","121.478318333333","25.200055","6501000","淡水區"
"251008","181-VK","2017/06/30 18:19:18","新北市淡水區淡金路137號","121.457636666667","25.1645033333333","6501000","淡水區"
"251015","182-VK","2017/06/30 18:19:24","新北市淡水區興福寮88巷1號","121.485505","25.1650266666667","6501000","淡水區"
"251010","413-VK","2017/06/30 18:19:11","新北市淡水區淡海路180巷12-3號","121.420426666667","25.18471","6501000","淡水區"
"251012","441-VK","2017/06/30 18:19:31","新北市淡水區北新路二段77-5號","121.480346666667","25.1855766666667","6501000","淡水區"
"251005","443-VK","2017/06/30 18:19:27","新北市淡水區中正東路35巷9號","121.44644","25.168645","6501000","淡水區"
"251006","561-UM","2017/06/30 18:19:17","新北市淡水區新民街61號","121.438601666667","25.1762766666667","6501000","淡水區"
"251011","650-BX","2017/06/30 18:19:22","新北市淡水區坪頂路51巷2號","121.458218333333","25.16258","6501000","淡水區"
"251003","673-BX","2017/06/30 18:19:30","新北市淡水區北新路186-3號","121.449606666667","25.1787833333333","6501000","淡水區"
"207003","550-UM","2017/06/30 18:19:23","新北市萬里區野柳里港東路23號","121.687318333333","25.2036283333333","6502800","萬里區"
"207004","225-TW","2017/06/30 18:19:18","新北市萬里區中幅里中福路39號","121.677993333333","25.1664083333333","6502800","萬里區"
"252002","178-VK","2017/06/30 18:19:33","新北市三芝區中山路二段41號","121.502945","25.25508","6502100","三芝區"
"252003","249-BX","2017/06/30 18:19:24","新北市三芝區錫板里海尾14-8號","121.477268333333","25.2589133333333","6502100","三芝區"
"252001","702-TV","2017/06/30 18:19:28","新北市三芝區中興街一段50號","121.498225","25.25667","6502100","三芝區"
"208002","170-UY","2017/06/30 18:19:15","新北市金山區清泉里清水路16巷12號","121.633476666667","25.2303666666667","6502700","金山區"
"237004","078-UY","2017/06/30 18:19:30","新北市三峽區五寮84-1號","121.365915","24.8638533333333","6500900","三峽區"
"237007","153-BY","2017/06/30 18:19:12","新北市三峽區中正路三段1號","121.358171666667","24.9055633333333","6500900","三峽區"
"237009","210-TH","2017/06/30 18:19:22","新北市三峽區大勇路36巷6號","121.366586666667","24.93722","6500900","三峽區"
"237013","252-BX","2017/06/30 18:19:28","新北市三峽區永安街9巷64號","121.37595","24.9294933333333","6500900","三峽區"
"237012","275-BY","2017/06/30 18:19:16","新北市三峽區民生街1巷3-1號","121.377106666667","24.9366683333333","6500900","三峽區"
"237008","302-VK","2017/06/30 18:19:21","新北市三峽區白雞68-85號","121.392643333333","24.9086816666667","6500900","三峽區"
"237014","433-BY","2017/06/30 18:19:26","新北市三峽區復興路110巷2弄2號","121.3728","24.93799","6500900","三峽區"
"237006","5529-G3","2017/06/30 18:19:23","新北市三峽區溪東路473巷76號","121.415598333333","24.9293566666667","6500900","三峽區"
"237011","572-TV","2017/06/30 18:19:30","新北市三峽區溪東路420號","121.41501","24.9276566666667","6500900","三峽區"
"237015","649-BX","2017/06/30 18:19:23","新北市三峽區紫微南路5號","121.425658333333","24.9199266666667","6500900","三峽區"
"237010","706-TV","2017/06/30 18:19:19","新北市三峽區中山路276號","121.361303333333","24.9378583333333","6500900","三峽區"
"237005","AKY-6261","2017/06/30 18:19:13","新北市三峽區秀川街59號","121.370506666667","24.9334766666667","6500900","三峽區"
"236072","105-UM","2017/06/30 18:19:25","新北市土城區永豐路202巷14號","121.466373333333","24.98331","6501300","土城區"
"236043","107-UM","2017/06/30 18:19:15","新北市土城區裕生路21巷6弄19號","121.448778333333","24.98693","6501300","土城區"
"236079","166-UM","2017/06/30 18:19:29","新北市土城區永安街115巷24號","121.429023333333","24.963075","6501300","土城區"
"236031","253-BX","2017/06/30 18:19:20","新北市土城區順風路24號","121.440728333333","24.9766783333333","6501300","土城區"
"236027","269-VK","2017/06/30 18:19:21","新北市土城區承天路20號","121.43952","24.963335","6501300","土城區"
"236015","270-VK","2017/06/30 18:19:11","新北市土城區青雲路39巷7號","121.46033","24.987435","6501300","土城區"
"236039","271-VK","2017/06/30 18:19:24","新北市土城區青雲路483巷10弄15號","121.459326666667","24.9732016666667","6501300","土城區"
"236022","401-BY","2017/06/30 18:19:20","新北市土城區金城路二段26號","121.450203333333","24.9779866666667","6501300","土城區"
"236059","912-UM","2017/06/30 18:19:18","新北市土城區中央路四段286-1號","121.41437","24.9562433333333","6501300","土城區"
"236050","913-UM","2017/06/30 18:19:22","新北市土城區明德路一段369號","121.45605","24.9777783333333","6501300","土城區"
"236063","915-UM","2017/06/30 18:19:22","新北市土城區金城路三段202-3號","121.46943","24.9885566666667","6501300","土城區"
"236055","AAC-216","2017/06/30 18:19:18","新北市土城區中華路二段96號","121.438166666667","24.974485","6501300","土城區"
"242021","AAC-296","2017/06/30 18:19:27","新北市新莊區中華路一段63巷42號","121.44996","25.0392216666667","6500500","新莊區"
"242029","986-R7","2017/06/30 18:19:27","新北市新莊區幸福路858號","121.443866666667","25.049075","6500500","新莊區"
"242025","615-BX","2017/06/30 18:19:28","新北市新莊區五權一路12巷9弄17號","121.457868333333","25.0652683333333","6500500","新莊區"
"242027","612-BX","2017/06/30 18:19:23","新北市新莊區幸福路821號","121.445356666667","25.0490516666667","6500500","新莊區"
"242037","566-BX","2017/06/30 18:19:27","新北市新莊區後港一路74號","121.426901666667","25.0265516666667","6500500","新莊區"
"242041","497-BY","2017/06/30 18:19:27","新北市新莊區天祥街71巷13號","121.415683333333","25.02865","6500500","新莊區"
"242046","441-UM","2017/06/30 18:19:32","新北市新莊區福營路405號","121.422288333333","25.027015","6500500","新莊區"
"242050","440-UM","2017/06/30 18:19:33","新北市新莊區民安東路156號","121.431833333333","25.0205516666667","6500500","新莊區"
"242032","415-TV","2017/06/30 18:19:17","新北市新莊區新泰路277巷57弄4號","121.44335","25.03984","6500500","新莊區"
"242002","413-TV","2017/06/30 18:19:15","新北市新莊區碧江街27-11號","121.452468333333","25.0331666666667","6500500","新莊區"
"242060","362-BY","2017/06/30 18:19:21","新北市新莊區新樹路12-1號","121.439745","25.03138","6500500","新莊區"
"242058","353-BY","2017/06/30 18:19:31","新北市新莊區中正路909號","121.411055","25.0213233333333","6500500","新莊區"
"242011","132-UY","2017/06/30 18:19:23","新北市新莊區中港路615巷24號","121.450228333333","25.0532516666667","6500500","新莊區"
"242044","172-VK","2017/06/30 18:19:14","新北市新莊區中山路三段533巷1號","121.413138333333","25.0277466666667","6500500","新莊區"
"242007","173-VK","2017/06/30 18:19:17","新北市新莊區自強街23巷1號","121.454426666667","25.04638","6500500","新莊區"
"242056","176-VK","2017/06/30 18:19:32","新北市新莊區瓊林路47-1號","121.445686666667","25.0281316666667","6500500","新莊區"
"242017","348-TH","2017/06/30 18:19:31","新北市新莊區中港路303號","121.452845","25.0446316666667","6500500","新莊區"
"242054","349-TH","2017/06/30 18:19:14","新北市新莊區西盛街441號","121.426986666667","25.011755","6500500","新莊區"
"238015","755-BX","2017/06/30 18:19:12","新北市樹林區文德街1巷6號","121.419383333333","24.9911083333333","6500700","樹林區"
"238023","601-UM","2017/06/30 18:19:27","新北市樹林區福興街17號","121.40442","25.016215","6500700","樹林區"
"238019","599-UM","2017/06/30 18:19:32","新北市樹林區忠孝街103-1號","121.424591666667","24.9808733333333","6500700","樹林區"
"238018","571-TV","2017/06/30 18:19:18","新北市新莊區新崑路59號","121.430961666667","25.0000883333333","6500700","樹林區"
"238024","5061-A6","2017/06/30 18:19:29","新北市樹林區豐林街64號","121.42212","24.9980216666667","6500700","樹林區"
"238022","312-TH","2017/06/30 18:19:25","新北市樹林區太平路174巷5弄2號","121.417895","24.976705","6500700","樹林區"
"238021","311-TH","2017/06/30 18:19:12","新北市樹林區柑園街二段2-1號","121.38846","24.95595","6500700","樹林區"
"238025","303-VK","2017/06/30 18:19:24","新北市樹林區保安街一段276號","121.41958","24.9969133333333","6500700","樹林區"
"238017","283-BY","2017/06/30 18:19:18","新北市樹林區中正路628號","121.410108333333","25.016025","6500700","樹林區"
"238014","282-BY","2017/06/30 18:19:17","新北市樹林區潭興街91巷14號","121.424283333333","24.9989433333333","6500700","樹林區"
"238020","268-VK","2017/06/30 18:19:22","新北市樹林區俊興街298號","121.418616666667","25.018095","6500700","樹林區"
"238026","172-UY","2017/06/30 18:19:22","新北市樹林區佳園路一段41巷28弄14號","121.394748333333","24.970385","6500700","樹林區"
"238016","169-UY","2017/06/30 18:19:23","新北市樹林區文化街28號","121.419333333333","24.987695","6500700","樹林區"
"239007","AAC-297","2017/06/30 18:19:16","新北市鶯歌區重慶街98號","121.348215","24.952285","6500800","鶯歌區"
"239006","891-R6","2017/06/30 18:19:32","新北市鶯歌區德昌街50號","121.333331666667","24.959935","6500800","鶯歌區"
"239008","527-UM","2017/06/30 18:19:13","新北市鶯歌區國際一路14號","121.336186666667","24.976515","6500800","鶯歌區"
"239005","526-UM","2017/06/30 18:19:31","新北市鶯歌區鶯桃路668巷25號","121.329025","24.9703216666667","6500800","鶯歌區"
"239001","417-VK","2017/06/30 18:19:13","新北市鶯歌區國中街178號","121.338411666667","24.9392933333333","6500800","鶯歌區"
"239003","360-BY","2017/06/30 18:19:12","新北市鶯歌區福安街11巷2號","121.335491666667","24.9652516666667","6500800","鶯歌區"
"239002","359-BY","2017/06/30 18:19:22","新北市鶯歌區國慶街143號","121.350971666667","24.953425","6500800","鶯歌區"
"239004","193-VK","2017/06/30 18:19:27","新北市鶯歌區尖山路168巷2號","121.345023333333","24.9482766666667","6500800","鶯歌區"
"221008","489-VK","2017/06/30 18:19:17","新北市汐止區康寧街901號","121.651411666667","25.0750116666667","6501100","汐止區"
"221036","130-UY","2017/06/30 18:19:26","新北市汐止區長安路85號","121.669425","25.0784616666667","6501100","汐止區"
"221015","131-UY","2017/06/30 18:19:08","新北市汐止區鄉長路二段23巷14號","121.667543333333","25.0829783333333","6501100","汐止區"
"221010","269-BY","2017/06/30 18:19:26","新北市汐止區汐萬路35號","121.644238333333","25.0916383333333","6501100","汐止區"
"221010","276-VK","2017/06/30 13:26:27","新北市汐止區汐萬路一段256巷3號","121.653458333333","25.07458","6501100","汐止區"
"221031","277-VK","2017/06/30 00:08:36","新北市汐止區汐萬路一段256巷3號","121.652495","25.074595","6501100","汐止區"
"221012","278-VK","2017/06/30 18:19:14","新北市汐止區保長路35巷20號","121.67333","25.0800633333333","6501100","汐止區"
"221023","279-VK","2017/06/30 02:11:53","新北市汐止區汐萬路一段256巷1號","121.651751666667","25.0749266666667","6501100","汐止區"
"221032","280-BY","2017/06/30 18:19:20","新北市汐止區福山街62巷10號","121.618263333333","25.04651","6501100","汐止區"
"221027","281-BY","2017/06/30 18:19:28","新北市汐止區和平街9號","121.663161666667","25.070665","6501100","汐止區"
"221038","297-VK","2017/06/30 18:19:29","新北市汐止區新台五路二段91-1號","121.665135","25.0672633333333","6501100","汐止區"
"221029","298-VK","2017/06/30 18:19:16","新北市汐止區樟樹一路141巷29號","121.640758333333","25.0664583333333","6501100","汐止區"
"221021","299-VK","2017/06/30 17:48:20","新北市汐止區汐萬路一段24號","121.655831666667","25.06828","6501100","汐止區"
"221035","622-UM","2017/06/30 18:19:20","新北市汐止區大同路二段105號","121.649721666667","25.06357","6501100","汐止區"
"221025","623-UM","2017/06/30 18:19:17","新北市汐止區勤進路12巷39號","121.659041666667","25.06278","6501100","汐止區"
"221038","646-BX","2017/06/30 15:07:50","新北市汐止區汐萬路一段256巷1號","121.651681666667","25.0748433333333","6501100","汐止區"
"221033","647-BX","2017/06/30 18:19:20","新北市汐止區宜興街40巷1號","121.622013333333","25.0420783333333","6501100","汐止區"
"221002","707-TV","2017/06/30 18:19:26","新北市汐止區福德一路201巷30號","121.635911666667","25.0650183333333","6501100","汐止區"
"221018","753-BX","2017/06/30 18:19:17","新北市汐止區茄苳路72巷9號","121.666708333333","25.0700883333333","6501100","汐止區"
