"lineid","car","time","location","longitude","latitude","cityid","cityname"
"234050","863-TW","2017/06/30 21:17:24","新北市八里區荖阡坑路34號","121.401546666667","25.1296266666667","6500400","永和區"
"244019","403-UM","2017/06/30 20:54:02","新北市林口區粉寮路二段160巷28號","121.405113333333","25.09076","6501700","林口區"
"231059","046-UY","2017/06/30 21:19:32","新北市新店區薏仁坑路自強巷1號","121.497043333333","24.9578033333333","6500600","新店區"
"231051","107-UY","2017/06/30 21:19:22","新北市新店區中正路700巷79號","121.535903333333","24.9934033333333","6500600","新店區"
"231048","108-UY","2017/06/30 21:19:28","新北市新店區安興路51號","121.516516666667","24.97186","6500600","新店區"
"231063","268-BY","2017/06/30 21:19:13","新北市新店區玫瑰路57巷48號","121.497478333333","24.9464","6500600","新店區"
"231050","AAD-862","2017/06/30 21:19:17","新北市新店區華興街15號","121.537785","24.9695166666667","6500600","新店區"
"231067","4772-VM","2017/06/30 21:19:25","新北市新店區安康路二段318-1號","121.504945","24.958065","6500600","新店區"
"231061","618-UM","2017/06/30 21:19:02","新北市新店區安康路二段320巷15弄18號","121.502351666667","24.9590533333333","6500600","新店區"
"231040","619-UM","2017/06/30 21:19:26","新北市新店區光明街231號","121.54031","24.9645316666667","6500600","新店區"
"241011","013-R5","2017/06/30 21:19:25","新北市三重區龍濱路126號","121.501791666667","25.07153","6500200","三重區"
"241028","022-UY","2017/06/30 21:19:13","新北市三重區正義南路169號","121.498963333333","25.0575233333333","6500200","三重區"
"241008","059-VK","2017/06/30 21:19:22","新北市三重區自強路一段64號","121.497248333333","25.0666383333333","6500200","三重區"
"241009","060-VK","2017/06/30 21:19:23","新北市三重區忠孝路三段1號","121.481838333333","25.0676466666667","6500200","三重區"
"241017","063-VK","2017/06/30 21:19:21","新北市三重區中正北路25巷2號","121.493246666667","25.0626816666667","6500200","三重區"
"241024","065-VK","2017/06/30 21:19:16","新北市三重區中正北路145巷8弄2號","121.484065","25.06778","6500200","三重區"
"241026","066-VK","2017/06/30 21:19:29","新北市三重區大同南路220號","121.496793333333","25.056225","6500200","三重區"
"241002","090-VK","2017/06/30 21:19:20","新北市三重區五華街19號","121.494865","25.0803916666667","6500200","三重區"
"241003","091-VK","2017/06/30 21:19:32","新北市三重區五華街71巷118號","121.49517","25.0844866666667","6500200","三重區"
"241031","156-TC","2017/06/30 21:19:23","新北市三重區五谷王南街46巷37號","121.475755","25.0455","6500200","三重區"
"241005","262-UM","2017/06/30 21:19:09","新北市三重區三信路186號","121.487985","25.0860466666667","6500200","三重區"
"241016","266-UM","2017/06/30 21:19:16","新北市三重區自強路一段95號","121.495908333333","25.06632","6500200","三重區"
"241022","267-UM","2017/06/30 21:19:15","新北市三重區新北大道一段7號","121.4899","25.0614366666667","6500200","三重區"
"241018","268-UM","2017/06/30 21:19:10","新北市三重區忠孝路一段169號","121.487733333333","25.0716433333333","6500200","三重區"
"241032","269-UM","2017/06/30 21:19:24","新北市三重區中興北街177號","121.469085","25.0559416666667","6500200","三重區"
"241013","270-UM","2017/06/30 21:19:20","新北市三重區仁愛街81號","121.495935","25.0730966666667","6500200","三重區"
"241007","398-BY","2017/06/30 21:19:25","新北市三重區自強路三段72號","121.486773333333","25.07352","6500200","三重區"
"241023","412-TH","2017/06/30 21:19:26","新北市三重區中正北路176巷27號","121.482656666667","25.0659566666667","6500200","三重區"
"241004","475-VK","2017/06/30 21:19:18","新北市三重區分子尾街85號","121.488846666667","25.0825666666667","6500200","三重區"
"241019","478-VK","2017/06/30 21:19:17","新北市三重區重陽路三段7號","121.489175","25.0663166666667","6500200","三重區"
"241030","480-VK","2017/06/30 21:19:18","新北市三重區中興南街80巷3號","121.471328333333","25.04351","6500200","三重區"
"241014","543-UM","2017/06/30 21:19:18","新北市三重區介壽路39巷13-1號","121.49927","25.069925","6500200","三重區"
"241001","547-UM","2017/06/30 21:19:31","新北市三重區仁愛街457號","121.489846666667","25.0817766666667","6500200","三重區"
"241006","AAD-863","2017/06/30 21:19:12","新北市三重區重陽路二段67號","121.487823333333","25.06378","6500200","三重區"
"241012","941-UM","2017/06/30 21:19:14","新北市三重區龍門路282號","121.501933333333","25.0741066666667","6500200","三重區"
"241033","AAC-255","2017/06/30 21:19:17","新北市三重區中興北街227號","121.46909","25.0586016666667","6500200","三重區"
"235044","293-VK","2017/06/30 21:19:22","新北市中和區員山路36巷16-3號","121.48503","24.9914216666667","6500300","中和區"
"247020","893-R6","2017/06/30 21:19:19","新北市蘆洲區民族路422巷82弄14號","121.473985","25.0939366666667","6501400","蘆洲區"
"247018","500-BY","2017/06/30 21:19:14","新北市蘆洲區復興路105巷11號","121.476395","25.0883983333333","6501400","蘆洲區"
"247002","402-BY","2017/06/30 20:22:06","新北市五股區中興路三段3-6號","121.449558333333","25.0786866666667","6501400","蘆洲區"
"247008","339-TH","2017/06/30 21:19:25","新北市蘆洲區民生街45號","121.47506","25.0788533333333","6501400","蘆洲區"
"247024","337-TH","2017/06/30 21:19:13","新北市蘆洲區光明路110號","121.463595","25.08811","6501400","蘆洲區"
"247002","336-TH","2017/06/30 21:19:25","新北市蘆洲區永樂街38巷37號","121.458231666667","25.0894583333333","6501400","蘆洲區"
"247014","057-VK","2017/06/30 21:19:24","新北市蘆洲區保和街31號","121.470536666667","25.0864066666667","6501400","蘆洲區"
"247004","056-VK","2017/06/30 21:19:26","新北市蘆洲區永安南路二段320號","121.457028333333","25.0826083333333","6501400","蘆洲區"
"247006","053-VK","2017/06/30 21:19:25","新北市蘆洲區長安街63號","121.462845","25.079855","6501400","蘆洲區"
"247012","007-UY","2017/06/30 21:19:29","新北市蘆洲區中興街113號","121.482236666667","25.088885","6501400","蘆洲區"
"247022","002-UY","2017/06/30 21:19:20","新北市蘆洲區三民路204號","121.469116666667","25.0890133333333","6501400","蘆洲區"
"247016","001-UY","2017/06/30 21:19:16","新北市蘆洲區中正路185巷31弄2號","121.466376666667","25.084205","6501400","蘆洲區"
"224011","201-TW","2017/06/30 12:52:46","新北市瑞芳區大寮路356-1號","121.784683333333","25.1031333333333","6501200","瑞芳區"
"251004","009-UM","2017/06/30 21:19:16","新北市淡水區民族路33號","121.462275","25.1358433333333","6501000","淡水區"
"251001","011-UM","2017/06/30 21:19:18","新北市淡水區中山北路二段375號","121.44386","25.1875116666667","6501000","淡水區"
"251002","012-UM","2017/06/30 21:19:22","新北市淡水區學府路172巷21號","121.448265","25.175055","6501000","淡水區"
"251013","180-VK","2017/06/30 21:19:14","新北市淡水區行忠路328號","121.460506666667","25.19963","6501000","淡水區"
"251008","181-VK","2017/06/30 21:19:17","新北市淡水區水源街二段242號","121.461421666667","25.1762233333333","6501000","淡水區"
"251015","182-VK","2017/06/30 21:19:24","新北市淡水區淡金路四段542巷42弄3號","121.454105","25.22694","6501000","淡水區"
"251010","413-VK","2017/06/30 21:19:31","新北市淡水區中正路一段156巷12號","121.421863333333","25.180845","6501000","淡水區"
"251012","441-VK","2017/06/30 21:19:25","新北市淡水區石頭埔8號","121.452641666667","25.234505","6501000","淡水區"
"251005","443-VK","2017/06/30 21:19:27","新北市淡水區仁愛街18巷2號","121.446808333333","25.1704016666667","6501000","淡水區"
"251009","575-R6","2017/06/30 21:19:24","新北市淡水區民族路98號","121.462653333333","25.1354333333333","6501000","淡水區"
"251011","650-BX","2017/06/30 21:19:21","新北市淡水區新民街120巷29號","121.438903333333","25.1787966666667","6501000","淡水區"
"251003","673-BX","2017/06/30 21:19:30","新北市淡水區崁頂15-5號","121.438971666667","25.18588","6501000","淡水區"
"221010","276-VK","2017/06/30 13:26:27","新北市汐止區汐萬路一段256巷3號","121.653458333333","25.07458","6501100","汐止區"
"221038","646-BX","2017/06/30 15:07:50","新北市汐止區汐萬路一段256巷1號","121.651681666667","25.0748433333333","6501100","汐止區"
"221018","753-BX","2017/06/30 21:17:34","新北市汐止區汐萬路一段256巷1號","121.651968333333","25.0747766666667","6501100","汐止區"
"220069","258-TC","2017/06/30 21:19:20","新北市土城區城林路6巷80號","121.438081666667","24.9795016666667","6500100","板橋區"
"220103","561-BX","2017/06/30 21:18:39","新北市樹林區中山路三段214號","121.380065","24.96783","6500100","板橋區"
"220070","AAC-253","2017/06/30 21:19:30","新北市板橋區民生路二段56-1號","121.47218","25.0170316666667","6500100","板橋區"
