"lineid","car","time","location","longitude","latitude","cityid","cityname"
"244019","403-UM","2017/06/30 20:54:02","新北市林口區粉寮路二段160巷28號","121.405113333333","25.09076","6501700","林口區"
"241032","269-UM","2017/06/30 21:49:24","新北市樹林區中山路三段210-2號","121.38148","24.9655166666667","6500200","三重區"
"235044","293-VK","2017/06/30 21:49:22","新北市中和區員山路36巷16-3號","121.485016666667","24.9913666666667","6500300","中和區"
"247002","402-BY","2017/06/30 20:22:06","新北市五股區中興路三段3-6號","121.449558333333","25.0786866666667","6501400","蘆洲區"
"247001","336-TH","2017/06/30 21:49:15","新北市八里區下罟子30-35號","121.367833333333","25.1351366666667","6501400","蘆洲區"
"247014","057-VK","2017/06/30 21:49:24","新北市八里區中山路三段390號","121.368195","25.13541","6501400","蘆洲區"
"247006","053-VK","2017/06/30 21:48:25","新北市林口區汕頭32號","121.366675","25.1350266666667","6501400","蘆洲區"
"224011","201-TW","2017/06/30 12:52:46","新北市瑞芳區大寮路356-1號","121.784683333333","25.1031333333333","6501200","瑞芳區"
"251004","009-UM","2017/06/30 21:49:16","新北市淡水區自強路201巷49號","121.46207","25.1270266666667","6501000","淡水區"
"251001","011-UM","2017/06/30 21:49:18","新北市淡水區後洲路一段50號","121.42861","25.200395","6501000","淡水區"
"251002","012-UM","2017/06/30 21:49:22","新北市淡水區大忠街159號","121.448251666667","25.1763516666667","6501000","淡水區"
"251008","181-VK","2017/06/30 21:49:17","新北市淡水區學府路104號","121.449848333333","25.17177","6501000","淡水區"
"251015","182-VK","2017/06/30 21:49:24","新北市淡水區水碓街7號","121.443193333333","25.177095","6501000","淡水區"
"251010","413-VK","2017/06/30 21:49:11","新北市淡水區濱海路三段148巷50弄76號","121.430686666667","25.19034","6501000","淡水區"
"251012","441-VK","2017/06/30 21:49:26","新北市淡水區淡金路三段256號","121.44895","25.2064316666667","6501000","淡水區"
"251005","443-VK","2017/06/30 21:49:26","新北市淡水區鄧公路30巷18號","121.453206666667","25.16973","6501000","淡水區"
"251006","561-UM","2017/06/30 21:49:12","新北市淡水區中正路11巷28-7號","121.438046666667","25.1707283333333","6501000","淡水區"
"251009","575-R6","2017/06/30 21:49:18","新北市淡水區民族路35巷5號","121.464728333333","25.137395","6501000","淡水區"
"251007","577-R6","2017/06/30 21:49:24","新北市淡水區水源街二段177巷61號","121.452385","25.1770083333333","6501000","淡水區"
"251011","650-BX","2017/06/30 21:49:21","新北市淡水區新民街322巷1弄2號","121.435998333333","25.1834333333333","6501000","淡水區"
"251003","673-BX","2017/06/30 21:49:30","新北市淡水區新春街103-3號","121.440131666667","25.182","6501000","淡水區"
"221010","276-VK","2017/06/30 13:26:27","新北市汐止區汐萬路一段256巷3號","121.653458333333","25.07458","6501100","汐止區"
"221038","646-BX","2017/06/30 15:07:50","新北市汐止區汐萬路一段256巷1號","121.651681666667","25.0748433333333","6501100","汐止區"
"221018","753-BX","2017/06/30 21:17:34","新北市汐止區汐萬路一段256巷1號","121.651968333333","25.0747766666667","6501100","汐止區"
