"lineid","car","time","location","longitude","latitude","cityid","cityname"
"248005","653-BX","2017/12/14 08:09:40","新北市五股區明德路10號","121.4334","25.0717516666667","6501500","五股區"
"232001","290-BY","2017/12/14 08:06:56","新北市坪林區坪雙路一段88號","121.720691666667","24.9450933333333","6502000","坪林區"
"232014","291-BY","2017/12/14 08:09:37","新北市坪林區金瓜寮3-2號","121.68135","24.9187083333333","6502000","坪林區"
"232018","705-BZ","2017/12/14 07:58:30","新北市坪林區坪雙路一段25號","121.711585","24.942395","6502000","坪林區"
"244012","069-UM","2017/12/14 08:09:57","新北市林口區粉寮路31-2號","121.403776666667","25.0873133333333","6501700","林口區"
"244006","080-UY","2017/12/14 08:09:40","新北市林口區中湖43-5號","121.38183","25.0922833333333","6501700","林口區"
"244003","248-BX","2017/12/14 08:09:40","新北市林口區嘉寶里11鄰26號","121.338023333333","25.1087366666667","6501700","林口區"
"244022","483-VK","2017/12/14 08:09:53","新北市林口區仁愛路一段667巷43號","121.387083333333","25.0762866666667","6501700","林口區"
"244017","485-VK","2017/12/14 08:09:50","新北市林口區文化一路二段2號","121.380048333333","25.0767333333333","6501700","林口區"
"244008","657-BX","2017/12/14 08:09:45","新北市林口區竹林路326巷50號","121.393416666667","25.0806883333333","6501700","林口區"
"244020","838-TS","2017/12/14 08:09:52","新北市林口區粉寮路二段286號","121.405036666667","25.0951266666667","6501700","林口區"
"222006","289-BY","2017/12/14 08:09:46","新北市深坑區北深路二段118號","121.616618333333","25.003145","6501800","深坑區"
"231069","189-VK","2017/12/14 08:09:45","新北市新店區華潭街24號","121.529135","24.9529566666667","6500600","新店區"
"231008","192-VK","2017/12/14 08:09:44","新北市新店區光明街221號","121.540096666667","24.9642033333333","6500600","新店區"
"235044","293-VK","2017/12/14 08:09:54","新北市中和區安和路39號","121.50978","24.9946233333333","6500300","中和區"
"226005","5620-A6","2017/12/14 08:09:40","新北市平溪區嶺腳里嶺腳寮74-1號","121.747656666667","25.0325483333333","6502400","平溪區"
"226002","7418-A5","2017/12/14 08:09:41","新北市平溪區望古里灰3-1號","121.756945","25.02965","6502400","平溪區"
"226003","AGD-0702","2017/12/14 08:09:44","新北市平溪區嶺腳里嶺腳寮74-1號","121.74766","25.0325066666667","6502400","平溪區"
"223006","022-BY","2017/12/14 08:09:52","新北市深坑區昇高坑路51-1號","121.630461666667","24.9939666666667","6501900","石碇區"
"223002","198-BX","2017/12/14 08:09:55","新北市石碇區碇格路二段16-1號","121.639921666667","24.95537","6501900","石碇區"
"223008","406-TH","2017/12/14 08:09:41","新北市石碇區番子坑109號","121.675028333333","25.0112","6501900","石碇區"
"223001","437-BY","2017/12/14 08:09:46","新北市石碇區北宜路六段塗潭巷2號","121.644325","24.9372866666667","6501900","石碇區"
"223004","660-BX","2017/12/14 08:09:47","新北市石碇區外按16-1號","121.650788333333","24.9974983333333","6501900","石碇區"
"223007","661-BX","2017/12/14 08:09:42","新北市石碇區番子坑109號","121.674583333333","25.010735","6501900","石碇區"
"223005","677-TV","2017/12/14 08:09:45","新北市石碇區外按16-1號","121.650798333333","24.997495","6501900","石碇區"
"251015","182-VK","2017/12/14 08:09:44","新北市淡水區沙崙路341號","121.427885","25.1879116666667","6501000","淡水區"
"252004","249-BX","2017/12/14 08:09:51","新北市三芝區興華里車埕15-3號","121.502026666667","25.196725","6502100","三芝區"
"252007","AAC-283","2017/12/14 08:09:45","新北市三芝區後厝里大片頭81-1號","121.458973333333","25.244625","6502100","三芝區"
"237001","159-UY","2017/12/14 08:09:46","新北市三峽區大學路122號","121.374433333333","24.9441133333333","6500900","三峽區"
"236009","165-UM","2017/12/14 08:09:54","新北市土城區清水路173號","121.45934","24.9815333333333","6501300","土城區"
"236003","339-SR","2017/12/14 08:09:55","新北市土城區龍泉路80-1號","121.434633333333","24.9426716666667","6501300","土城區"
"236005","498-BY","2017/12/14 08:09:53","新北市土城區永平街51號","121.427596666667","24.9591933333333","6501300","土城區"
"242030","AAC-296","2017/12/14 08:09:48","新北市新莊區新泰路321巷1弄2號","121.44472","25.041325","6500500","新莊區"
"242028","986-R7","2017/12/14 08:09:51","新北市新莊區復興路二段93號","121.455738333333","25.0442866666667","6500500","新莊區"
"242049","751-BX","2017/12/14 08:09:46","新北市新莊區西盛街311巷14號","121.428758333333","25.015145","6500500","新莊區"
"242024","615-BX","2017/12/14 08:09:36","新北市新莊區思源路226號","121.460123333333","25.0483133333333","6500500","新莊區"
"242022","613-BX","2017/12/14 08:09:52","新北市新莊區民樂街59號","121.457931666667","25.04167","6500500","新莊區"
"242026","612-BX","2017/12/14 08:09:48","新北市新莊區福壽街114號","121.458033333333","25.0506933333333","6500500","新莊區"
"242038","566-BX","2017/12/14 08:09:53","新北市新莊區民全街17號","121.42898","25.0216916666667","6500500","新莊區"
"242043","497-BY","2017/12/14 08:09:46","新北市新莊區中正路871巷9弄42號","121.419813333333","25.02668","6500500","新莊區"
"242047","441-UM","2017/12/14 08:09:39","新北市新莊區萬安街103號","121.42092","25.0230616666667","6500500","新莊區"
"242052","440-UM","2017/12/14 08:09:42","新北市新莊區樹新路120巷49弄1號","121.43028","24.99574","6500500","新莊區"
"242033","415-TV","2017/12/14 08:09:40","新北市新莊區新莊路546號","121.445133333333","25.0329533333333","6500500","新莊區"
"242003","413-TV","2017/12/14 08:09:41","新北市新莊區自立街198號","121.456655","25.0455933333333","6500500","新莊區"
"242040","400-BY","2017/12/14 08:09:50","新北市新莊區中正路656號","121.421171666667","25.028535","6500500","新莊區"
"242059","362-BY","2017/12/14 08:09:47","新北市新莊區瓊林南路118-43號","121.43428","25.0098283333333","6500500","新莊區"
"242057","353-BY","2017/12/14 08:09:57","新北市新莊區中正路698號","121.418796666667","25.0278133333333","6500500","新莊區"
"242006","132-UY","2017/12/14 08:09:40","新北市新莊區福樂街108巷22號","121.457815","25.0482716666667","6500500","新莊區"
"242035","133-UY","2017/12/14 08:09:51","新北市新莊區建福路59巷37號","121.428278333333","25.0277533333333","6500500","新莊區"
"242020","135-UY","2017/12/14 08:09:48","新北市新莊區中華路一段234號","121.452728333333","25.0433233333333","6500500","新莊區"
"242045","172-VK","2017/12/14 08:09:56","新北市新莊區福營路101號","121.43412","25.032245","6500500","新莊區"
"242008","173-VK","2017/12/14 08:09:41","新北市新莊區福壽街169巷5號","121.457178333333","25.0536716666667","6500500","新莊區"
"242014","175-VK","2017/12/14 08:09:46","新北市新莊區新泰路480號","121.442746666667","25.04555","6500500","新莊區"
"242001","176-VK","2017/12/14 08:09:54","新北市新莊區新莊路216號","121.453056666667","25.0344066666667","6500500","新莊區"
"242001","233-RS","2017/12/14 08:09:37","新北市新莊區新泰路32號","121.4496","25.03401","6500500","新莊區"
"242012","346-TH","2017/12/14 08:09:52","新北市新莊區中誠街144號","121.448685","25.047605","6500500","新莊區"
"242018","348-TH","2017/12/14 08:09:39","新北市新莊區中港路201號","121.454921666667","25.0418433333333","6500500","新莊區"
"242055","349-TH","2017/12/14 08:09:56","新北市新莊區新泰路3巷33號","121.448991666667","25.0319833333333","6500500","新莊區"
"242016","350-TH","2017/12/14 08:09:50","新北市新莊區永安街176號","121.448696666667","25.0444016666667","6500500","新莊區"
"242010","351-TH","2017/12/14 08:09:40","新北市新莊區中港路664號","121.450775","25.0560983333333","6500500","新莊區"
