"lineid","car","time","location","longitude","latitude","cityid","cityname"
"248005","653-BX","2017/12/14 09:19:40","新北市五股區水碓三路43號","121.430301666667","25.071475","6501500","五股區"
"244012","069-UM","2017/12/14 09:19:56","新北市林口區文化一路一段120號","121.374543333333","25.0716083333333","6501700","林口區"
"244006","080-UY","2017/12/14 09:19:40","新北市林口區後湖19-1號","121.387858333333","25.0986233333333","6501700","林口區"
"244003","248-BX","2017/12/14 09:19:40","新北市林口區中華路283號","121.383621666667","25.0909433333333","6501700","林口區"
"244018","403-UM","2017/12/14 09:19:42","新北市林口區文化一路一段89-5號","121.371951666667","25.0702216666667","6501700","林口區"
"244022","483-VK","2017/12/14 09:19:53","新北市林口區四維路245巷49號","121.38267","25.0754216666667","6501700","林口區"
"244017","485-VK","2017/12/14 09:19:50","新北市林口區忠孝路376巷43號","121.368423333333","25.0706633333333","6501700","林口區"
"244010","656-BX","2017/12/14 09:19:51","新北市林口區仁愛路一段384號","121.387686666667","25.07684","6501700","林口區"
"244008","657-BX","2017/12/14 09:19:45","新北市林口區林口路152號","121.387958333333","25.0822033333333","6501700","林口區"
"244024","837-TS","2017/12/14 09:19:33","新北市林口區粉寮路60-16號","121.40438","25.0898266666667","6501700","林口區"
"222006","289-BY","2017/12/14 09:19:49","新北市深坑區北深路一段278巷22號","121.62869","25.0121216666667","6501800","深坑區"
"231069","189-VK","2017/12/14 09:19:45","新北市新店區新潭路三段215巷25號","121.508125","24.9040783333333","6500600","新店區"
"231008","192-VK","2017/12/14 09:19:44","新北市新店區廣興路96號","121.537793333333","24.9129416666667","6500600","新店區"
"226005","5620-A6","2017/12/14 09:19:40","新北市平溪區嶺腳里田子1-3號","121.750425","25.02496","6502400","平溪區"
"226002","7418-A5","2017/12/14 09:19:41","新北市平溪區嶺腳里田子1-3號","121.7497","25.024055","6502400","平溪區"
"223008","406-TH","2017/12/14 09:19:41","新北市石碇區玉桂嶺3號","121.701603333333","25.0111466666667","6501900","石碇區"
"223001","437-BY","2017/12/14 09:19:53","新北市石碇區北宜路四段2號","121.61081","24.9574316666667","6501900","石碇區"
"223004","660-BX","2017/12/14 09:19:47","新北市石碇區磨石坑14號","121.687205","24.9720666666667","6501900","石碇區"
"223007","661-BX","2017/12/14 09:19:44","新北市石碇區玉桂嶺3號","121.70169","25.0108566666667","6501900","石碇區"
"223005","677-TV","2017/12/14 09:19:45","新北市石碇區大崙15號","121.687823333333","24.9795616666667","6501900","石碇區"
"251015","182-VK","2017/12/14 09:19:44","新北市淡水區小坑子頭1號","121.480408333333","25.2145433333333","6501000","淡水區"
"252004","249-BX","2017/12/14 09:19:51","新北市三芝區興華里田心子7-1號","121.499416666667","25.204845","6502100","三芝區"
"252007","AAC-283","2017/12/14 09:19:45","新北市三芝區埔坪里埔頭坑41號","121.504638333333","25.2634233333333","6502100","三芝區"
"236009","165-UM","2017/12/14 09:19:54","新北市土城區金城路二段46巷1-24號","121.45368","24.9755516666667","6501300","土城區"
"236003","339-SR","2017/12/14 09:19:55","新北市土城區中正路6號","121.442365","24.9750116666667","6501300","土城區"
"236005","498-BY","2017/12/14 09:19:53","新北市土城區中央路三段116巷3號","121.434775","24.96651","6501300","土城區"
"242030","AAC-296","2017/12/14 09:19:51","新北市新莊區公園一路46號","121.44346","25.0357466666667","6500500","新莊區"
"242028","986-R7","2017/12/14 09:19:40","新北市新莊區昌平街19號","121.454345","25.0514283333333","6500500","新莊區"
"242024","615-BX","2017/12/14 09:19:56","新北市新莊區化成路579巷1號","121.46443","25.0660866666667","6500500","新莊區"
"242022","613-BX","2017/12/14 09:19:44","新北市新莊區化成路197號","121.465905","25.05064","6500500","新莊區"
"242026","612-BX","2017/12/14 09:19:48","新北市新莊區中正路206號","121.449345","25.0354633333333","6500500","新莊區"
"242038","566-BX","2017/12/14 09:19:39","新北市新莊區民安路236號","121.42632","25.0220416666667","6500500","新莊區"
"242043","497-BY","2017/12/14 09:19:46","新北市新莊區中正路新建巷28弄20號","121.41353","25.02148","6500500","新莊區"
"242047","441-UM","2017/12/14 09:19:39","新北市新莊區中正路871巷1號","121.418051666667","25.0270116666667","6500500","新莊區"
"242052","440-UM","2017/12/14 09:19:42","新北市新莊區西盛街343號","121.42804","25.0141566666667","6500500","新莊區"
"242033","415-TV","2017/12/14 09:19:43","新北市新莊區新泰路201號","121.447173333333","25.0381116666667","6500500","新莊區"
"242003","413-TV","2017/12/14 09:19:57","新北市新莊區頭興街7巷1號","121.46276","25.053565","6500500","新莊區"
"242040","400-BY","2017/12/14 09:19:46","新北市新莊區天祥街47巷2弄2號","121.416568333333","25.0287183333333","6500500","新莊區"
"242059","362-BY","2017/12/14 09:19:46","新北市新莊區瓊林路瓊英巷2弄1號","121.443725","25.0273833333333","6500500","新莊區"
"242057","353-BY","2017/12/14 09:19:37","新北市新莊區八德街151號","121.423516666667","25.0196833333333","6500500","新莊區"
"242006","132-UY","2017/12/14 09:19:40","新北市新莊區碧江街27號","121.45375","25.0337683333333","6500500","新莊區"
"242035","133-UY","2017/12/14 09:19:40","新北市新莊區後港一路56巷24弄10號","121.426225","25.025215","6500500","新莊區"
"242020","135-UY","2017/12/14 09:19:42","新北市新莊區中華路一段84號","121.45219","25.039375","6500500","新莊區"
"242045","172-VK","2017/12/14 09:19:36","新北市新莊區裕民街132號","121.417935","25.022205","6500500","新莊區"
"242008","173-VK","2017/12/14 09:19:40","新北市新莊區環河路502號","121.439111666667","25.0169683333333","6500500","新莊區"
"242014","175-VK","2017/12/14 09:19:46","新北市新莊區中和街1號","121.448383333333","25.0428933333333","6500500","新莊區"
"242001","176-VK","2017/12/14 09:19:52","新北市新莊區中正路46號","121.464255","25.0414316666667","6500500","新莊區"
"242001","233-RS","2017/12/14 09:13:51","新北市新莊區環河路48-7號","121.436916666667","25.009785","6500500","新莊區"
"242018","348-TH","2017/12/14 09:19:39","新北市新莊區銘德街49巷2弄2號","121.457215","25.0435133333333","6500500","新莊區"
"242055","349-TH","2017/12/14 09:19:35","新北市新莊區豐年街28巷12號","121.445703333333","25.0323916666667","6500500","新莊區"
"242010","351-TH","2017/12/14 09:19:40","新北市新莊區中榮街122巷18號","121.446616666667","25.0534983333333","6500500","新莊區"
