"lineid","car","time","location","longitude","latitude","cityid","cityname"
"244018","403-UM","2017/12/14 11:03:08","新北市林口區粉寮路二段160巷28號","121.405201666667","25.090805","6501700","林口區"
"244025","837-TS","2017/12/14 10:49:02","新北市林口區粉寮路二段160巷28號","121.405163333333","25.0907283333333","6501700","林口區"
"231008","192-VK","2017/12/14 11:49:44","新北市新店區屈尺路75號","121.54577","24.9226683333333","6500600","新店區"
"235031","255-BX","2017/12/14 11:49:39","新北市中和區員山路36巷13號","121.484205","24.99084","6500300","中和區"
"228004","212-TW","2017/12/14 11:49:48","新北市貢寮區貢寮里朝陽街1-2號","121.912215","25.0212933333333","6502600","貢寮區"
"242001","233-RS","2017/12/14 09:13:51","新北市新莊區環河路48-7號","121.436916666667","25.009785","6500500","新莊區"
"221015","567-BX","2017/12/14 11:49:57","新北市汐止區康寧街901號","121.651053333333","25.0751783333333","6501100","汐止區"
