"lineid","car","time","location","longitude","latitude","cityid","cityname"
"244018","403-UM","2017/12/14 11:03:08","新北市林口區粉寮路二段160巷28號","121.405201666667","25.090805","6501700","林口區"
"244025","837-TS","2017/12/14 10:49:02","新北市林口區粉寮路二段160巷28號","121.405163333333","25.0907283333333","6501700","林口區"
"243007","380-SR","2017/12/14 11:57:46","新北市泰山區犁頭窠3-1號","121.422311666667","25.0605416666667","6501600","泰山區"
"231008","192-VK","2017/12/14 11:59:44","新北市新店區屈尺路161-1號","121.542451666667","24.9231716666667","6500600","新店區"
"235031","255-BX","2017/12/14 11:59:48","新北市中和區和城路一段271巷1號","121.485385","24.9917816666667","6500300","中和區"
"228005","097-TW","2017/12/14 11:59:55","新北市貢寮區貢寮里朝陽街2號","121.912503333333","25.021405","6502600","貢寮區"
"228004","212-TW","2017/12/14 11:59:48","新北市貢寮區貢寮里朝陽街1-2號","121.912203333333","25.021315","6502600","貢寮區"
"242001","233-RS","2017/12/14 09:13:51","新北市新莊區環河路48-7號","121.436916666667","25.009785","6500500","新莊區"
"221012","276-VK","2017/12/14 11:59:41","新北市汐止區康寧街901號","121.651476666667","25.0749933333333","6501100","汐止區"
"221015","567-BX","2017/12/14 11:59:37","新北市汐止區康寧街901號","121.65105","25.0751766666667","6501100","汐止區"
