"lineid","car","time","location","longitude","latitude","cityid","cityname"
"248010","272-BY","2017/12/14 15:55:58","新北市五股區中興路二段37巷28號","121.460108333333","25.075035","6501500","五股區"
"244018","403-UM","2017/12/14 11:03:08","新北市林口區粉寮路二段160巷28號","121.405201666667","25.090805","6501700","林口區"
"244025","837-TS","2017/12/14 10:49:02","新北市林口區粉寮路二段160巷28號","121.405163333333","25.0907283333333","6501700","林口區"
"243009","KEA-2216","2017/12/14 15:51:27","新北市泰山區黎明路25號","121.42195","25.0608516666667","6501600","泰山區"
"231030","047-UY","2017/12/14 15:59:42","新北市新店區永平街14號","121.516998333333","24.9836316666667","6500600","新店區"
"231018","107-UY","2017/12/14 15:59:47","新北市新店區中正路663巷7弄15號","121.532938333333","24.9900716666667","6500600","新店區"
"231011","108-UY","2017/12/14 15:59:42","新北市新店區中央路117號","121.530738333333","24.974355","6500600","新店區"
"231021","187-VK","2017/12/14 15:59:52","新北市新店區新烏路一段87巷19號","121.547008333333","24.9423216666667","6500600","新店區"
"231017","KEA-2219","2017/12/14 15:59:46","新北市新店區中正路284巷4弄8號","121.538475","24.974635","6500600","新店區"
"231026","256-BX","2017/12/14 15:59:48","新北市新店區民生路14號","121.532278333333","24.9859716666667","6500600","新店區"
"231034","268-BY","2017/12/14 15:59:38","新北市新店區吉祥街7巷1號","121.497343333333","24.9475316666667","6500600","新店區"
"231046","278-BY","2017/12/14 15:59:47","新北市新店區安華路28-1號","121.519511666667","24.9612066666667","6500600","新店區"
"231038","4715-K9","2017/12/14 15:59:51","新北市新店區安康路二段205巷3號","121.509296666667","24.9585983333333","6500600","新店區"
"231035","515-UM","2017/12/14 15:59:40","新北市新店區安民街303巷12號","121.517003333333","24.9736766666667","6500600","新店區"
"231003","616-UM","2017/12/14 15:59:50","新北市新店區中興路二段197號","121.548291666667","24.9737683333333","6500600","新店區"
"231013","719-UM","2017/12/14 15:59:40","新北市新店區華城路2號","121.530411666667","24.960575","6500600","新店區"
"231037","AKT-0513","2017/12/14 15:59:53","新北市新店區安民街68號","121.516443333333","24.96646","6500600","新店區"
"241011","013-R5","2017/12/14 15:59:54","新北市三重區雙園街1巷8號","121.497073333333","25.0683866666667","6500200","三重區"
"241028","022-UY","2017/12/14 15:59:47","新北市三重區電信街75號","121.49601","25.05835","6500200","三重區"
"241008","059-VK","2017/12/14 15:59:57","新北市三重區自強路四段33號","121.48896","25.0768066666667","6500200","三重區"
"241015","062-VK","2017/12/14 15:59:43","新北市三重區重新路四段121號","121.485153333333","25.0520316666667","6500200","三重區"
"241017","063-VK","2017/12/14 15:59:43","新北市三重區大仁街48巷37號","121.490921666667","25.06451","6500200","三重區"
"241024","065-VK","2017/12/14 15:59:37","新北市三重區中正北路145巷5弄3號","121.48447","25.0675983333333","6500200","三重區"
"241026","066-VK","2017/12/14 15:59:56","新北市三重區重新路二段132號","121.49614","25.0616333333333","6500200","三重區"
"241003","091-VK","2017/12/14 15:59:47","新北市三重區自強路五段102號","121.496766666667","25.0836","6500200","三重區"
"241005","262-UM","2017/12/14 15:59:53","新北市三重區溪尾街300-2號","121.487481666667","25.083735","6500200","三重區"
"241002","265-UM","2017/12/14 15:59:54","新北市三重區仁義街101巷2號","121.497748333333","25.0799816666667","6500200","三重區"
"241016","266-UM","2017/12/14 15:59:43","新北市三重區重新路四段121號","121.484686666667","25.0518666666667","6500200","三重區"
"241022","267-UM","2017/12/14 15:59:57","新北市三重區中正北路176巷16號","121.482731666667","25.0658316666667","6500200","三重區"
"241018","268-UM","2017/12/14 15:59:50","新北市三重區中正北路27-1號","121.491816666667","25.0622833333333","6500200","三重區"
"241013","270-UM","2017/12/14 15:59:42","新北市三重區三和路三段18號","121.49692","25.0702716666667","6500200","三重區"
"241025","271-UM","2017/12/14 15:59:53","新北市三重區三民街195號","121.482118333333","25.0657166666667","6500200","三重區"
"241007","398-BY","2017/12/14 15:59:41","新北市三重區力行路二段29號","121.481843333333","25.0728333333333","6500200","三重區"
"241020","413-TH","2017/12/14 15:59:44","新北市三重區車路頭街4巷21號","121.483281666667","25.070145","6500200","三重區"
"241019","478-VK","2017/12/14 15:59:55","新北市三重區重陽路三段111號","121.490576666667","25.0685783333333","6500200","三重區"
"241014","543-UM","2017/12/14 15:59:54","新北市三重區重新路四段121號","121.48487","25.05202","6500200","三重區"
"241023","545-UM","2017/12/14 15:59:39","新北市三重區中正北路119號","121.483363333333","25.06698","6500200","三重區"
"241006","AAD-863","2017/12/14 15:59:39","新北市三重區新北大道一段250號","121.479838333333","25.061355","6500200","三重區"
"241029","887-TS","2017/12/14 15:59:56","新北市三重區大同南路212巷34號","121.497716666667","25.056685","6500200","三重區"
"241012","941-UM","2017/12/14 15:59:39","新北市三重區文化北路118巷51號","121.497461666667","25.0662216666667","6500200","三重區"
"241033","AAC-255","2017/12/14 15:59:45","新北市三重區重新路五段440號","121.47483","25.0472633333333","6500200","三重區"
"235046","031-BX","2017/12/14 15:47:08","新北市中和區員山路36巷16-2號","121.48523","24.9915366666667","6500300","中和區"
"235026","800-TS","2017/12/14 15:59:53","新北市中和區中山路二段546號","121.484856666667","25.0049766666667","6500300","中和區"
"235065","911-UM","2017/12/14 15:55:10","新北市中和區員山路36巷16-3號","121.485141666667","24.99119","6500300","中和區"
"247004","336-TH","2017/12/14 15:29:37","新北市五股區中興路三段163號","121.449308333333","25.0805533333333","6501400","蘆洲區"
"224007","273-VK","2017/12/14 15:59:52","新北市瑞芳區粗坑口路1巷1-1號","121.762041666667","25.0969416666667","6501200","瑞芳區"
"227004","642-TC","2017/12/14 15:59:52","新北市雙溪區平林里外平林71號","121.842","25.0348616666667","6502500","雙溪區"
"227010","400-TW","2017/12/14 15:59:55","新北市雙溪區三港里雙澳路40號","121.872845","25.0515483333333","6502500","雙溪區"
"253002","637-UY","2017/12/14 15:59:39","新北市石門區小坑9號","121.594343333333","25.2888933333333","6502200","石門區"
"236076","166-UM","2017/12/14 14:00:31","新北市土城區永寧路32巷10弄1號","121.428911666667","24.9609216666667","6501300","土城區"
"236018","401-BY","2017/12/14 15:59:41","新北市土城區延吉街57巷7號","121.47262","24.987355","6501300","土城區"
"236056","912-UM","2017/12/14 15:59:40","新北市土城區中央路二段117號","121.442063333333","24.9774683333333","6501300","土城區"
"236052","AAC-216","2017/12/14 15:59:51","新北市土城區中華路二段82-1號","121.438715","24.97594","6501300","土城區"
"242001","233-RS","2017/12/14 15:11:49","新北市新莊區環河路48-7號","121.43692","25.0097883333333","6500500","新莊區"
"238002","755-BX","2017/12/14 15:59:54","新北市樹林區啟智街80巷16號","121.418823333333","24.9924416666667","6500700","樹林區"
"238010","601-UM","2017/12/14 15:59:54","新北市樹林區福興街28號","121.404188333333","25.015545","6500700","樹林區"
"238006","599-UM","2017/12/14 15:59:50","新北市樹林區國凱街136巷29弄1號","121.42414","24.9796366666667","6500700","樹林區"
"238005","571-TV","2017/12/14 15:59:41","新北市樹林區鎮前街58號","121.425823333333","24.992635","6500700","樹林區"
"238011","5061-A6","2017/12/14 15:59:36","新北市樹林區山佳街57-1號","121.392906666667","24.9724266666667","6500700","樹林區"
"238008","KEA-2217","2017/12/14 15:59:45","新北市樹林區柑園街二段149巷27號","121.382956666667","24.9532216666667","6500700","樹林區"
"238009","KEA-2213","2017/12/14 15:59:44","新北市樹林區太順街63號","121.41723","24.9786716666667","6500700","樹林區"
"238012","303-VK","2017/12/14 15:59:39","新北市樹林區保安二街61號","121.424446666667","24.9945566666667","6500700","樹林區"
"238004","283-BY","2017/12/14 15:59:52","新北市樹林區保安街二段179-3號","121.4153","25.0031883333333","6500700","樹林區"
"238001","282-BY","2017/12/14 15:59:46","新北市樹林區千歲街35號","121.425166666667","24.9959166666667","6500700","樹林區"
"238007","268-VK","2017/12/14 15:59:47","新北市新莊區龍安路254巷18-1號","121.420583333333","25.01835","6500700","樹林區"
"238013","172-UY","2017/12/14 15:59:45","新北市樹林區育德街11號","121.392346666667","24.9704816666667","6500700","樹林區"
"238003","169-UY","2017/12/14 15:59:58","新北市樹林區日新街172巷16號","121.419538333333","24.9883883333333","6500700","樹林區"
"221012","276-VK","2017/12/14 13:24:12","新北市汐止區汐萬路一段256巷3號","121.653461666667","25.0746116666667","6501100","汐止區"
"221015","567-BX","2017/12/14 14:44:55","新北市汐止區汐萬路一段256巷3號","121.652451666667","25.0746483333333","6501100","汐止區"
"220010","305-R5","2017/12/14 15:58:42","新北市八里區荖阡坑路34-1號","121.401071666667","25.1303966666667","6500100","板橋區"
