"lineid","car","time","location","longitude","latitude","cityid","cityname"
"249005","172-UM","2017/12/14 17:29:55","新北市八里區荖阡坑路28-1號","121.40398","25.1296333333333","6502300","八里區"
"249001","173-UM","2017/12/14 17:29:37","新北市八里區中華路一段333-1號","121.413186666667","25.153775","6502300","八里區"
"249004","303-UY","2017/12/14 17:29:45","新北市八里區賢三街166號","121.414613333333","25.1567733333333","6502300","八里區"
"249002","305-UY","2017/12/14 17:29:35","新北市八里區龍米路一段267號","121.449513333333","25.13759","6502300","八里區"
"249003","593-UM","2017/12/14 17:29:39","新北市八里區中山路二段396號","121.400411666667","25.1479616666667","6502300","八里區"
"248010","272-BY","2017/12/14 15:55:58","新北市五股區中興路二段37巷28號","121.460108333333","25.075035","6501500","五股區"
"244013","069-UM","2017/12/14 17:29:46","新北市林口區粉寮路一段77-1號","121.396943333333","25.0789916666667","6501700","林口區"
"244007","080-UY","2017/12/14 17:29:58","新北市林口區湖子42號","121.385288333333","25.0941483333333","6501700","林口區"
"244019","403-UM","2017/12/14 17:29:38","新北市林口區公園路173號","121.37135","25.0719033333333","6501700","林口區"
"244023","483-VK","2017/12/14 17:29:55","新北市林口區東明一街80號","121.391216666667","25.07152","6501700","林口區"
"244017","485-VK","2017/12/14 17:29:36","新北市林口區中山路154-1號","121.390915","25.0787316666667","6501700","林口區"
"244009","657-BX","2017/12/14 17:29:45","新北市林口區中北一街78號","121.385808333333","25.0883683333333","6501700","林口區"
"244025","837-TS","2017/12/14 17:29:50","新北市林口區忠孝路53號","121.3654","25.0750966666667","6501700","林口區"
"244021","838-TS","2017/12/14 17:29:48","新北市林口區粉寮路二段227-1號","121.403573333333","25.091005","6501700","林口區"
"243009","KEA-2216","2017/12/14 15:51:27","新北市泰山區黎明路25號","121.42195","25.0608516666667","6501600","泰山區"
"243013","646-TV","2017/12/14 17:29:50","新北市泰山區自強路31-5號","121.408553333333","25.0564716666667","6501600","泰山區"
"231046","278-BY","2017/12/14 17:29:27","新北市新店區直潭路92號","121.530903333333","24.9375916666667","6500600","新店區"
"241011","013-R5","2017/12/14 17:29:54","新北市三重區介壽路39巷179號","121.502391666667","25.0706016666667","6500200","三重區"
"241015","062-VK","2017/12/14 17:29:43","新北市三重區長元街65巷16弄15號","121.503541666667","25.0661966666667","6500200","三重區"
"241017","063-VK","2017/12/14 17:29:43","新北市三重區大同北路34巷52號","121.493575","25.0619166666667","6500200","三重區"
"241024","065-VK","2017/12/14 17:29:37","新北市三重區大勇街82巷15弄8號","121.47995","25.0717216666667","6500200","三重區"
"241026","066-VK","2017/12/14 17:29:56","新北市三重區福德南路134-5號","121.500406666667","25.058025","6500200","三重區"
"241003","091-VK","2017/12/14 17:29:47","新北市三重區碧華街392號","121.491548333333","25.0846883333333","6500200","三重區"
"241005","262-UM","2017/12/14 17:29:53","新北市三重區永安北路二段5巷14號","121.48212","25.081125","6500200","三重區"
"241002","265-UM","2017/12/14 17:29:54","新北市三重區自強路五段9號","121.492421666667","25.0804883333333","6500200","三重區"
"241016","266-UM","2017/12/14 17:29:43","新北市三重區信義西街148號","121.495391666667","25.0640083333333","6500200","三重區"
"241022","267-UM","2017/12/14 17:29:57","新北市三重區新北大道一段7號","121.489656666667","25.0615183333333","6500200","三重區"
"241018","268-UM","2017/12/14 17:29:50","新北市三重區中正北路25巷3號","121.492503333333","25.0621016666667","6500200","三重區"
"241032","269-UM","2017/12/14 17:29:43","新北市三重區名源街34-2號","121.48249","25.0601083333333","6500200","三重區"
"241013","270-UM","2017/12/14 17:29:42","新北市三重區三和路三段107巷8號","121.494645","25.07296","6500200","三重區"
"241025","271-UM","2017/12/14 17:29:53","新北市三重區中正北路380號","121.476386666667","25.0699116666667","6500200","三重區"
"241007","398-BY","2017/12/14 17:29:41","新北市三重區三和路四段145巷188號","121.488853333333","25.07963","6500200","三重區"
"241020","413-TH","2017/12/14 17:29:46","新北市三重區忠孝路二段6號","121.486471666667","25.0712133333333","6500200","三重區"
"241019","478-VK","2017/12/14 17:29:55","新北市三重區自強路二段27號","121.489675","25.0692783333333","6500200","三重區"
"241030","480-VK","2017/12/14 17:29:42","新北市三重區新興路46號","121.49144","25.0536683333333","6500200","三重區"
"241014","543-UM","2017/12/14 17:29:34","新北市三重區安和路13號","121.501351666667","25.06835","6500200","三重區"
"241023","545-UM","2017/12/14 17:29:39","新北市三重區三民街146巷3弄2號","121.481556666667","25.064605","6500200","三重區"
"241001","547-UM","2017/12/14 17:29:46","新北市三重區集賢路66號","121.49301","25.0881666666667","6500200","三重區"
"241029","887-TS","2017/12/14 17:29:36","新北市三重區重新路四段28號","121.488155","25.0573483333333","6500200","三重區"
"241012","941-UM","2017/12/14 17:29:39","新北市三重區仁興街24巷22號","121.498715","25.0749466666667","6500200","三重區"
"241033","AAC-255","2017/12/14 17:29:44","新北市三重區興德路133號","121.470215","25.0528483333333","6500200","三重區"
"235046","031-BX","2017/12/14 15:47:08","新北市中和區員山路36巷16-2號","121.48523","24.9915366666667","6500300","中和區"
"235065","911-UM","2017/12/14 15:55:10","新北市中和區員山路36巷16-3號","121.485141666667","24.99119","6500300","中和區"
"247022","893-R6","2017/12/14 17:29:49","新北市蘆洲區三民路456號","121.467073333333","25.0903533333333","6501400","蘆洲區"
"247012","546-UM","2017/12/14 17:29:42","新北市蘆洲區民族路31-12號","121.477936666667","25.0850883333333","6501400","蘆洲區"
"247020","500-BY","2017/12/14 17:29:48","新北市蘆洲區仁愛街116號","121.469748333333","25.0948333333333","6501400","蘆洲區"
"247008","341-TH","2017/12/14 17:29:49","新北市蘆洲區民生街107巷11號","121.47352","25.0779316666667","6501400","蘆洲區"
"247010","339-TH","2017/12/14 17:29:42","新北市蘆洲區鷺江街35號","121.478533333333","25.082235","6501400","蘆洲區"
"247002","337-TH","2017/12/14 17:29:45","新北市蘆洲區永樂街38巷57弄2號","121.458288333333","25.0902383333333","6501400","蘆洲區"
"247004","336-TH","2017/12/14 17:29:37","新北市蘆洲區長安街233巷30號","121.458283333333","25.0823766666667","6501400","蘆洲區"
"247016","057-VK","2017/12/14 17:29:36","新北市蘆洲區光華路22巷39號","121.468323333333","25.0846866666667","6501400","蘆洲區"
"247006","056-VK","2017/12/14 17:29:41","新北市蘆洲區九芎街90巷29號","121.464231666667","25.0813316666667","6501400","蘆洲區"
"247014","007-UY","2017/12/14 17:29:47","新北市蘆洲區三民路33號","121.475413333333","25.0829983333333","6501400","蘆洲區"
"247024","002-UY","2017/12/14 17:29:54","新北市蘆洲區長興路353號","121.461021666667","25.0914233333333","6501400","蘆洲區"
"247018","001-UY","2017/12/14 17:29:56","新北市蘆洲區民權路109號","121.47249","25.0893433333333","6501400","蘆洲區"
"228003","097-TW","2017/12/14 17:29:43","新北市貢寮區仁理村仁和路2-2號","121.92319","25.04857","6502600","貢寮區"
"228001","212-TW","2017/12/14 17:29:42","新北市貢寮區仁理村仁愛路62巷1號","121.925651666667","25.0534083333333","6502600","貢寮區"
"228002","585-TW","2017/12/14 17:29:39","新北市貢寮區福隆里興隆街22號","121.944725","25.01665","6502600","貢寮區"
"224010","AGQ-8101","2017/12/14 17:23:14","新北市瑞芳區逢甲路26-2號","121.81144","25.1088366666667","6501200","瑞芳區"
"224006","676-BX","2017/12/14 17:29:50","新北市瑞芳區傑魚坑路183號","121.788553333333","25.10814","6501200","瑞芳區"
"224009","285-BY","2017/12/14 17:29:53","新北市瑞芳區汽車路18號","121.845273333333","25.110035","6501200","瑞芳區"
"224008","275-VK","2017/12/14 17:29:53","新北市瑞芳區九芎橋路8號","121.832791666667","25.0899333333333","6501200","瑞芳區"
"224005","271-BY","2017/12/14 17:29:47","新北市瑞芳區海濱路8-6號","121.831625","25.1260716666667","6501200","瑞芳區"
"227004","642-TC","2017/12/14 17:29:52","新北市雙溪區平林里外平林45-3號","121.851548333333","25.0358166666667","6502500","雙溪區"
"227010","400-TW","2017/12/14 17:29:54","新北市雙溪區三貂里定福路1-2號","121.850655","25.063525","6502500","雙溪區"
"251009","008-UM","2017/12/14 17:29:47","新北市淡水區新生街30巷64號","121.439695","25.173125","6501000","淡水區"
"251004","009-UM","2017/12/14 17:29:49","新北市淡水區中正東路二段88巷15號","121.45908","25.1500316666667","6501000","淡水區"
"251001","011-UM","2017/12/14 17:29:46","新北市淡水區民權路92巷35-1號","121.462106666667","25.1266583333333","6501000","淡水區"
"251007","179-VK","2017/12/14 17:29:39","新北市淡水區民生路56號","121.462063333333","25.1378866666667","6501000","淡水區"
"251008","181-VK","2017/12/14 17:29:37","新北市淡水區大同路100巷2號","121.462371666667","25.1395383333333","6501000","淡水區"
"251014","182-VK","2017/12/14 17:29:54","新北市淡水區八里堆15號","121.469655","25.2240116666667","6501000","淡水區"
"251010","413-VK","2017/12/14 17:29:44","新北市淡水區中正路二段211號","121.42619","25.18911","6501000","淡水區"
"251012","441-VK","2017/12/14 17:29:54","新北市淡水區北新路111號","121.448076666667","25.1784666666667","6501000","淡水區"
"251016","442-VK","2017/12/14 17:29:45","新北市淡水區大竹圍63號","121.463121666667","25.1912366666667","6501000","淡水區"
"251005","443-VK","2017/12/14 17:29:38","新北市淡水區鄧公路31巷3號","121.451461666667","25.1708166666667","6501000","淡水區"
"251006","561-UM","2017/12/14 17:29:50","新北市淡水區大忠街5巷4號","121.443241666667","25.1764516666667","6501000","淡水區"
"251011","650-BX","2017/12/14 17:29:43","新北市淡水區坪頂路718號","121.482625","25.158535","6501000","淡水區"
"251002","672-BX","2017/12/14 17:29:43","新北市淡水區中正路437號","121.432061666667","25.1747183333333","6501000","淡水區"
"251003","766-UM","2017/12/14 17:29:42","新北市淡水區中山路158號","121.44075","25.1727533333333","6501000","淡水區"
"207003","550-UM","2017/12/14 17:29:48","新北市萬里區龜吼里翡翠路17號","121.683385","25.187225","6502800","萬里區"
"207004","225-TW","2017/12/14 17:29:42","新北市萬里區萬里里景美路7-1號","121.684251666667","25.1727416666667","6502800","萬里區"
"252002","178-VK","2017/12/14 17:29:39","新北市三芝區忠孝街1-15號","121.505623333333","25.2539716666667","6502100","三芝區"
"252001","292-VK","2017/12/14 17:29:39","新北市三芝區長安街119號","121.498033333333","25.2596333333333","6502100","三芝區"
"237016","649-BX","2017/12/14 17:29:42","新北市三峽區中山路459巷66號","121.355571666667","24.9363316666667","6500900","三峽區"
"242031","AAC-296","2017/12/14 17:29:46","新北市新莊區新泰路381巷38號","121.442503333333","25.043755","6500500","新莊區"
"242029","986-R7","2017/12/14 17:29:49","新北市新莊區復興路二段194號","121.459306666667","25.0444","6500500","新莊區"
"242051","751-BX","2017/12/14 17:29:44","新北市新莊區新樹路447號","121.432746666667","25.0134666666667","6500500","新莊區"
"242025","615-BX","2017/12/14 17:29:51","新北市新莊區中港路268號","121.453223333333","25.0439066666667","6500500","新莊區"
"242023","613-BX","2017/12/14 17:29:45","新北市新莊區公園路39號","121.453155","25.040185","6500500","新莊區"
"242027","612-BX","2017/12/14 17:29:52","新北市新莊區思源路285號","121.45987","25.048305","6500500","新莊區"
"242039","566-BX","2017/12/14 17:29:43","新北市新莊區民安東路1號","121.427363333333","25.0210983333333","6500500","新莊區"
"242044","497-BY","2017/12/14 17:29:55","新北市新莊區富國路47號","121.419301666667","25.0262283333333","6500500","新莊區"
"242048","441-UM","2017/12/14 17:29:53","新北市新莊區四維路212巷13號","121.420958333333","25.020245","6500500","新莊區"
"242053","440-UM","2017/12/14 17:29:56","新北市新莊區瓊林南路305巷3號","121.43481","25.0054866666667","6500500","新莊區"
"242034","415-TV","2017/12/14 17:29:55","新北市新莊區新莊路370號","121.449346666667","25.0334666666667","6500500","新莊區"
"242004","413-TV","2017/12/14 17:29:57","新北市新莊區中港路288巷14號","121.453465","25.0445333333333","6500500","新莊區"
"242042","400-BY","2017/12/14 17:29:57","新北市新莊區中正路514巷19號","121.43297","25.0329666666667","6500500","新莊區"
"242061","362-BY","2017/12/14 17:29:51","新北市新莊區瓊林南路21號","121.438273333333","25.02054","6500500","新莊區"
"242058","353-BY","2017/12/14 17:29:54","新北市新莊區中正路615號","121.432391666667","25.032","6500500","新莊區"
"242007","132-UY","2017/12/14 17:29:54","新北市新莊區自強街14號","121.454743333333","25.04577","6500500","新莊區"
"242036","133-UY","2017/12/14 17:29:37","新北市新莊區建國一路173號","121.435061666667","25.024365","6500500","新莊區"
"242021","135-UY","2017/12/14 17:29:54","新北市新莊區中華路一段10號","121.45207","25.0370366666667","6500500","新莊區"
"242046","172-VK","2017/12/14 17:29:51","新北市新莊區新樹路65-5號","121.43944","25.0308516666667","6500500","新莊區"
"242009","173-VK","2017/12/14 17:29:52","新北市新莊區中原路189號","121.452625","25.0542666666667","6500500","新莊區"
"242015","175-VK","2017/12/14 17:29:55","新北市新莊區新泰路193號","121.447245","25.0378716666667","6500500","新莊區"
"242002","176-VK","2017/12/14 17:29:43","新北市新莊區新莊路154號","121.455223333333","25.035465","6500500","新莊區"
"242001","233-RS","2017/12/14 15:11:49","新北市新莊區環河路48-7號","121.43692","25.0097883333333","6500500","新莊區"
"242013","346-TH","2017/12/14 17:29:41","新北市新莊區中誠街16巷1號","121.451718333333","25.0484533333333","6500500","新莊區"
"242019","348-TH","2017/12/14 17:29:56","新北市新莊區中港路61號","121.455335","25.0384816666667","6500500","新莊區"
"242056","349-TH","2017/12/14 17:29:57","新北市新莊區新泰路14號","121.449651666667","25.033015","6500500","新莊區"
"242017","350-TH","2017/12/14 17:29:41","新北市新莊區復興路一段189號","121.451675","25.0437066666667","6500500","新莊區"
"242011","351-TH","2017/12/14 17:29:43","新北市新莊區中港路416號","121.452208333333","25.050435","6500500","新莊區"
"238015","755-BX","2017/12/14 17:29:38","新北市樹林區大安路267號","121.419043333333","24.9936766666667","6500700","樹林區"
"238023","601-UM","2017/12/14 17:29:50","新北市樹林區中正路433-2號","121.41506","25.0084283333333","6500700","樹林區"
"238019","599-UM","2017/12/14 17:29:35","新北市樹林區太平路56巷3號","121.419046666667","24.9817733333333","6500700","樹林區"
"238018","571-TV","2017/12/14 17:29:44","新北市樹林區鎮前街277-5號","121.418808333333","24.98546","6500700","樹林區"
"238024","5061-A6","2017/12/14 17:29:56","新北市樹林區鎮前街156號","121.424513333333","24.990165","6500700","樹林區"
"238021","KEA-2217","2017/12/14 17:29:45","新北市樹林區民權街48號","121.399133333333","24.95981","6500700","樹林區"
"238022","KEA-2213","2017/12/14 17:29:39","新北市樹林區信義街22號","121.423026666667","24.9820933333333","6500700","樹林區"
"238025","303-VK","2017/12/14 17:29:39","新北市樹林區保安街一段402號","121.416953333333","24.99915","6500700","樹林區"
"238017","283-BY","2017/12/14 17:29:52","新北市樹林區中正路254號","121.417581666667","25.007295","6500700","樹林區"
"238014","282-BY","2017/12/14 17:29:41","新北市樹林區長壽街23-7號","121.420923333333","24.9947966666667","6500700","樹林區"
"238020","268-VK","2017/12/14 17:29:46","新北市樹林區中正路22-1號","121.42776","24.9993683333333","6500700","樹林區"
"238026","172-UY","2017/12/14 17:29:56","新北市樹林區中山路二段249巷2號","121.401988333333","24.97584","6500700","樹林區"
"238016","169-UY","2017/12/14 17:29:44","新北市樹林區長壽街4號","121.423703333333","24.99335","6500700","樹林區"
"239007","AAC-297","2017/12/14 17:29:51","新北市鶯歌區國華路3-1號","121.342871666667","24.9567866666667","6500800","鶯歌區"
"239006","891-R6","2017/12/14 17:29:50","新北市鶯歌區鳳鳴路55號","121.33387","24.9654266666667","6500800","鶯歌區"
"239008","527-UM","2017/12/14 17:29:39","新北市鶯歌區大湖路768號","121.331761666667","24.977435","6500800","鶯歌區"
"239005","526-UM","2017/12/14 17:29:43","新北市鶯歌區鶯桃路二段3號","121.326145","24.9719083333333","6500800","鶯歌區"
"239001","417-VK","2017/12/14 17:29:57","新北市鶯歌區高職西街104號","121.335948333333","24.9413466666667","6500800","鶯歌區"
"239003","360-BY","2017/12/14 17:29:42","新北市鶯歌區德昌街50號","121.333136666667","24.9597966666667","6500800","鶯歌區"
"239002","359-BY","2017/12/14 17:29:50","新北市鶯歌區建國路238號","121.348145","24.9534633333333","6500800","鶯歌區"
"239004","193-VK","2017/12/14 17:29:37","新北市鶯歌區文化路501-13號","121.353536666667","24.9486983333333","6500800","鶯歌區"
"221008","489-VK","2017/12/14 17:29:41","新北市汐止區康寧街901號","121.651388333333","25.0750083333333","6501100","汐止區"
"221012","276-VK","2017/12/14 13:24:12","新北市汐止區汐萬路一段256巷3號","121.653461666667","25.0746116666667","6501100","汐止區"
"221015","567-BX","2017/12/14 17:29:36","新北市汐止區汐萬路一段256巷3號","121.652438333333","25.074635","6501100","汐止區"
"220010","305-R5","2017/12/14 16:17:51","新北市板橋區民生路二段120號","121.470356666667","25.0197283333333","6500100","板橋區"
