"lineid","car","time","location","longitude","latitude","cityid","cityname"
"234026","9371-KE","2017/12/14 18:09:53","新北市永和區永和路一段66號","121.513048333333","25.0060466666667","6500400","永和區"
"249005","172-UM","2017/12/14 18:09:55","新北市八里區荖阡坑路15號","121.401723333333","25.1398266666667","6502300","八里區"
"249001","173-UM","2017/12/14 18:09:37","新北市八里區龍米路二段35號","121.448435","25.14007","6502300","八里區"
"249004","303-UY","2017/12/14 18:09:45","新北市八里區龍米路二段200巷3號","121.433716666667","25.158735","6502300","八里區"
"249002","305-UY","2017/12/14 18:09:35","新北市八里區龍米路一段386巷2號","121.451825","25.1319383333333","6502300","八里區"
"249003","593-UM","2017/12/14 18:09:39","新北市八里區中華路二段165巷17號","121.408741666667","25.1505283333333","6502300","八里區"
"248006","077-UY","2017/12/14 18:09:54","新北市五股區中興路二段89號","121.460585","25.077385","6501500","五股區"
"248008","095-VK","2017/12/14 18:09:39","新北市五股區中興路二段182巷15弄13-9號","121.457695","25.08076","6501500","五股區"
"248020","225-UY","2017/12/14 18:09:43","新北市五股區凌雲路一段21號","121.454616666667","25.09887","6501500","五股區"
"248012","247-BX","2017/12/14 18:09:51","新北市五股區新五路二段258號","121.44102","25.0821516666667","6501500","五股區"
"248014","261-SL","2017/12/14 18:09:54","新北市五股區成泰路一段235號","121.436248333333","25.079365","6501500","五股區"
"248010","272-BY","2017/12/14 18:09:44","新北市五股區新五路二段258號","121.440975","25.08217","6501500","五股區"
"248004","677-BX","2017/12/14 18:09:48","新北市五股區工商路63號","121.438956666667","25.0843816666667","6501500","五股區"
"248002","678-BX","2017/12/14 18:09:47","新北市五股區新五路三段2號","121.44438","25.0880016666667","6501500","五股區"
"232011","375-UM","2017/12/14 18:09:50","新北市坪林區水柳腳3號","121.711501666667","24.935425","6502000","坪林區"
"244013","069-UM","2017/12/14 18:09:46","新北市林口區中山路52號","121.395016666667","25.0784783333333","6501700","林口區"
"244007","080-UY","2017/12/14 18:09:58","新北市林口區林口路124巷1號","121.388665","25.0817083333333","6501700","林口區"
"244019","403-UM","2017/12/14 18:09:58","新北市林口區麗園路92號","121.372175","25.0683516666667","6501700","林口區"
"244023","483-VK","2017/12/14 18:09:55","新北市林口區東湖路117巷2號","121.383191666667","25.07276","6501700","林口區"
"244017","485-VK","2017/12/14 18:09:36","新北市林口區忠孝路490號","121.370493333333","25.0704333333333","6501700","林口區"
"244009","657-BX","2017/12/14 18:09:45","新北市林口區竹林路606巷17號","121.38542","25.082905","6501700","林口區"
"244025","837-TS","2017/12/14 18:09:50","新北市林口區文化北路一段299巷20號","121.359498333333","25.0733616666667","6501700","林口區"
"244021","838-TS","2017/12/14 18:09:48","新北市林口區仁愛路一段161號","121.398778333333","25.0722666666667","6501700","林口區"
"243015","380-SR","2017/12/14 17:46:59","新北市泰山區犁頭窠3-1號","121.422396666667","25.0605066666667","6501600","泰山區"
"243009","KEA-2216","2017/12/14 15:51:27","新北市泰山區黎明路25號","121.42195","25.0608516666667","6501600","泰山區"
"243013","646-TV","2017/12/14 18:09:49","新北市泰山區南林路93號","121.415573333333","25.05117","6501600","泰山區"
"222003","436-BY","2017/12/14 18:09:54","新北市深坑區阿柔洋47號","121.611776666667","24.9972616666667","6501800","深坑區"
"222002","659-BX","2017/12/14 18:09:42","新北市深坑區文化街42號","121.6191","25.001675","6501800","深坑區"
"231061","047-UY","2017/12/14 18:09:48","新北市新店區安華路28-1號","121.51915","24.9610033333333","6500600","新店區"
"231063","268-BY","2017/12/14 18:09:40","新北市新店區安華路1-1號","121.519423333333","24.9605","6500600","新店區"
"231046","278-BY","2017/12/14 18:09:47","新北市新店區直潭路113號","121.531516666667","24.9359","6500600","新店區"
"231054","AAD-862","2017/12/14 16:28:44","新北市新店區安華路28-1號","121.51949","24.9611783333333","6500600","新店區"
"231058","3712-VJ","2017/12/14 18:09:38","新北市新店區安華路28-1號","121.519226666667","24.9605983333333","6500600","新店區"
"231065","512-UM","2017/12/14 18:09:41","新北市新店區安華路28-1號","121.519128333333","24.9611683333333","6500600","新店區"
"231041","618-UM","2017/12/14 16:09:29","新北市新店區安華路28-1號","121.519271666667","24.960885","6500600","新店區"
"231040","619-UM","2017/12/14 18:09:44","新北市新店區安華路28-1號","121.519645","24.960705","6500600","新店區"
"231062","720-UM","2017/12/14 18:09:54","新北市新店區安華路28-1號","121.519333333333","24.9611383333333","6500600","新店區"
"241033","AAC-255","2017/12/14 18:09:44","新北市三重區中興北街62號","121.468918333333","25.0516633333333","6500200","三重區"
"235066","003-UY","2017/12/14 18:09:51","新北市中和區圓通路215號","121.496798333333","24.994345","6500300","中和區"
"235064","005-UY","2017/12/14 18:09:38","新北市中和區中正路589巷15號","121.485796666667","24.9936466666667","6500300","中和區"
"235063","006-UY","2017/12/14 18:09:43","新北市中和區員山路36巷16-3號","121.485068333333","24.9912916666667","6500300","中和區"
"235046","031-BX","2017/12/14 15:47:08","新北市中和區員山路36巷16-2號","121.48523","24.9915366666667","6500300","中和區"
"235040","150-BY","2017/12/14 18:09:50","新北市中和區員山路36巷16-6號","121.485295","24.9920716666667","6500300","中和區"
"235058","151-BY","2017/12/14 18:09:57","新北市中和區圓通路367巷33弄15號","121.49526","24.9850633333333","6500300","中和區"
"235038","185-VK","2017/12/14 18:09:43","新北市中和區景平路149號","121.513798333333","24.9921333333333","6500300","中和區"
"235067","255-BX","2017/12/14 18:04:29","新北市中和區和城路一段271巷1號","121.48551","24.99197","6500300","中和區"
"235072","301-VK","2017/12/14 18:09:47","新北市中和區員山路36巷12號","121.483885","24.9909266666667","6500300","中和區"
"235043","352-BY","2017/12/14 18:09:51","新北市中和區員山路36巷16-2號","121.485323333333","24.991555","6500300","中和區"
"235061","378-QA","2017/12/14 15:26:34","新北市中和區員山路36巷16號","121.484515","24.9912783333333","6500300","中和區"
"235050","4979-A6","2017/12/14 18:09:47","新北市中和區錦和路350-1號","121.49055","24.993555","6500300","中和區"
"235069","4980-A6","2017/12/14 18:09:50","新北市中和區連城路301號","121.489835","24.9961233333333","6500300","中和區"
"235042","551-UM","2017/12/14 18:09:56","新北市中和區景平路257號","121.50856","24.9930183333333","6500300","中和區"
"235070","558-UM","2017/12/14 18:09:39","新北市中和區中正路637巷52弄1號","121.485465","24.9937783333333","6500300","中和區"
"235045","565-BX","2017/12/14 18:09:45","新北市中和區錦和路350-1號","121.49012","24.99355","6500300","中和區"
"235054","640-BX","2017/12/14 18:09:36","新北市中和區員山路61號","121.480673333333","24.9934933333333","6500300","中和區"
"235062","800-TS","2017/12/14 18:09:47","新北市中和區建八路1號","121.485381666667","24.9985183333333","6500300","中和區"
"235057","801-TS","2017/12/14 18:09:54","新北市中和區員山路36巷16-3號","121.485145","24.99142","6500300","中和區"
"235052","805-TS","2017/12/14 18:09:40","新北市中和區中正路395號","121.48973","24.993935","6500300","中和區"
"235053","900-TW","2017/12/14 18:09:42","新北市中和區員山路36巷16-2號","121.48518","24.9914866666667","6500300","中和區"
"235065","911-UM","2017/12/14 18:09:44","新北市中和區中山路二段2巷45弄44號","121.501865","25.0064266666667","6500300","中和區"
"235051","157-BY","2017/12/14 18:09:52","新北市中和區錦和路350-1號","121.49046","24.9935433333333","6500300","中和區"
"235037","AAC-213","2017/12/14 18:09:51","新北市中和區景平路145號","121.514075","24.9921383333333","6500300","中和區"
"226004","312-R5","2017/12/14 18:09:45","新北市平溪區白石里白石腳32號","121.719443333333","25.02145","6502400","平溪區"
"228003","097-TW","2017/12/14 18:09:43","新北市貢寮區真理里美艷山街6-2號","121.92884","25.0607216666667","6502600","貢寮區"
"228001","212-TW","2017/12/14 18:09:42","新北市貢寮區真理里新港街26巷55弄2-1號","121.9274","25.0528633333333","6502600","貢寮區"
"228002","585-TW","2017/12/14 18:09:39","新北市貢寮區福連里福興街37-2號","121.9922","25.0115833333333","6502600","貢寮區"
"224006","676-BX","2017/12/14 18:09:50","新北市瑞芳區傑魚坑路73號","121.793106666667","25.1104716666667","6501200","瑞芳區"
"224002","639-TC","2017/12/14 18:09:48","新北市瑞芳區三爪子坑路84號","121.810003333333","25.105485","6501200","瑞芳區"
"224009","285-BY","2017/12/14 18:09:53","新北市瑞芳區金光路207號","121.852963333333","25.1067716666667","6501200","瑞芳區"
"224008","275-VK","2017/12/14 18:09:53","新北市瑞芳區員山子路23號","121.821345","25.103","6501200","瑞芳區"
"224007","273-VK","2017/12/14 18:09:51","新北市瑞芳區大寮路84號","121.780481666667","25.1012716666667","6501200","瑞芳區"
"224005","271-BY","2017/12/14 18:09:56","新北市瑞芳區深澳路61號","121.817775","25.1295","6501200","瑞芳區"
"227004","642-TC","2017/12/14 18:09:52","新北市雙溪區共和里東榮街42號","121.866158333333","25.03366","6502500","雙溪區"
"253005","032-BX","2017/12/14 18:09:50","新北市石門區福安街13號","121.568526666667","25.29267","6502200","石門區"
"253006","295-VK","2017/12/14 18:09:50","新北市石門區老梅路52巷21號","121.546363333333","25.2882516666667","6502200","石門區"
"222001","KEA-2212","2017/12/14 18:09:49","新北市深坑區北深路二段188號","121.614015","25.002235","6501800","深坑區"
"208002","742-BX","2017/12/14 18:09:58","新北市金山區三界壇路99巷3號","121.622115","25.2288966666667","6502700","金山區"
"208003","665-BX","2017/12/14 18:09:51","新北市金山區磺港里磺港路127號","121.646226666667","25.2276366666667","6502700","金山區"
"208001","761-BX","2017/12/14 18:09:53","新北市金山區磺港里磺港路111號","121.646313333333","25.226735","6502700","金山區"
"251009","008-UM","2017/12/14 18:09:47","新北市淡水區大忠街34巷10號","121.443455","25.1755283333333","6501000","淡水區"
"251004","009-UM","2017/12/14 18:09:49","新北市淡水區民權路187巷82號","121.461423333333","25.1346633333333","6501000","淡水區"
"251001","011-UM","2017/12/14 18:09:46","新北市淡水區自立路8-2號","121.462856666667","25.12969","6501000","淡水區"
"251008","181-VK","2017/12/14 18:09:37","新北市淡水區八勢一街3號","121.460373333333","25.15606","6501000","淡水區"
"251014","182-VK","2017/12/14 18:09:54","新北市淡水區南平15號","121.487771666667","25.21981","6501000","淡水區"
"251010","413-VK","2017/12/14 18:09:44","新北市淡水區中正路二段50巷8號","121.419858333333","25.1832533333333","6501000","淡水區"
"251012","441-VK","2017/12/14 18:09:34","新北市淡水區北新路三段126號","121.487821666667","25.1896116666667","6501000","淡水區"
"251016","442-VK","2017/12/14 18:09:45","新北市淡水區下圭柔山13號","121.451421666667","25.2011633333333","6501000","淡水區"
"251005","443-VK","2017/12/14 18:09:51","新北市淡水區水源街一段147號","121.44752","25.1718216666667","6501000","淡水區"
"251006","561-UM","2017/12/14 18:09:39","新北市淡水區新民街79號","121.438066666667","25.17672","6501000","淡水區"
"251011","650-BX","2017/12/14 18:09:43","新北市淡水區三空泉9-1號","121.474441666667","25.163095","6501000","淡水區"
"251002","672-BX","2017/12/14 18:09:43","新北市淡水區中正東路一段79號","121.45283","25.1620133333333","6501000","淡水區"
"251003","766-UM","2017/12/14 18:09:42","新北市淡水區北新路180號","121.449325","25.1787633333333","6501000","淡水區"
"207003","550-UM","2017/12/14 18:09:48","新北市萬里區野柳里港西路70-3號","121.685435","25.2046966666667","6502800","萬里區"
"207004","225-TW","2017/12/14 18:09:42","新北市萬里區中幅里中福路132號","121.67497","25.1666816666667","6502800","萬里區"
"252002","178-VK","2017/12/14 18:09:39","新北市三芝區中山路二段37號","121.502891666667","25.2551633333333","6502100","三芝區"
"252003","249-BX","2017/12/14 18:09:55","新北市三芝區埔頭里埔頭37號","121.498568333333","25.2603633333333","6502100","三芝區"
"252001","292-VK","2017/12/14 18:09:39","新北市三芝區中興街二段2號","121.498378333333","25.2566433333333","6502100","三芝區"
"237004","078-UY","2017/12/14 18:09:50","新北市三峽區大埔路150-2號","121.364786666667","24.89827","6500900","三峽區"
"237007","153-BY","2017/12/14 18:09:42","新北市三峽區中正路二段370巷81號","121.36426","24.9116983333333","6500900","三峽區"
"237009","210-TH","2017/12/14 18:09:48","新北市三峽區大仁路50巷11號","121.36533","24.9379733333333","6500900","三峽區"
"237013","252-BX","2017/12/14 18:09:39","新北市三峽區長泰街78巷16號","121.376803333333","24.9336366666667","6500900","三峽區"
"237012","275-BY","2017/12/14 18:09:42","新北市三峽區民生街1巷1-25號","121.377626666667","24.9353733333333","6500900","三峽區"
"237008","302-VK","2017/12/14 18:09:45","新北市三峽區白雞42-2號","121.37984","24.91123","6500900","三峽區"
"237014","433-BY","2017/12/14 18:09:56","新北市三峽區復興路97號","121.37208","24.9378583333333","6500900","三峽區"
"237006","5529-G3","2017/12/14 18:09:48","新北市三峽區溪東路34巷13號","121.400365","24.9343383333333","6500900","三峽區"
"237011","572-TV","2017/12/14 18:06:51","新北市三峽區溪北街2號","121.396","24.93623","6500900","三峽區"
"237016","649-BX","2017/12/14 17:56:02","新北市三峽區白雞115-16號","121.400661666667","24.906025","6500900","三峽區"
"237010","706-TV","2017/12/14 18:09:45","新北市三峽區民族街136號","121.369205","24.9286616666667","6500900","三峽區"
"237005","AKY-6261","2017/12/14 18:09:41","新北市三峽區文化路65巷12號","121.372061666667","24.935545","6500900","三峽區"
"236071","105-UM","2017/12/14 18:09:48","新北市土城區青雲路589-2號","121.459513333333","24.97123","6501300","土城區"
"236042","107-UM","2017/12/14 18:09:45","新北市土城區城林路6巷80號","121.438511666667","24.9797016666667","6501300","土城區"
"236078","166-UM","2017/12/14 14:00:31","新北市土城區永寧路32巷10弄1號","121.428911666667","24.9609216666667","6501300","土城區"
"236030","253-BX","2017/12/14 18:09:45","新北市土城區城林路6巷80號","121.438535","24.9796016666667","6501300","土城區"
"236026","269-VK","2017/12/14 18:09:44","新北市土城區承天路18號","121.439416666667","24.96338","6501300","土城區"
"236014","270-VK","2017/12/14 18:09:56","新北市土城區學府路二段133號","121.448095","24.9802383333333","6501300","土城區"
"236037","271-VK","2017/12/14 18:09:40","新北市土城區青雲路449-1號","121.45897","24.9746816666667","6501300","土城區"
"236021","401-BY","2017/12/14 18:09:45","新北市土城區城林路6巷80號","121.438635","24.9796633333333","6501300","土城區"
"236058","912-UM","2017/12/14 18:09:41","新北市土城區中央路四段48號","121.42048","24.9605866666667","6501300","土城區"
"236051","913-UM","2017/12/14 18:09:46","新北市土城區明德路一段365-1號","121.453545","24.9790166666667","6501300","土城區"
"236062","915-UM","2017/12/14 18:09:49","新北市土城區學士路123號","121.446765","24.975815","6501300","土城區"
"236053","AAC-216","2017/12/14 18:09:48","新北市土城區中華路二段62號","121.438846666667","24.9764883333333","6501300","土城區"
"242031","AAC-296","2017/12/14 18:09:46","新北市新莊區新泰路277巷9號","121.445306666667","25.04031","6500500","新莊區"
"242029","986-R7","2017/12/14 18:09:48","新北市新莊區中平路110巷34號","121.446383333333","25.0459666666667","6500500","新莊區"
"242051","751-BX","2017/12/14 18:09:41","新北市新莊區民本街43巷19號","121.429033333333","25.01837","6500500","新莊區"
"242025","615-BX","2017/12/14 18:09:51","新北市新莊區五工一路96號","121.460538333333","25.0679016666667","6500500","新莊區"
"242023","613-BX","2017/12/14 18:09:45","新北市新莊區幸福路914號","121.4424","25.0489283333333","6500500","新莊區"
"242027","612-BX","2017/12/14 18:09:50","新北市新莊區幸福路541號","121.45491","25.049275","6500500","新莊區"
"242039","566-BX","2017/12/14 18:09:43","新北市新莊區民安西路40號","121.42721","25.0209533333333","6500500","新莊區"
"242044","497-BY","2017/12/14 18:09:37","新北市新莊區鳳山街54號","121.414078333333","25.02582","6500500","新莊區"
"242048","441-UM","2017/12/14 18:09:41","新北市新莊區富國路86號","121.420306666667","25.0255816666667","6500500","新莊區"
"242053","440-UM","2017/12/14 18:09:35","新北市新莊區西盛街429巷25號","121.428028333333","25.0115733333333","6500500","新莊區"
"242034","415-TV","2017/12/14 18:09:35","新北市新莊區景德路241號","121.448638333333","25.0336216666667","6500500","新莊區"
"242004","413-TV","2017/12/14 18:09:39","新北市新莊區自立街110號","121.455198333333","25.0453283333333","6500500","新莊區"
"242042","400-BY","2017/12/14 18:09:57","新北市新莊區天祥街113號","121.41468","25.0296716666667","6500500","新莊區"
"242061","362-BY","2017/12/14 18:09:54","新北市新莊區新樹路223號","121.435503333333","25.023115","6500500","新莊區"
"242058","353-BY","2017/12/14 18:09:54","新北市新莊區壽山路49-6號","121.414191666667","25.030745","6500500","新莊區"
"242007","132-UY","2017/12/14 18:09:54","新北市新莊區中華路二段40號","121.454111666667","25.0455133333333","6500500","新莊區"
"242036","133-UY","2017/12/14 18:09:37","新北市新莊區後港一路51號","121.42596","25.026465","6500500","新莊區"
"242021","135-UY","2017/12/14 18:09:54","新北市新莊區新興街39號","121.45065","25.03849","6500500","新莊區"
"242046","172-VK","2017/12/14 18:09:51","新北市新莊區福營路226號","121.42732","25.0293566666667","6500500","新莊區"
"242009","173-VK","2017/12/14 18:09:52","新北市新莊區昌平街71巷24號","121.453323333333","25.053785","6500500","新莊區"
"242015","175-VK","2017/12/14 18:09:35","新北市新莊區中和街59巷10弄14號","121.446888333333","25.0471533333333","6500500","新莊區"
"242002","176-VK","2017/12/14 18:09:43","新北市新莊區新莊路90號","121.456708333333","25.0362416666667","6500500","新莊區"
"242001","233-RS","2017/12/14 15:11:49","新北市新莊區環河路48-7號","121.43692","25.0097883333333","6500500","新莊區"
"242019","348-TH","2017/12/14 18:09:56","新北市新莊區民樂街15巷2號","121.457596666667","25.04024","6500500","新莊區"
"242056","349-TH","2017/12/14 18:09:57","新北市新莊區豐年街豐1巷44號","121.448031666667","25.0311966666667","6500500","新莊區"
"242017","350-TH","2017/12/14 18:09:38","新北市新莊區復興路一段212號","121.452783333333","25.0437816666667","6500500","新莊區"
"242011","351-TH","2017/12/14 18:09:42","新北市新莊區中港路587號","121.451023333333","25.0522683333333","6500500","新莊區"
"238015","755-BX","2017/12/14 18:09:38","新北市樹林區啟智街156巷1號","121.414783333333","24.9873616666667","6500700","樹林區"
"238023","601-UM","2017/12/14 18:09:51","新北市樹林區龍興街32巷23號","121.402188333333","25.0155316666667","6500700","樹林區"
"238019","599-UM","2017/12/14 18:09:55","新北市樹林區國凱街136巷33號","121.42382","24.9794683333333","6500700","樹林區"
"238018","571-TV","2017/12/14 18:09:38","新北市樹林區樹新路207號","121.429761666667","24.9980866666667","6500700","樹林區"
"238024","5061-A6","2017/12/14 18:09:46","新北市樹林區豐林街64號","121.422123333333","24.9980233333333","6500700","樹林區"
"238021","KEA-2217","2017/12/14 18:09:45","新北市樹林區柑園街一段35號","121.403648333333","24.9601533333333","6500700","樹林區"
"238022","KEA-2213","2017/12/14 18:09:39","新北市樹林區太平路225巷2號","121.418446666667","24.97699","6500700","樹林區"
"238025","303-VK","2017/12/14 18:09:47","新北市樹林區保安街二段71號","121.41599","25.0006666666667","6500700","樹林區"
"238017","283-BY","2017/12/14 18:09:52","新北市樹林區中正路859-1號","121.408891666667","25.0180633333333","6500700","樹林區"
"238014","282-BY","2017/12/14 18:09:41","新北市樹林區中正路55巷9號","121.42649","24.99932","6500700","樹林區"
"238020","268-VK","2017/12/14 18:09:52","新北市樹林區俊興街288號","121.418501666667","25.01715","6500700","樹林區"
"238026","172-UY","2017/12/14 18:09:56","新北市樹林區育德街57號","121.391398333333","24.9701533333333","6500700","樹林區"
"238016","169-UY","2017/12/14 18:09:44","新北市樹林區文化街12號","121.420045","24.9873283333333","6500700","樹林區"
"239007","AAC-297","2017/12/14 18:09:51","新北市鶯歌區育英街98號","121.347351666667","24.9518966666667","6500800","鶯歌區"
"239006","891-R6","2017/12/14 18:09:50","新北市鶯歌區鶯桃路381巷2弄11號","121.332936666667","24.96367","6500800","鶯歌區"
"239008","527-UM","2017/12/14 18:09:38","新北市鶯歌區朝陽街61巷31號","121.338838333333","24.9777066666667","6500800","鶯歌區"
"239005","526-UM","2017/12/14 18:09:43","新北市鶯歌區鶯桃路668巷73號","121.329903333333","24.97175","6500800","鶯歌區"
"239001","417-VK","2017/12/14 18:09:57","新北市鶯歌區國中街80-9號","121.341886666667","24.9417566666667","6500800","鶯歌區"
"239003","360-BY","2017/12/14 18:09:42","新北市鶯歌區福安街32巷34號","121.335303333333","24.96351","6500800","鶯歌區"
"239002","359-BY","2017/12/14 18:09:50","新北市鶯歌區中山路329巷26弄4號","121.345141666667","24.9564066666667","6500800","鶯歌區"
"239004","193-VK","2017/12/14 18:09:37","新北市鶯歌區二甲路13號","121.34432","24.9353","6500800","鶯歌區"
"221008","489-VK","2017/12/14 18:09:41","新北市汐止區康寧街315號","121.627118333333","25.0678583333333","6501100","汐止區"
"221036","130-UY","2017/12/14 18:09:42","新北市汐止區大同路三段243-1號","121.673181666667","25.0762533333333","6501100","汐止區"
"221010","269-BY","2017/12/14 18:09:38","新北市汐止區汐萬路二段265號","121.646193333333","25.0887833333333","6501100","汐止區"
"221012","276-VK","2017/12/14 13:24:12","新北市汐止區汐萬路一段256巷3號","121.653461666667","25.0746116666667","6501100","汐止區"
"221012","278-VK","2017/12/14 18:09:50","新北市汐止區保長路37巷42號","121.67414","25.0798466666667","6501100","汐止區"
"221023","279-VK","2017/12/14 18:09:51","新北市汐止區民族五街77號","121.62758","25.0700216666667","6501100","汐止區"
"221032","280-BY","2017/12/14 18:09:39","新北市汐止區橫科路73巷31號","121.619311666667","25.0513533333333","6501100","汐止區"
"221027","281-BY","2017/12/14 18:09:47","新北市汐止區和平街3-1號","121.663498333333","25.07056","6501100","汐止區"
"221029","298-VK","2017/12/14 18:09:37","新北市汐止區樟樹二路134號","121.639945","25.0657","6501100","汐止區"
"221021","299-VK","2017/12/14 18:09:54","新北市汐止區龍安路173號","121.653611666667","25.06306","6501100","汐止區"
"221031","353-TW","2017/12/14 18:09:49","新北市汐止區中興路181巷24弄14號","121.629281666667","25.0666733333333","6501100","汐止區"
"221015","567-BX","2017/12/14 18:09:56","新北市汐止區鄉長路二段25-1號","121.668306666667","25.082735","6501100","汐止區"
"221035","622-UM","2017/12/14 18:09:40","新北市汐止區大同路二段341-1號","121.656106666667","25.0670633333333","6501100","汐止區"
"221025","623-UM","2017/12/14 18:09:55","新北市汐止區勤進路4號","121.66009","25.061995","6501100","汐止區"
"221038","646-BX","2017/12/14 18:09:42","新北市汐止區南興路83巷8號","121.653303333333","25.0590683333333","6501100","汐止區"
"221033","647-BX","2017/12/14 18:09:44","新北市汐止區宜興街20巷21號","121.6223","25.040975","6501100","汐止區"
"221002","707-TV","2017/12/14 18:09:54","新北市汐止區福德一路215號","121.634663333333","25.0652683333333","6501100","汐止區"
"221018","753-BX","2017/12/14 18:09:47","新北市汐止區茄苳路42號","121.665835","25.0708066666667","6501100","汐止區"
"220010","305-R5","2017/12/14 16:17:51","新北市板橋區民生路二段120號","121.470356666667","25.0197283333333","6500100","板橋區"
