"lineid","car","time","location","longitude","latitude","cityid","cityname"
"234046","148-BY","2017/12/14 18:59:53","新北市永和區得和路373巷31弄4號","121.524936666667","25.0005","6500400","永和區"
"234013","149-BY","2017/12/14 18:59:38","新北市永和區中山路一段60巷10號","121.513218333333","25.0110816666667","6500400","永和區"
"234007","207-UY","2017/12/14 18:59:44","新北市永和區中山路一段19號","121.513861666667","25.0104466666667","6500400","永和區"
"234081","298-R6","2017/12/14 18:59:39","新北市永和區永貞路19號","121.520925","25.0070633333333","6500400","永和區"
"234036","336-UY","2017/12/14 18:59:39","新北市永和區成功路二段207號","121.526601666667","24.995885","6500400","永和區"
"234064","337-UY","2017/12/14 18:59:42","新北市永和區秀朗路一段146號","121.518216666667","25.0032766666667","6500400","永和區"
"234086","338-UY","2017/12/14 18:59:51","新北市永和區永寧街121號","121.51806","25.0056766666667","6500400","永和區"
"234070","552-UM","2017/12/14 18:59:43","新北市永和區竹林路124巷36號","121.51804","25.0114616666667","6500400","永和區"
"234054","553-UM","2017/12/14 18:59:48","新北市永和區竹林路66巷4號","121.518228333333","25.0133383333333","6500400","永和區"
"234017","745-BX","2017/12/14 18:59:46","新北市永和區永和路二段310號","121.516141666667","25.0160766666667","6500400","永和區"
"234030","746-BX","2017/12/14 18:59:48","新北市永和區民生路25巷44號","121.525425","24.9982083333333","6500400","永和區"
"234061","AAD-866","2017/12/14 18:59:51","新北市永和區福和路311號","121.516136666667","25.0070933333333","6500400","永和區"
"234042","862-TW","2017/12/14 18:59:49","新北市永和區永貞路308號","121.511855","25.0048783333333","6500400","永和區"
"234050","863-TW","2017/12/14 18:59:53","新北市永和區文化路153號","121.51058","25.0162616666667","6500400","永和區"
"234026","9371-KE","2017/12/14 18:59:51","新北市永和區安樂路451號","121.514303333333","25.004945","6500400","永和區"
"234011","9373-KE","2017/12/14 18:59:40","新北市永和區信義路120號","121.51249","25.0146833333333","6500400","永和區"
"249005","172-UM","2017/12/14 18:59:55","新北市八里區長道坑6號","121.397766666667","25.123485","6502300","八里區"
"249001","173-UM","2017/12/14 18:59:37","新北市八里區龍米路二段156號","121.435498333333","25.1574716666667","6502300","八里區"
"248016","026-BX","2017/12/14 18:59:57","新北市五股區成泰路三段543巷12弄11號","121.451305","25.1024033333333","6501500","五股區"
"248006","077-UY","2017/12/14 18:59:52","新北市五股區中興路一段68號","121.46732","25.0730216666667","6501500","五股區"
"248008","095-VK","2017/12/14 18:59:39","新北市五股區中興路一段118巷6弄5號","121.46627","25.0742533333333","6501500","五股區"
"248020","225-UY","2017/12/14 18:57:32","新北市五股區凌雲路三段57號","121.425295","25.1250116666667","6501500","五股區"
"248012","247-BX","2017/12/14 18:59:51","新北市五股區工商路38號","121.439383333333","25.0837533333333","6501500","五股區"
"248010","272-BY","2017/12/14 18:59:44","新北市五股區水碓七路32號","121.429068333333","25.0716483333333","6501500","五股區"
"248004","677-BX","2017/12/14 18:59:48","新北市五股區民義路二段76-1號","121.404495","25.1100833333333","6501500","五股區"
"248002","678-BX","2017/12/14 18:59:47","新北市五股區凌雲路一段118號","121.450108333333","25.1017966666667","6501500","五股區"
"234023","9380-KE","2017/12/14 18:59:38","新北市永和區竹林路75巷33弄1號","121.520545","25.0142133333333","6500400","永和區"
"234077","969-R7","2017/12/14 18:59:50","新北市永和區智光街30號","121.517813333333","24.9988616666667","6500400","永和區"
"234074","AAC-211","2017/12/14 18:59:52","新北市永和區環河東路二段100號","121.524146666667","25.0103","6500400","永和區"
"234067","AAC-212","2017/12/14 18:59:44","新北市永和區中和路625號","121.512971666667","25.0049183333333","6500400","永和區"
"234003","AAC-295","2017/12/14 18:59:50","新北市永和區和平街38號","121.513061666667","25.0099483333333","6500400","永和區"
"232011","375-UM","2017/12/14 18:59:39","新北市坪林區坪林街96號","121.711981666667","24.9365283333333","6502000","坪林區"
"244013","069-UM","2017/12/14 18:59:46","新北市林口區麗園一街6巷2-3號","121.376381666667","25.0698833333333","6501700","林口區"
"244019","403-UM","2017/12/14 18:59:38","新北市林口區忠孝路642號","121.378946666667","25.0684666666667","6501700","林口區"
"244023","483-VK","2017/12/14 18:59:54","新北市林口區文林六街62巷58號","121.370918333333","25.0821066666667","6501700","林口區"
"244017","485-VK","2017/12/14 18:59:36","新北市林口區文化二路一段68巷18-2號","121.366163333333","25.0677233333333","6501700","林口區"
"244009","657-BX","2017/12/14 18:59:45","新北市林口區竹林路348巷19號","121.393015","25.08367","6501700","林口區"
"244011","701-TV","2017/12/14 18:59:45","新北市林口區仁愛路一段285巷21-1號","121.394861666667","25.0743433333333","6501700","林口區"
"244025","837-TS","2017/12/14 18:59:50","新北市林口區文化北路一段472號","121.365735","25.077395","6501700","林口區"
"243012","AAD-798","2017/12/14 18:59:42","新北市泰山區福興三街170號","121.43242","25.0569383333333","6501600","泰山區"
"243015","380-SR","2017/12/14 18:59:53","新北市泰山區明志路一段203號","121.432663333333","25.0614066666667","6501600","泰山區"
"243014","421-VK","2017/12/14 18:59:57","新北市泰山區泰林路二段593號","121.421748333333","25.06346","6501600","泰山區"
"243010","KEA-2215","2017/12/14 18:59:42","新北市泰山區辭修路28號","121.429093333333","25.05838","6501600","泰山區"
"243009","KEA-2216","2017/12/14 18:59:51","新北市泰山區福德街18號","121.432061666667","25.0626666666667","6501600","泰山區"
"243016","680-BX","2017/12/14 18:59:47","新北市泰山區明志路二段137號","121.427616666667","25.05068","6501600","泰山區"
"222003","436-BY","2017/12/14 18:59:40","新北市深坑區深南路51-1號","121.621421666667","25.0100966666667","6501800","深坑區"
"222002","659-BX","2017/12/14 18:59:42","新北市深坑區文山路一段31巷2號","121.629905","25.0033216666667","6501800","深坑區"
"231059","046-UY","2017/12/14 18:59:48","新北市新店區安康路一段266巷4號","121.519783333333","24.9640733333333","6500600","新店區"
"231061","047-UY","2017/12/14 18:59:48","新北市新店區安康路二段1-5號","121.517298333333","24.9638266666667","6500600","新店區"
"231060","106-UY","2017/12/14 18:59:51","新北市新店區車子路10-4號","121.504788333333","24.95459","6500600","新店區"
"231051","107-UY","2017/12/14 18:59:40","新北市新店區百忍街3號","121.534935","24.975545","6500600","新店區"
"231047","108-UY","2017/12/14 18:59:42","新北市新店區德正街27巷29弄46-1號","121.545793333333","24.97263","6500600","新店區"
"231052","187-VK","2017/12/14 18:59:49","新北市新店區屈尺路2號","121.549273333333","24.9226733333333","6500600","新店區"
"231050","KEA-2219","2017/12/14 18:59:45","新北市新店區新烏路一段11巷15號","121.547675","24.9509816666667","6500600","新店區"
"231063","268-BY","2017/12/14 18:59:40","新北市新店區車子路109號","121.505241666667","24.9521033333333","6500600","新店區"
"231046","278-BY","2017/12/14 18:59:47","新北市新店區直潭四街30號","121.533896666667","24.9416283333333","6500600","新店區"
"231054","AAD-862","2017/12/14 18:59:56","新北市新店區新店路13號","121.540343333333","24.9528533333333","6500600","新店區"
"231058","3712-VJ","2017/12/14 18:59:57","新北市新店區中興路一段121號","121.541678333333","24.9630516666667","6500600","新店區"
"231056","3713-VJ","2017/12/14 18:59:45","新北市新店區大同街10號","121.539756666667","24.9800233333333","6500600","新店區"
"231055","4716-K9","2017/12/14 18:59:38","新北市新店區新生街28號","121.539661666667","24.9666616666667","6500600","新店區"
"231067","4772-VM","2017/12/14 18:59:51","新北市新店區安康路一段247巷29號","121.524605","24.961955","6500600","新店區"
"231065","512-UM","2017/12/14 18:59:41","新北市新店區安祥路109巷151弄2號","121.478193333333","24.9576083333333","6500600","新店區"
"231064","515-UM","2017/12/14 18:59:55","新北市新店區安康路一段266巷4號","121.519811666667","24.96404","6500600","新店區"
"231042","616-UM","2017/12/14 18:59:50","新北市新店區中興路一段282號","121.545715","24.9685583333333","6500600","新店區"
"231041","618-UM","2017/12/14 18:59:55","新北市新店區環河路62號","121.536996666667","24.9626083333333","6500600","新店區"
"231040","619-UM","2017/12/14 18:59:44","新北市新店區中正路376號","121.534833333333","24.9768116666667","6500600","新店區"
"231049","719-UM","2017/12/14 18:59:40","新北市新店區中正路454-5號","121.53455","24.979025","6500600","新店區"
"231062","720-UM","2017/12/14 18:59:54","新北市新店區吉安街39號","121.51544","24.966115","6500600","新店區"
"231044","897-TW","2017/12/14 18:59:50","新北市新店區寶中路72號","121.547846666667","24.9805866666667","6500600","新店區"
"231045","898-TW","2017/12/14 18:59:54","新北市新店區光明街13號","121.538278333333","24.959385","6500600","新店區"
"231043","899-TW","2017/12/14 18:59:39","新北市新店區北新路二段1號","121.542705","24.9712783333333","6500600","新店區"
"231066","AKT-0513","2017/12/14 18:59:47","新北市新店區安康路二段317號","121.499488333333","24.9567483333333","6500600","新店區"
"235066","003-UY","2017/12/14 18:59:51","新北市中和區水源路6巷16號","121.503255","25.0032533333333","6500300","中和區"
"235064","005-UY","2017/12/14 18:59:38","新北市中和區景平路545巷9號","121.498096666667","24.9990166666667","6500300","中和區"
"235063","006-UY","2017/12/14 18:59:48","新北市中和區中正路462號","121.490176666667","24.9942633333333","6500300","中和區"
"235046","031-BX","2017/12/14 18:59:50","新北市中和區興南路一段135巷22弄12號","121.509043333333","24.9867166666667","6500300","中和區"
"235056","096-UM","2017/12/14 18:59:49","新北市中和區中山路二段568巷32號","121.482368333333","25.006605","6500300","中和區"
"235039","097-UM","2017/12/14 18:59:44","新北市中和區安樂路217巷40弄1號","121.51319","24.997835","6500300","中和區"
"235040","150-BY","2017/12/14 18:59:50","新北市中和區安樂路101-2號","121.513268333333","24.9951566666667","6500300","中和區"
"235058","151-BY","2017/12/14 18:59:36","新北市中和區連城路569巷9弄8號","121.479406666667","24.9939866666667","6500300","中和區"
"235055","183-VK","2017/12/14 18:59:50","新北市中和區民德路4號","121.468795","25.0031483333333","6500300","中和區"
"235038","185-VK","2017/12/14 18:59:43","新北市中和區大勇街48號","121.517646666667","24.9940166666667","6500300","中和區"
"235049","186-VK","2017/12/14 18:59:49","新北市中和區景安路167巷15號","121.506261666667","24.9947916666667","6500300","中和區"
"235067","255-BX","2017/12/14 18:59:47","新北市中和區中正路829號","121.48463","25.00197","6500300","中和區"
"235044","293-VK","2017/12/14 18:59:51","新北市中和區中興街161巷2弄1號","121.500355","24.9908916666667","6500300","中和區"
"235072","301-VK","2017/12/14 18:59:47","新北市中和區中山路二段109號","121.503155","25.0039316666667","6500300","中和區"
"235043","352-BY","2017/12/14 18:59:51","新北市中和區成功路41巷1號","121.526166666667","24.99332","6500300","中和區"
"235068","377-QA","2017/12/14 18:59:39","新北市中和區圓通路220號","121.495281666667","24.993175","6500300","中和區"
"235061","378-QA","2017/12/14 18:59:36","新北市中和區民治街130巷4號","121.475016666667","25.002765","6500300","中和區"
"235050","4979-A6","2017/12/14 18:59:47","新北市中和區華新街50巷7號","121.507663333333","24.9838433333333","6500300","中和區"
"235069","4980-A6","2017/12/14 18:59:50","新北市中和區中和路143號","121.502176666667","24.999765","6500300","中和區"
"235042","551-UM","2017/12/14 18:59:56","新北市中和區秀朗路三段36巷16號","121.525753333333","24.9958833333333","6500300","中和區"
"235070","558-UM","2017/12/14 18:59:39","新北市中和區中和路163號","121.50281","24.9998216666667","6500300","中和區"
"235045","565-BX","2017/12/14 18:59:45","新北市中和區景新街467巷6號","121.513716666667","24.9881516666667","6500300","中和區"
"235054","640-BX","2017/12/14 18:59:35","新北市中和區民享街27巷1號","121.474061666667","25.00477","6500300","中和區"
"235060","647-TV","2017/12/14 18:59:56","新北市中和區中山路三段124號","121.474388333333","25.0062383333333","6500300","中和區"
"235047","732-UM","2017/12/14 18:59:38","新北市中和區興南路二段92號","121.505281666667","24.984515","6500300","中和區"
"235062","800-TS","2017/12/14 18:59:47","新北市中和區中山路二段331號","121.492838333333","25.002475","6500300","中和區"
"235057","801-TS","2017/12/14 18:59:54","新北市中和區民安街63號","121.47876","24.999725","6500300","中和區"
"235052","805-TS","2017/12/14 18:59:40","新北市中和區興南路二段301-1號","121.501943333333","24.9812233333333","6500300","中和區"
"235048","896-TW","2017/12/14 18:59:39","新北市中和區華新街109巷4號","121.508883333333","24.9817916666667","6500300","中和區"
"235053","900-TW","2017/12/14 18:59:41","新北市中和區民德路360號","121.46619","24.9937566666667","6500300","中和區"
"235065","911-UM","2017/12/14 18:59:44","新北市中和區勝利路35巷3弄10號","121.49948","25.0071716666667","6500300","中和區"
"235051","157-BY","2017/12/14 18:59:52","新北市中和區忠孝街106巷14號","121.512625","24.98439","6500300","中和區"
"235037","AAC-213","2017/12/14 18:59:50","新北市中和區自立路17號","121.522226666667","24.9960833333333","6500300","中和區"
"235059","AAC-215","2017/12/14 18:59:46","新北市中和區圓通路367巷20弄9號","121.491713333333","24.9884066666667","6500300","中和區"
"220068","013-TV","2017/12/12 21:16:53","新北市板橋區民生路三段301號","121.463818333333","25.0305916666667","6500100","板橋區"
"220065","072-UY","2017/12/14 18:59:42","新北市板橋區漢生東路324號","121.471678333333","25.0079133333333","6500100","板橋區"
"220086","073-UY","2017/12/14 18:59:53","新北市板橋區中正路166號","121.45654","25.0169416666667","6500100","板橋區"
"220106","075-UY","2017/12/14 18:59:47","新北市板橋區文化路二段124巷28-2號","121.471221666667","25.025625","6500100","板橋區"
"220069","AAD-861","2017/12/14 18:59:49","新北市板橋區華興街79號","121.456906666667","25.0050733333333","6500100","板橋區"
"220102","120-SR","2017/12/14 18:59:56","新北市板橋區懷德街233巷2號","121.480695","25.02863","6500100","板橋區"
"226004","312-R5","2017/12/14 18:59:45","新北市平溪區靜安路二段530巷21號","121.745948333333","25.0275983333333","6502400","平溪區"
"228003","097-TW","2017/12/14 18:59:43","新北市貢寮區和美里龍洞街38-4號","121.915878333333","25.1109066666667","6502600","貢寮區"
"228001","212-TW","2017/12/14 18:59:42","新北市貢寮區仁理村研海街12-1號","121.923783333333","25.051635","6502600","貢寮區"
"228002","585-TW","2017/12/14 18:59:39","新北市貢寮區福隆里東興街106巷25弄1號","121.946343333333","25.018325","6502600","貢寮區"
"224006","676-BX","2017/12/14 18:59:50","新北市瑞芳區民族街26號","121.806661666667","25.1068833333333","6501200","瑞芳區"
"224009","285-BY","2017/12/14 18:59:53","新北市瑞芳區祈堂路8號","121.859211666667","25.1121066666667","6501200","瑞芳區"
"224008","275-VK","2017/12/14 18:59:53","新北市瑞芳區逢甲路343-14號","121.799091666667","25.112435","6501200","瑞芳區"
"224007","273-VK","2017/12/14 18:59:51","新北市瑞芳區大埔路192-1號","121.761458333333","25.101185","6501200","瑞芳區"
"224005","271-BY","2017/12/14 18:59:55","新北市瑞芳區海濱路77-10號","121.831176666667","25.1234","6501200","瑞芳區"
"227004","642-TC","2017/12/14 18:59:52","新北市雙溪區平林里康福家園10號","121.858795","25.0373566666667","6502500","雙溪區"
"227010","400-TW","2017/12/14 18:59:54","新北市雙溪區牡丹里中正路58巷25號","121.866523333333","25.0416616666667","6502500","雙溪區"
"253005","032-BX","2017/12/14 18:59:50","新北市石門區尖子鹿76號","121.571325","25.2968566666667","6502200","石門區"
"253006","295-VK","2017/12/14 18:59:44","新北市石門區八甲4-4號","121.521268333333","25.2824533333333","6502200","石門區"
"222001","KEA-2212","2017/12/14 18:59:49","新北市深坑區北深路一段300號","121.624258333333","25.0058333333333","6501800","深坑區"
"208002","742-BX","2017/12/14 18:59:47","新北市金山區仁愛路69號","121.63478","25.2209516666667","6502700","金山區"
"208003","665-BX","2017/12/14 18:59:51","新北市金山區中正路21號","121.635965","25.22223","6502700","金山區"
"208001","761-BX","2017/12/14 18:59:53","新北市金山區中山路89號","121.640171666667","25.2188333333333","6502700","金山區"
"251009","008-UM","2017/12/14 18:59:47","新北市淡水區重建街66號","121.439871666667","25.1719133333333","6501000","淡水區"
"251001","011-UM","2017/12/14 18:59:46","新北市淡水區自強路58號","121.46324","25.127545","6501000","淡水區"
"251007","179-VK","2017/12/14 18:59:59","新北市淡水區民生路113巷1弄41號","121.46287","25.1386233333333","6501000","淡水區"
"251014","182-VK","2017/12/14 18:59:54","新北市淡水區小中寮22號","121.489205","25.2295133333333","6501000","淡水區"
"251010","413-VK","2017/12/14 18:59:44","新北市淡水區淡海路85號","121.422805","25.1816166666667","6501000","淡水區"
"251016","442-VK","2017/12/14 18:59:44","新北市淡水區埤島23-3號","121.4471","25.1993533333333","6501000","淡水區"
"251005","443-VK","2017/12/14 18:59:38","新北市淡水區崁頂76-2號","121.431885","25.20436","6501000","淡水區"
"251011","650-BX","2017/12/14 18:59:43","新北市淡水區中正東路二段153號","121.45964","25.1464683333333","6501000","淡水區"
"251002","672-BX","2017/12/14 18:59:45","新北市淡水區學府路4號","121.447466666667","25.167775","6501000","淡水區"
"251003","766-UM","2017/12/14 18:59:42","新北市淡水區中山北路一段149巷24號","121.442936666667","25.177915","6501000","淡水區"
"207003","550-UM","2017/12/14 18:59:48","新北市萬里區大鵬里頂社29號","121.656578333333","25.210775","6502800","萬里區"
"207004","225-TW","2017/12/14 18:59:42","新北市萬里區萬里里獅頭路23號","121.693273333333","25.1782566666667","6502800","萬里區"
"252002","178-VK","2017/12/14 18:59:52","新北市三芝區中正路一段67-1號","121.503915","25.2572566666667","6502100","三芝區"
"252003","249-BX","2017/12/14 18:59:54","新北市三芝區後厝里北勢子42-1號","121.47187","25.2523166666667","6502100","三芝區"
"252001","292-VK","2017/12/14 18:59:39","新北市三芝區中興街二段260號","121.501723333333","25.2531133333333","6502100","三芝區"
"237004","078-UY","2017/12/14 18:59:50","新北市三峽區有木191號","121.448305","24.8437466666667","6500900","三峽區"
"237007","153-BY","2017/12/14 18:59:42","新北市三峽區中正路二段285號","121.365991666667","24.9112266666667","6500900","三峽區"
"237013","252-BX","2017/12/14 18:59:39","新北市三峽區光明路69巷25號","121.376598333333","24.9291816666667","6500900","三峽區"
"237012","275-BY","2017/12/14 18:59:42","新北市三峽區三樹路222巷72-1號","121.383451666667","24.9421933333333","6500900","三峽區"
"237008","302-VK","2017/12/14 18:59:45","新北市三峽區中正路一段309號","121.371383333333","24.924615","6500900","三峽區"
"237014","433-BY","2017/12/14 18:59:55","新北市三峽區隆恩街232號","121.35798","24.9412166666667","6500900","三峽區"
"237006","5529-G3","2017/12/14 18:59:48","新北市三峽區溪東路205巷8號","121.404851666667","24.9337983333333","6500900","三峽區"
"237011","572-TV","2017/12/14 18:06:51","新北市三峽區溪北街2號","121.396","24.93623","6500900","三峽區"
"237016","649-BX","2017/12/14 18:59:22","新北市三峽區建安88-3號","121.454953333333","24.920995","6500900","三峽區"
"237010","706-TV","2017/12/14 18:59:45","新北市三峽區民生街57號","121.375273333333","24.936135","6500900","三峽區"
"237005","AKY-6261","2017/12/14 18:59:41","新北市三峽區中山路459巷163-3號","121.348788333333","24.9330566666667","6500900","三峽區"
"236071","105-UM","2017/12/14 18:59:48","新北市土城區清水路99巷7號","121.456773333333","24.9820616666667","6501300","土城區"
"236042","107-UM","2017/12/14 18:59:45","新北市土城區學府路一段229巷13號","121.45178","24.98372","6501300","土城區"
"236078","166-UM","2017/12/14 18:59:45","新北市土城區中央路四段464號","121.409906666667","24.9506116666667","6501300","土城區"
"236030","253-BX","2017/12/14 18:59:45","新北市土城區慶利街18號","121.439583333333","24.973685","6501300","土城區"
"236026","269-VK","2017/12/14 18:59:44","新北市土城區光明街4號","121.44204","24.974475","6501300","土城區"
"236014","270-VK","2017/12/14 18:59:36","新北市土城區立德路105號","121.463575","24.98747","6501300","土城區"
"236037","271-VK","2017/12/14 18:59:44","新北市土城區青仁路39號","121.461076666667","24.979115","6501300","土城區"
"236021","401-BY","2017/12/14 18:59:45","新北市土城區明峰街50號","121.467771666667","24.98645","6501300","土城區"
"236058","912-UM","2017/12/14 18:59:41","新北市土城區金城路二段54號","121.45188","24.97931","6501300","土城區"
"236051","913-UM","2017/12/14 18:59:46","新北市土城區青雲路322巷2弄2號","121.458571666667","24.977155","6501300","土城區"
"236062","915-UM","2017/12/14 18:59:49","新北市土城區延和路41巷6弄18號","121.466715","24.9903416666667","6501300","土城區"
"236053","AAC-216","2017/12/14 18:59:47","新北市土城區學成路91巷2號","121.4509","24.988485","6501300","土城區"
"242001","233-RS","2017/12/14 15:11:49","新北市新莊區環河路48-7號","121.43692","25.0097883333333","6500500","新莊區"
"242056","349-TH","2017/12/14 18:59:37","新北市新莊區環河路636-7號","121.437435","25.0117266666667","6500500","新莊區"
"238023","601-UM","2017/12/14 18:59:50","新北市樹林區工興街14巷12號","121.399555","25.013245","6500700","樹林區"
"238019","599-UM","2017/12/14 18:59:55","新北市樹林區東榮街91巷1弄2號","121.416285","24.9822883333333","6500700","樹林區"
"238018","571-TV","2017/12/14 18:59:58","新北市樹林區中華路225號","121.418843333333","24.9809483333333","6500700","樹林區"
"238024","5061-A6","2017/12/14 18:59:35","新北市樹林區中山路三段210-2號","121.380823333333","24.9671133333333","6500700","樹林區"
"238021","KEA-2217","2017/12/14 18:59:45","新北市樹林區西圳街二段82-3號","121.385298333333","24.958215","6500700","樹林區"
"238022","KEA-2213","2017/12/14 18:59:39","新北市樹林區東興街13號","121.410068333333","24.978595","6500700","樹林區"
"238025","303-VK","2017/12/14 18:59:39","新北市樹林區民和街59號","121.381731666667","24.9707","6500700","樹林區"
"238017","283-BY","2017/12/14 18:59:52","新北市樹林區中山路三段53號","121.400881666667","24.9751316666667","6500700","樹林區"
"238014","282-BY","2017/12/14 18:59:41","新北市樹林區潭興街143巷11號","121.42548","24.9999883333333","6500700","樹林區"
"238020","268-VK","2017/12/14 18:59:46","新北市樹林區俊英街79號","121.426093333333","25.0075633333333","6500700","樹林區"
"238026","172-UY","2017/12/14 18:59:55","新北市樹林區中山路三段343號","121.390295","24.9708716666667","6500700","樹林區"
"238016","169-UY","2017/12/14 18:59:44","新北市樹林區文化街23號","121.419315","24.987625","6500700","樹林區"
"239007","AAC-297","2017/12/14 18:59:51","新北市鶯歌區中正一路333-1號","121.356588333333","24.957845","6500800","鶯歌區"
"239006","891-R6","2017/12/14 18:59:50","新北市鶯歌區鶯桃路296巷84弄18號","121.337151666667","24.9615083333333","6500800","鶯歌區"
"239008","527-UM","2017/12/14 18:59:42","新北市鶯歌區國際二路48號","121.335728333333","24.9757966666667","6500800","鶯歌區"
"239005","526-UM","2017/12/14 18:59:43","新北市鶯歌區大湖路361巷23號","121.33118","24.9772216666667","6500800","鶯歌區"
"239001","417-VK","2017/12/14 18:59:37","新北市鶯歌區永明街60巷42號","121.34068","24.9550883333333","6500800","鶯歌區"
"239003","360-BY","2017/12/14 18:59:42","新北市鶯歌區鶯桃路658巷3號","121.329255","24.96935","6500800","鶯歌區"
"239002","359-BY","2017/12/14 18:59:50","新北市鶯歌區中山路130號","121.350313333333","24.957095","6500800","鶯歌區"
"239004","193-VK","2017/12/14 18:59:56","新北市鶯歌區中正三路237號","121.334228333333","24.9388","6500800","鶯歌區"
"221008","489-VK","2017/12/14 18:59:41","新北市汐止區康寧街753巷2弄28號","121.640495","25.0747316666667","6501100","汐止區"
"221036","130-UY","2017/12/14 18:59:42","新北市汐止區水碓街8號","121.664016666667","25.06979","6501100","汐止區"
"221010","269-BY","2017/12/14 18:59:38","新北市汐止區康寧街901號","121.651373333333","25.0751066666667","6501100","汐止區"
"221012","276-VK","2017/12/14 13:24:12","新北市汐止區汐萬路一段256巷3號","121.653461666667","25.0746116666667","6501100","汐止區"
"221012","278-VK","2017/12/14 18:59:50","新北市汐止區康寧街901號","121.650785","25.0752466666667","6501100","汐止區"
"221023","279-VK","2017/12/14 18:59:51","新北市汐止區康寧街901號","121.650996666667","25.0752516666667","6501100","汐止區"
"221032","280-BY","2017/12/14 18:59:39","新北市汐止區橫科路407巷81弄3號","121.62857","25.0481816666667","6501100","汐止區"
"221027","281-BY","2017/12/14 18:59:47","新北市汐止區康寧街901號","121.651485","25.0749816666667","6501100","汐止區"
"221029","298-VK","2017/12/14 18:59:37","新北市汐止區樟樹一路256號","121.64241","25.0673616666667","6501100","汐止區"
"221021","299-VK","2017/12/14 18:59:38","新北市汐止區康寧街901號","121.651551666667","25.0750266666667","6501100","汐止區"
"221031","353-TW","2017/12/14 18:59:49","新北市汐止區福德二路156巷12號","121.63011","25.06558","6501100","汐止區"
"221015","567-BX","2017/12/14 18:59:36","新北市汐止區鄉長路一段55巷5號","121.665526666667","25.076055","6501100","汐止區"
"221035","622-UM","2017/12/14 18:59:40","新北市汐止區汐萬路一段306號","121.65046","25.0745866666667","6501100","汐止區"
"221025","623-UM","2017/12/14 18:59:55","新北市汐止區汐萬路一段256巷3號","121.653391666667","25.0745216666667","6501100","汐止區"
"221038","646-BX","2017/12/14 18:59:42","新北市汐止區汐萬路一段312號","121.650653333333","25.075285","6501100","汐止區"
"221033","647-BX","2017/12/14 18:59:43","新北市汐止區南勢街1巷1號","121.626978333333","25.037425","6501100","汐止區"
"221002","707-TV","2017/12/14 18:59:54","新北市汐止區大同路一段2號","121.621068333333","25.054985","6501100","汐止區"
"221018","753-BX","2017/12/14 18:59:47","新北市汐止區汐萬路一段165號","121.653013333333","25.0710433333333","6501100","汐止區"
"220079","145-BY","2017/12/14 18:59:54","新北市板橋區民權路202巷9弄16號","121.459738333333","25.0155966666667","6500100","板橋區"
"220080","200-UY","2017/12/14 18:59:38","新北市板橋區大觀路二段265巷1弄12號","121.443493333333","24.9985166666667","6500100","板橋區"
"220082","610-BX","2017/12/14 18:59:47","新北市板橋區溪北路36號","121.427073333333","24.9902566666667","6500100","板橋區"
"220101","245-BX","2017/12/14 18:59:52","新北市板橋區文化路二段182巷23號","121.472226666667","25.0265283333333","6500100","板橋區"
"220056","276-BY","2017/12/14 18:59:56","新北市板橋區信義路148號","121.458911666667","24.991755","6500100","板橋區"
"220072","277-BY","2017/12/14 18:59:53","新北市板橋區篤行路一段33號","121.432066666667","24.994425","6500100","板橋區"
"220071","283-VK","2017/12/14 18:59:54","新北市板橋區重慶路245巷54號","121.465183333333","25.00088","6500100","板橋區"
"220094","285-UM","2017/12/14 18:59:42","新北市板橋區文化路二段76號","121.46936","25.0250166666667","6500100","板橋區"
"220053","285-VK","2017/12/14 18:59:43","新北市板橋區中山路二段89巷48號","121.473731666667","25.0171833333333","6500100","板橋區"
"220083","286-VK","2017/12/14 18:59:46","新北市板橋區大觀路一段38巷156弄70號","121.442905","25.006535","6500100","板橋區"
"220081","287-VK","2017/12/14 18:59:50","新北市板橋區光華街19巷68號","121.452933333333","25.0119666666667","6500100","板橋區"
"220090","288-VK","2017/12/14 18:59:52","新北市板橋區四維路177巷1弄1號","121.464268333333","25.0263366666667","6500100","板橋區"
"220061","293-UM","2017/12/14 18:59:55","新北市板橋區富山街85巷6弄2號","121.476603333333","25.02111","6500100","板橋區"
"220084","296-UM","2017/12/14 18:59:56","新北市板橋區龍興街61號","121.44308","25.0013166666667","6500100","板橋區"
"220075","297-UM","2017/12/14 18:59:56","新北市板橋區後菜園街32巷6號","121.456676666667","25.0104366666667","6500100","板橋區"
"220092","299-UM","2017/12/14 18:59:50","新北市板橋區漢生東路83巷2號","121.466956666667","25.0158866666667","6500100","板橋區"
"220062","305-R5","2017/12/14 18:59:50","新北市板橋區三民路二段245巷6號","121.479528333333","25.0125433333333","6500100","板橋區"
"220098","317-R6","2017/12/14 18:59:54","新北市板橋區民有街18號","121.466246666667","25.024955","6500100","板橋區"
"220064","486-VK","2017/12/14 18:59:45","新北市板橋區漢生東路230號","121.467661666667","25.01398","6500100","板橋區"
"220089","487-VK","2017/12/14 18:59:38","新北市板橋區文化路二段260號","121.471215","25.0284683333333","6500100","板橋區"
"220088","491-VK","2017/12/14 18:59:45","新北市板橋區民生路二段232-13號","121.46874","25.0224133333333","6500100","板橋區"
"220035","560-BX","2017/12/14 18:59:44","新北市板橋區中正路341巷37號","121.454003333333","25.01985","6500100","板橋區"
"220103","561-BX","2017/12/14 18:59:41","新北市板橋區介壽街86號","121.470313333333","25.0183683333333","6500100","板橋區"
"220063","609-BX","2017/12/14 18:59:51","新北市板橋區中山路二段199號","121.47648","25.0171133333333","6500100","板橋區"
"220091","637-BX","2017/12/14 18:59:55","新北市板橋區莒光路165巷46號","121.47467","25.025245","6500100","板橋區"
"220057","686-BX","2017/12/14 18:59:54","新北市板橋區館前西路44號","121.45864","25.0069633333333","6500100","板橋區"
"220077","687-BX","2017/12/14 18:59:47","新北市板橋區龍興街2號","121.442718333333","24.9993383333333","6500100","板橋區"
"220093","689-BX","2017/12/14 18:59:55","新北市板橋區民生路三段126號","121.466341666667","25.0267783333333","6500100","板橋區"
"220054","741-BX","2017/12/14 18:59:49","新北市板橋區重慶路139巷2號","121.462618333333","25.0044416666667","6500100","板橋區"
"220055","827-TW","2017/12/14 18:59:39","新北市板橋區中山路一段143號","121.464701666667","25.01166","6500100","板橋區"
"220067","829-TW","2017/12/14 18:59:38","新北市板橋區三民路186巷13-1號","121.478638333333","25.0149733333333","6500100","板橋區"
"220096","831-TW","2017/12/14 18:59:51","新北市板橋區莒光路75號","121.471541666667","25.0242","6500100","板橋區"
"220074","895-R6","2017/12/14 18:59:54","新北市板橋區林園街53號","121.453686666667","25.010215","6500100","板橋區"
"220073","985-R7","2017/12/14 18:59:46","新北市板橋區民權路208號","121.458975","25.0139483333333","6500100","板橋區"
"220097","AAC-210","2017/12/14 18:59:39","新北市板橋區陽明街166號","121.463695","25.02459","6500100","板橋區"
"220070","AAC-253","2017/12/14 18:59:54","新北市板橋區四川路一段353號","121.45832","24.999835","6500100","板橋區"
