"lineid","car","time","location","longitude","latitude","cityid","cityname"
"234064","337-UY","2017/12/14 20:39:42","新北市永和區環河西路一段1號","121.515373333333","25.0182116666667","6500400","永和區"
"234086","338-UY","2017/12/14 20:39:51","新北市中和區光環路二段27號","121.488231666667","25.0122983333333","6500400","永和區"
"234017","745-BX","2017/12/14 20:39:46","新北市板橋區民治街61巷30號","121.481546666667","25.0343","6500400","永和區"
"234030","746-BX","2017/12/14 20:39:48","新北市板橋區民生路二段234巷9號","121.468306666667","25.022715","6500400","永和區"
"234061","AAD-866","2017/12/14 20:39:47","新北市永和區中正路381號","121.517113333333","25.00368","6500400","永和區"
"249001","173-UM","2017/12/14 20:39:43","新北市八里區中山路三段333號","121.377443333333","25.1386883333333","6502300","八里區"
"249004","303-UY","2017/12/14 20:39:47","新北市八里區中山路一段157巷30號","121.41281","25.1580566666667","6502300","八里區"
"249002","305-UY","2017/12/14 20:39:55","新北市八里區龍米路二段170號","121.434598333333","25.1581816666667","6502300","八里區"
"234023","9380-KE","2017/12/14 20:39:58","新北市永和區竹林路25巷17弄2號","121.517988333333","25.0149366666667","6500400","永和區"
"234074","AAC-211","2017/12/14 20:39:52","新北市永和區竹林路119巷3號","121.52023","25.0114866666667","6500400","永和區"
"244019","403-UM","2017/12/14 20:39:57","新北市八里區長道坑2號","121.393493333333","25.125145","6501700","林口區"
"243011","297-R6","2017/12/14 20:39:50","新北市泰山區公園路54號","121.428023333333","25.0548766666667","6501600","泰山區"
"243009","KEA-2216","2017/12/14 20:39:51","新北市泰山區泰林路三段745巷145號","121.407156666667","25.068275","6501600","泰山區"
"243016","680-BX","2017/12/14 20:39:47","新北市泰山區明志路二段1號","121.430181666667","25.0538216666667","6501600","泰山區"
"222003","436-BY","2017/12/14 20:39:51","新北市深坑區阿柔洋8-1號","121.612808333333","24.99973","6501800","深坑區"
"222002","659-BX","2017/12/14 20:39:42","新北市深坑區萬福路47號","121.59961","25.006825","6501800","深坑區"
"231059","046-UY","2017/12/14 20:39:48","新北市新店區僑愛三路32號","121.49903","24.9447","6500600","新店區"
"231061","047-UY","2017/12/14 20:39:48","新北市新店區新和街39號","121.519316666667","24.9850333333333","6500600","新店區"
"231060","106-UY","2017/12/14 20:39:51","新北市新店區安康路三段740號","121.4738","24.942005","6500600","新店區"
"231051","107-UY","2017/12/14 20:39:40","新北市新店區中央八街74號","121.527556666667","24.9769","6500600","新店區"
"231047","108-UY","2017/12/14 20:39:41","新北市新店區寶慶街34號","121.543161666667","24.9867466666667","6500600","新店區"
"231052","187-VK","2017/12/14 20:39:49","新北市新店區松林路15號","121.547361666667","24.9106083333333","6500600","新店區"
"231050","KEA-2219","2017/12/14 20:39:50","新北市新店區建安街18號","121.539906666667","24.9754616666667","6500600","新店區"
"231057","256-BX","2017/12/14 20:39:51","新北市新店區花園六路二段14號","121.554856666667","24.933385","6500600","新店區"
"231063","268-BY","2017/12/14 20:39:40","新北市新店區玫瑰路4-1號","121.493626666667","24.9513733333333","6500600","新店區"
"231054","AAD-862","2017/12/14 20:39:56","新北市新店區北新路一段64巷39弄4號","121.5425","24.965735","6500600","新店區"
"231058","3712-VJ","2017/12/14 20:39:37","新北市新店區平等街23號","121.536716666667","24.9737233333333","6500600","新店區"
"231056","3713-VJ","2017/12/14 20:39:45","新北市新店區中央路31號","121.532941666667","24.9778366666667","6500600","新店區"
"231065","512-UM","2017/12/14 20:39:40","新北市新店區安祥路102巷120號","121.486738333333","24.96414","6500600","新店區"
"231064","515-UM","2017/12/14 20:39:55","新北市新店區安和路三段169號","121.515993333333","24.9860133333333","6500600","新店區"
"231042","616-UM","2017/12/14 20:39:50","新北市新店區寶高路120巷1-1號","121.554621666667","24.9759533333333","6500600","新店區"
"231041","618-UM","2017/12/14 20:39:55","新北市新店區中正路568號","121.533808333333","24.9877083333333","6500600","新店區"
"231040","619-UM","2017/12/14 20:39:44","新北市新店區中正路263巷12號","121.538098333333","24.9730983333333","6500600","新店區"
"231068","718-UY","2017/12/14 20:39:47","新北市新店區中興路三段330號","121.542165","24.986575","6500600","新店區"
"231049","719-UM","2017/12/14 20:39:40","新北市新店區永業路81巷11弄8號","121.53158","24.9505966666667","6500600","新店區"
"231062","720-UM","2017/12/14 20:39:34","新北市新店區安康路三段148號","121.49067","24.951725","6500600","新店區"
"231044","897-TW","2017/12/14 20:39:50","新北市新店區建國路293巷1號","121.536651666667","24.9862133333333","6500600","新店區"
"231045","898-TW","2017/12/14 20:39:53","新北市新店區長春路557-1號","121.553273333333","24.9605066666667","6500600","新店區"
"231043","899-TW","2017/12/14 20:39:39","新北市新店區建國路37巷1號","121.540456666667","24.9747683333333","6500600","新店區"
"231066","AKT-0513","2017/12/14 20:39:47","新北市新店區安興路112號","121.514596666667","24.977655","6500600","新店區"
"241011","013-R5","2017/12/14 20:39:50","新北市三重區龍濱路219巷9號","121.502193333333","25.0720666666667","6500200","三重區"
"241028","022-UY","2017/12/14 20:39:39","新北市三重區光興街89號","121.497491666667","25.0599383333333","6500200","三重區"
"241008","059-VK","2017/12/14 20:39:36","新北市三重區下竹圍街42-1號","121.480945","25.0748133333333","6500200","三重區"
"241009","060-VK","2017/12/14 20:39:47","新北市三重區碧華街57號","121.48477","25.0812816666667","6500200","三重區"
"241031","061-VK","2017/12/14 20:39:52","新北市三重區重陽路一段113巷1弄49號","121.488101666667","25.0586083333333","6500200","三重區"
"241015","062-VK","2017/12/14 20:39:52","新北市三重區雙園街1號","121.497881666667","25.06829","6500200","三重區"
"241017","063-VK","2017/12/14 20:39:43","新北市三重區大同北路265號","121.49091","25.06726","6500200","三重區"
"241024","065-VK","2017/12/14 20:39:37","新北市三重區中正北路165巷2號","121.47853","25.0696333333333","6500200","三重區"
"241002","265-UM","2017/12/14 20:39:54","新北市三重區仁義街167巷32弄1號","121.498216666667","25.082195","6500200","三重區"
"241016","266-UM","2017/12/14 20:39:42","新北市三重區長壽西街143-3號","121.494341666667","25.0666683333333","6500200","三重區"
"241022","267-UM","2017/12/14 20:39:36","新北市三重區新北大道一段46巷18弄7號","121.488293333333","25.0620316666667","6500200","三重區"
"241018","268-UM","2017/12/14 20:39:50","新北市三重區重陽路三段115號","121.490838333333","25.0685533333333","6500200","三重區"
"241032","269-UM","2017/12/14 20:39:41","新北市三重區重陽路一段120巷35號","121.485105","25.0601783333333","6500200","三重區"
"241013","270-UM","2017/12/14 20:39:44","新北市三重區三和路四段83號","121.489301666667","25.0753866666667","6500200","三重區"
"241025","271-UM","2017/12/14 20:39:42","新北市三重區頂崁街140號","121.477618333333","25.06505","6500200","三重區"
"241007","398-BY","2017/12/14 20:39:45","新北市三重區三和路四段123號","121.484906666667","25.0777433333333","6500200","三重區"
"241020","413-TH","2017/12/14 20:39:58","新北市三重區忠孝路一段101號","121.489378333333","25.0721383333333","6500200","三重區"
"241004","475-VK","2017/12/14 20:39:37","新北市三重區仁愛街416號","121.490528333333","25.0813583333333","6500200","三重區"
"241019","478-VK","2017/12/14 20:39:57","新北市三重區忠孝路一段10巷32號","121.491263333333","25.0713366666667","6500200","三重區"
"241030","480-VK","2017/12/14 20:39:41","新北市三重區成功路73巷18號","121.489431666667","25.0519633333333","6500200","三重區"
"241014","543-UM","2017/12/14 20:39:54","新北市三重區萬壽街24號","121.499865","25.0694766666667","6500200","三重區"
"241023","545-UM","2017/12/14 20:39:48","新北市三重區自由街37巷1號","121.478865","25.0669466666667","6500200","三重區"
"241001","547-UM","2017/12/14 20:39:56","新北市三重區自強路三段110巷23號","121.486051666667","25.0746066666667","6500200","三重區"
"241035","743-BX","2017/12/14 20:39:41","新北市三重區正義北路366號","121.493913333333","25.0712883333333","6500200","三重區"
"241029","887-TS","2017/12/14 20:39:58","新北市三重區集美街126巷27號","121.490103333333","25.0538333333333","6500200","三重區"
"241012","941-UM","2017/12/14 20:39:39","新北市三重區秀江街31號","121.502096666667","25.07293","6500200","三重區"
"241033","AAC-255","2017/12/14 20:39:43","新北市三重區頂崁街23號","121.476041666667","25.0571783333333","6500200","三重區"
"235069","4980-A6","2017/12/14 20:39:50","新北市中和區員山路292號","121.481341666667","25.0023716666667","6500300","中和區"
"247022","893-R6","2017/12/14 20:39:58","新北市蘆洲區中正路263巷9號","121.466765","25.0868216666667","6501400","蘆洲區"
"247012","546-UM","2017/12/14 20:39:35","新北市蘆洲區民族路236巷38弄2號","121.481261666667","25.0887333333333","6501400","蘆洲區"
"247020","500-BY","2017/12/14 20:39:40","新北市蘆洲區民族路424-1號","121.473898333333","25.09187","6501400","蘆洲區"
"247008","341-TH","2017/12/14 20:39:40","新北市蘆洲區集賢路281號","121.481158333333","25.08287","6501400","蘆洲區"
"247010","339-TH","2017/12/14 20:39:36","新北市蘆洲區集賢路406號","121.480081666667","25.08185","6501400","蘆洲區"
"247002","337-TH","2017/12/14 20:39:52","新北市蘆洲區長安街375巷13號","121.456503333333","25.08787","6501400","蘆洲區"
"247004","336-TH","2017/12/14 20:39:37","新北市蘆洲區長安街222號","121.458215","25.0848883333333","6501400","蘆洲區"
"247016","057-VK","2017/12/14 20:39:55","新北市蘆洲區中山二路147號","121.47162","25.081405","6501400","蘆洲區"
"247006","056-VK","2017/12/14 20:39:54","新北市蘆洲區和平路126號","121.467393333333","25.0802583333333","6501400","蘆洲區"
"247014","007-UY","2017/12/14 20:39:48","新北市蘆洲區三民路101號","121.472435","25.0853833333333","6501400","蘆洲區"
"247024","002-UY","2017/12/14 20:39:53","新北市蘆洲區長樂路55號","121.46301","25.0861533333333","6501400","蘆洲區"
"222001","KEA-2212","2017/12/14 20:39:49","新北市深坑區北深路三段234號","121.600486666667","25.0040083333333","6501800","深坑區"
"251009","008-UM","2017/12/14 20:39:40","新北市淡水區民權路41號","121.459608333333","25.1400616666667","6501000","淡水區"
"251001","011-UM","2017/12/14 20:39:46","新北市淡水區淡金路57號","121.456175","25.1613683333333","6501000","淡水區"
"251008","181-VK","2017/12/14 20:39:45","新北市淡水區沙崙路181巷6弄7號","121.42452","25.1846916666667","6501000","淡水區"
"251014","182-VK","2017/12/14 20:39:54","新北市淡水區桂竹圍10-1號","121.470565","25.2314633333333","6501000","淡水區"
"251010","413-VK","2017/12/14 20:39:44","新北市淡水區沙崙路181巷15號","121.42399","25.1843783333333","6501000","淡水區"
"251012","441-VK","2017/12/14 20:39:54","新北市淡水區興仁路107號","121.451581666667","25.2181566666667","6501000","淡水區"
"251016","442-VK","2017/12/14 20:39:44","新北市淡水區後洲子12-1號","121.451043333333","25.22378","6501000","淡水區"
"251006","561-UM","2017/12/14 20:39:37","新北市淡水區商工路186巷11號","121.451021666667","25.1876066666667","6501000","淡水區"
"251011","650-BX","2017/12/14 20:39:47","新北市淡水區新市一路一段361號","121.436321666667","25.186195","6501000","淡水區"
"251002","672-BX","2017/12/14 20:39:43","新北市淡水區中正路32號","121.443998333333","25.1692316666667","6501000","淡水區"
"251003","766-UM","2017/12/14 20:39:41","新北市淡水區新民街120巷23號","121.438366666667","25.1781883333333","6501000","淡水區"
"252002","178-VK","2017/12/14 20:39:38","新北市三芝區淡金路二段47-2號","121.503553333333","25.260665","6502100","三芝區"
"252001","292-VK","2017/12/14 20:39:39","新北市三芝區長安街55號","121.5012","25.2565666666667","6502100","三芝區"
"242031","AAC-296","2017/12/14 20:39:44","新北市新莊區三泰路56-18號","121.434631666667","25.0372133333333","6500500","新莊區"
"242029","986-R7","2017/12/14 20:39:41","新北市新莊區昌隆街27號","121.454598333333","25.0510133333333","6500500","新莊區"
"242051","751-BX","2017/12/14 20:39:41","新北市新莊區西盛街282號","121.427901666667","25.01521","6500500","新莊區"
"242025","615-BX","2017/12/14 20:39:36","新北市三重區光復路二段188號","121.470953333333","25.062595","6500500","新莊區"
"242023","613-BX","2017/12/14 20:39:40","新北市新莊區化成路150號","121.465433333333","25.044955","6500500","新莊區"
"242027","612-BX","2017/12/14 20:39:41","新北市新莊區思源路63號","121.459955","25.040425","6500500","新莊區"
"242039","566-BX","2017/12/14 20:39:43","新北市新莊區民安路346號","121.42946","25.02241","6500500","新莊區"
"242044","497-BY","2017/12/14 20:39:37","新北市新莊區龍安路90號","121.417648333333","25.0207933333333","6500500","新莊區"
"242048","441-UM","2017/12/14 20:39:41","新北市新莊區中正路639號","121.430931666667","25.031475","6500500","新莊區"
"242053","440-UM","2017/12/14 20:39:50","新北市新莊區西盛街324巷11號","121.427431666667","25.0147183333333","6500500","新莊區"
"242034","415-TV","2017/12/14 20:39:55","新北市新莊區建中街127號","121.445378333333","25.0364066666667","6500500","新莊區"
"242004","413-TV","2017/12/14 20:39:39","新北市新莊區中原東路208號","121.46035","25.05433","6500500","新莊區"
"242042","400-BY","2017/12/14 20:39:58","新北市新莊區天祥街19巷7號","121.416791666667","25.02783","6500500","新莊區"
"242061","362-BY","2017/12/14 20:39:49","新北市新莊區新樹路278號","121.432636666667","25.0127666666667","6500500","新莊區"
"242058","353-BY","2017/12/14 20:39:41","新北市新莊區民安路138號","121.424163333333","25.0253416666667","6500500","新莊區"
"242007","132-UY","2017/12/14 20:39:54","新北市新莊區思源路139號","121.459803333333","25.04382","6500500","新莊區"
"242036","133-UY","2017/12/14 20:39:37","新北市新莊區建安街16號","121.428741666667","25.0264666666667","6500500","新莊區"
"242021","135-UY","2017/12/14 20:39:50","新北市新莊區中華路一段73號","121.452215","25.0400016666667","6500500","新莊區"
"242046","172-VK","2017/12/14 20:39:51","新北市新莊區裕民街115號","121.418225","25.02276","6500500","新莊區"
"242009","173-VK","2017/12/14 20:39:52","新北市新莊區昌隆街67號","121.457123333333","25.051065","6500500","新莊區"
"242015","175-VK","2017/12/14 20:39:43","新北市新莊區中港一街142號","121.446631666667","25.04492","6500500","新莊區"
"242002","176-VK","2017/12/14 20:39:50","新北市新莊區明中街27號","121.458288333333","25.03866","6500500","新莊區"
"242001","233-RS","2017/12/14 15:11:49","新北市新莊區環河路48-7號","121.43692","25.0097883333333","6500500","新莊區"
"242013","346-TH","2017/12/14 20:39:41","新北市新莊區中和街175巷11號","121.447193333333","25.050615","6500500","新莊區"
"242019","348-TH","2017/12/14 20:39:39","新北市新莊區銘德街63號","121.45677","25.043645","6500500","新莊區"
"242056","349-TH","2017/12/14 20:39:37","新北市新莊區瓊泰路151號","121.443241666667","25.03103","6500500","新莊區"
"242017","350-TH","2017/12/14 20:39:58","新北市新莊區中港三街116號","121.447988333333","25.04603","6500500","新莊區"
"242011","351-TH","2017/12/14 20:39:42","新北市新莊區中榮街122巷2號","121.446591666667","25.0531116666667","6500500","新莊區"
"239003","360-BY","2017/12/14 20:06:04","新北市鶯歌區二甲路171-1號","121.344025","24.935575","6500800","鶯歌區"
"221008","489-VK","2017/12/14 20:39:40","新北市汐止區翠峰街2巷2號","121.645323333333","25.07662","6501100","汐止區"
"221036","130-UY","2017/12/14 20:39:42","新北市汐止區新昌路7號","121.662048333333","25.0671733333333","6501100","汐止區"
"221010","269-BY","2017/12/14 20:39:38","新北市汐止區八連路二段337巷3號","121.629806666667","25.1010483333333","6501100","汐止區"
"221012","276-VK","2017/12/14 13:24:12","新北市汐止區汐萬路一段256巷3號","121.653461666667","25.0746116666667","6501100","汐止區"
"221023","279-VK","2017/12/14 20:39:51","新北市汐止區民族二街30巷11號","121.634533333333","25.0717816666667","6501100","汐止區"
"221032","280-BY","2017/12/14 20:39:39","新北市汐止區民權街二段28號","121.619345","25.0500483333333","6501100","汐止區"
"221027","281-BY","2017/12/14 20:39:46","新北市汐止區大同路二段492號","121.660605","25.0680883333333","6501100","汐止區"
"221029","298-VK","2017/12/14 20:39:37","新北市汐止區大同路一段421號","121.642578333333","25.061135","6501100","汐止區"
"221021","299-VK","2017/12/14 20:39:38","新北市汐止區水源路一段280號","121.654151666667","25.0583283333333","6501100","汐止區"
"221031","353-TW","2017/12/14 20:39:49","新北市汐止區中興路27巷22號","121.634075","25.060815","6501100","汐止區"
"221015","567-BX","2017/12/14 20:39:52","新北市汐止區建成路48號","121.663873333333","25.072865","6501100","汐止區"
"221035","622-UM","2017/12/14 20:39:53","新北市汐止區長江街101-5號","121.658685","25.073195","6501100","汐止區"
"221025","623-UM","2017/12/14 20:39:55","新北市汐止區水源路二段283巷1號","121.659163333333","25.0498516666667","6501100","汐止區"
"221038","646-BX","2017/12/14 20:39:42","新北市汐止區汐萬路一段115巷28號","121.653693333333","25.0703966666667","6501100","汐止區"
"221033","647-BX","2017/12/14 20:39:43","新北市汐止區合順街18巷8弄5號","121.620288333333","25.0418833333333","6501100","汐止區"
"221002","707-TV","2017/12/14 20:39:54","新北市汐止區福德二路163號","121.631015","25.0652483333333","6501100","汐止區"
"221018","753-BX","2017/12/14 20:39:47","新北市汐止區茄苳路70號","121.666691666667","25.0706566666667","6501100","汐止區"
"220083","286-VK","2017/12/14 20:39:46","新北市板橋區僑中二街112巷1號","121.445693333333","25.0070833333333","6500100","板橋區"
"220062","305-R5","2017/12/14 20:39:50","新北市三重區五谷王北街161-1號","121.477913333333","25.0538783333333","6500100","板橋區"
"220103","561-BX","2017/12/14 20:39:41","新北市板橋區漢生東路73巷26號","121.46725","25.016935","6500100","板橋區"
"220097","AAC-210","2017/12/14 20:14:03","新北市板橋區光正街9巷11號","121.46265","25.0164966666667","6500100","板橋區"
"220070","AAC-253","2017/12/14 20:38:13","新北市五股區中直路17-4號","121.423066666667","25.1112216666667","6500100","板橋區"
