"lineid","car","time","location","longitude","latitude","cityid","cityname"
"234017","745-BX","2017/12/14 20:59:45","新北市八里區中山路三段382號","121.368556666667","25.13575","6500400","永和區"
"222002","659-BX","2017/12/14 20:59:42","新北市深坑區北深路三段93巷11號","121.605468333333","25.0010466666667","6501800","深坑區"
"231059","046-UY","2017/12/14 20:59:48","新北市新店區僑信路82號","121.49967","24.9482833333333","6500600","新店區"
"231061","047-UY","2017/12/14 20:59:58","新北市新店區永安街58號","121.518596666667","24.9868583333333","6500600","新店區"
"231060","106-UY","2017/12/14 20:59:51","新北市新店區安康路三段423號","121.483186666667","24.94984","6500600","新店區"
"231051","107-UY","2017/12/14 20:59:40","新北市新店區中正路663巷7弄15-5號","121.533181666667","24.990335","6500600","新店區"
"231047","108-UY","2017/12/14 20:59:42","新北市新店區文化路88號","121.544911666667","24.9824616666667","6500600","新店區"
"231052","187-VK","2017/12/14 20:59:49","新北市新店區新烏路一段65號","121.546166666667","24.9440733333333","6500600","新店區"
"231050","KEA-2219","2017/12/14 20:59:45","新北市新店區三民路117巷8弄2號","121.534091666667","24.9711083333333","6500600","新店區"
"231063","268-BY","2017/12/14 20:59:40","新北市新店區富貴街8巷1號","121.494288333333","24.9498466666667","6500600","新店區"
"231054","AAD-862","2017/12/14 20:59:36","新北市新店區中正路71號","121.543583333333","24.9697233333333","6500600","新店區"
"231058","3712-VJ","2017/12/14 20:59:57","新北市新店區薏仁坑路自強巷6號","121.496598333333","24.9584933333333","6500600","新店區"
"231067","4772-VM","2017/12/14 20:59:51","新北市新店區安康路二段316號","121.505486666667","24.9580983333333","6500600","新店區"
"231065","512-UM","2017/12/14 20:59:40","新北市新店區安祥路67巷50弄2號","121.484843333333","24.9590383333333","6500600","新店區"
"231064","515-UM","2017/12/14 20:59:55","新北市新店區安民街300號","121.517775","24.97373","6500600","新店區"
"231042","616-UM","2017/12/14 20:59:50","新北市新店區寶興路49號","121.549291666667","24.9730066666667","6500600","新店區"
"231040","619-UM","2017/12/14 20:59:44","新北市新店區北新路一段351號","121.541963333333","24.9694083333333","6500600","新店區"
"231068","718-UY","2017/12/14 20:59:47","新北市新店區寶元路二段39號","121.547066666667","24.9814016666667","6500600","新店區"
"231062","720-UM","2017/12/14 20:59:54","新北市新店區裕合街24號","121.489308333333","24.94996","6500600","新店區"
"231043","899-TW","2017/12/14 20:59:39","新北市新店區民族路217號","121.536913333333","24.9758933333333","6500600","新店區"
"231066","AKT-0513","2017/12/14 20:59:47","新北市新店區吉安街14號","121.516745","24.9658","6500600","新店區"
"241011","013-R5","2017/12/14 20:59:50","新北市三重區秀江街119號","121.499701666667","25.0721733333333","6500200","三重區"
"241028","022-UY","2017/12/14 20:59:39","新北市三重區新北大道一段1號","121.492065","25.0612783333333","6500200","三重區"
"241008","059-VK","2017/12/14 20:59:36","新北市三重區力行路二段162巷3號","121.482791666667","25.0766","6500200","三重區"
"241009","060-VK","2017/12/14 20:59:47","新北市三重區三和路四段326號","121.483806666667","25.0782233333333","6500200","三重區"
"241031","061-VK","2017/12/14 20:59:52","新北市三重區重陽路一段113巷2弄2號","121.48752","25.0598366666667","6500200","三重區"
"241015","062-VK","2017/12/14 20:59:52","新北市三重區福德北路59號","121.50212","25.065445","6500200","三重區"
"241017","063-VK","2017/12/14 20:59:43","新北市三重區大仁街29號","121.492618333333","25.0651616666667","6500200","三重區"
"241024","065-VK","2017/12/14 20:59:36","新北市三重區大勇街49號","121.481315","25.0719866666667","6500200","三重區"
"241026","066-VK","2017/12/14 20:59:36","新北市三重區文化南路32號","121.500285","25.0614566666667","6500200","三重區"
"241003","091-VK","2017/12/14 20:59:38","新北市三重區仁義街250號","121.493836666667","25.0859483333333","6500200","三重區"
"241002","265-UM","2017/12/14 20:59:54","新北市三重區五華街7巷57號","121.496245","25.0805716666667","6500200","三重區"
"241016","266-UM","2017/12/14 20:59:42","新北市三重區自強路一段125號","121.495285","25.0664466666667","6500200","三重區"
"241022","267-UM","2017/12/14 20:59:36","新北市三重區重陽路二段19巷12號","121.488053333333","25.0624483333333","6500200","三重區"
"241018","268-UM","2017/12/14 20:59:50","新北市三重區自強路一段236號","121.493325","25.067055","6500200","三重區"
"241032","269-UM","2017/12/14 20:59:41","新北市三重區三陽路123號","121.483343333333","25.058885","6500200","三重區"
"241013","270-UM","2017/12/14 20:59:44","新北市三重區仁賢街12-1號","121.495735","25.0748733333333","6500200","三重區"
"241025","271-UM","2017/12/14 20:59:42","新北市三重區貴陽街18-1號","121.484218333333","25.061885","6500200","三重區"
"241007","398-BY","2017/12/14 20:59:45","新北市三重區三和路四段145巷84號","121.48632","25.0789916666667","6500200","三重區"
"241020","413-TH","2017/12/14 20:59:44","新北市三重區忠孝路二段35號","121.485893333333","25.0710683333333","6500200","三重區"
"241004","475-VK","2017/12/14 20:59:57","新北市三重區仁愛街423-1號","121.49039","25.0814666666667","6500200","三重區"
"241019","478-VK","2017/12/14 20:59:57","新北市三重區三張街104號","121.487793333333","25.0699333333333","6500200","三重區"
"241030","480-VK","2017/12/14 20:59:41","新北市三重區中正南路265號","121.492956666667","25.0526683333333","6500200","三重區"
"241014","543-UM","2017/12/14 20:59:54","新北市三重區長榮路75號","121.50264","25.0691083333333","6500200","三重區"
"241023","545-UM","2017/12/14 20:59:58","新北市三重區三民街146巷3弄2號","121.48159","25.0645766666667","6500200","三重區"
"241001","547-UM","2017/12/14 20:59:36","新北市三重區三和路四段136號","121.488606666667","25.07544","6500200","三重區"
"241006","AAD-863","2017/12/14 20:59:39","新北市三重區永福街50號","121.481758333333","25.078045","6500200","三重區"
"241029","887-TS","2017/12/14 20:59:41","新北市三重區正義南路107號","121.498025","25.05855","6500200","三重區"
"241012","941-UM","2017/12/14 20:59:39","新北市三重區仁信街27號","121.501283333333","25.075555","6500200","三重區"
"241033","AAC-255","2017/12/14 20:59:43","新北市三重區光復路二段1號","121.47227","25.0532833333333","6500200","三重區"
"235010","031-BX","2017/12/14 20:57:47","新北市中和區員山路36巷16-2號","121.485213333333","24.9916466666667","6500300","中和區"
"247022","893-R6","2017/12/14 20:59:55","新北市蘆洲區中正路178號","121.467145","25.0878116666667","6501400","蘆洲區"
"247012","546-UM","2017/12/14 20:59:55","新北市蘆洲區民權路5號","121.476608333333","25.0857916666667","6501400","蘆洲區"
"247020","500-BY","2017/12/14 20:59:40","新北市蘆洲區民族路371號","121.471081666667","25.0912433333333","6501400","蘆洲區"
"247008","341-TH","2017/12/14 20:59:40","新北市蘆洲區中山一路293-1號","121.471576666667","25.079165","6501400","蘆洲區"
"247010","339-TH","2017/12/14 20:59:55","新北市蘆洲區鷺江街76號","121.47696","25.0838233333333","6501400","蘆洲區"
"247002","337-TH","2017/12/14 20:59:53","新北市蘆洲區永樂街38巷36號","121.458435","25.0898016666667","6501400","蘆洲區"
"247004","336-TH","2017/12/14 20:59:37","新北市蘆洲區永安南路二段268號","121.458621666667","25.0807283333333","6501400","蘆洲區"
"247016","057-VK","2017/12/14 20:59:55","新北市蘆洲區正和街79號","121.468446666667","25.080825","6501400","蘆洲區"
"247006","056-VK","2017/12/14 20:59:54","新北市蘆洲區永安南路二段16巷16號","121.46797","25.0777666666667","6501400","蘆洲區"
"247014","007-UY","2017/12/14 20:59:48","新北市蘆洲區中山二路36巷32號","121.474198333333","25.0833133333333","6501400","蘆洲區"
"247024","002-UY","2017/12/14 20:59:53","新北市蘆洲區光明路25號","121.460823333333","25.08681","6501400","蘆洲區"
"247018","001-UY","2017/12/14 20:59:54","新北市蘆洲區民權路144號","121.47275","25.08919","6501400","蘆洲區"
"222001","KEA-2212","2017/12/14 20:59:49","新北市深坑區北深路三段25巷15-2號","121.608666666667","25.0000233333333","6501800","深坑區"
"251009","008-UM","2017/12/14 20:59:40","新北市淡水區民族路182號","121.461656666667","25.1337366666667","6501000","淡水區"
"251001","011-UM","2017/12/14 20:59:46","新北市淡水區淡金路二段66-1號","121.450393333333","25.1824566666667","6501000","淡水區"
"251007","179-VK","2017/12/14 20:59:53","新北市淡水區仁愛街2巷31-3號","121.44651","25.1711633333333","6501000","淡水區"
"251014","182-VK","2017/12/14 20:59:54","新北市淡水區淡金路五段87號","121.455165","25.2342233333333","6501000","淡水區"
"251010","413-VK","2017/12/14 20:59:44","新北市淡水區中正路一段116-3號","121.423921666667","25.1787466666667","6501000","淡水區"
"251012","441-VK","2017/12/14 20:59:54","新北市淡水區淡金路五段62號","121.454418333333","25.2333683333333","6501000","淡水區"
"251016","442-VK","2017/12/14 20:59:44","新北市淡水區牛埔子10-1號","121.449945","25.2184533333333","6501000","淡水區"
"251005","443-VK","2017/12/14 20:59:38","新北市淡水區學府路89號","121.448858333333","25.1705766666667","6501000","淡水區"
"251011","650-BX","2017/12/14 20:59:47","新北市淡水區新民街294號","121.435175","25.1819966666667","6501000","淡水區"
"251002","672-BX","2017/12/14 20:59:43","新北市淡水區水源街一段99-1號","121.445983333333","25.1722083333333","6501000","淡水區"
"251003","766-UM","2017/12/14 20:59:41","新北市淡水區新春街123號","121.441501666667","25.1822783333333","6501000","淡水區"
"242048","441-UM","2017/12/14 20:59:41","新北市樹林區八德街588號","121.398043333333","24.969235","6500500","新莊區"
"242001","233-RS","2017/12/14 15:11:49","新北市新莊區環河路48-7號","121.43692","25.0097883333333","6500500","新莊區"
"239003","360-BY","2017/12/14 20:06:04","新北市鶯歌區二甲路171-1號","121.344025","24.935575","6500800","鶯歌區"
"221012","276-VK","2017/12/14 13:24:12","新北市汐止區汐萬路一段256巷3號","121.653461666667","25.0746116666667","6501100","汐止區"
"221027","281-BY","2017/12/14 20:59:46","新北市汐止區汐萬路一段256巷3號","121.652731666667","25.0744683333333","6501100","汐止區"
"221029","298-VK","2017/12/14 20:59:37","新北市汐止區康寧街901號","121.65155","25.074895","6501100","汐止區"
"221021","299-VK","2017/12/14 20:59:38","新北市汐止區汐萬路一段256巷1號","121.651945","25.0748083333333","6501100","汐止區"
"221033","647-BX","2017/12/14 20:59:43","新北市汐止區南興路6巷2號","121.651753333333","25.0633","6501100","汐止區"
"221018","753-BX","2017/12/14 20:59:27","新北市汐止區汐萬路一段256巷3號","121.653363333333","25.0746966666667","6501100","汐止區"
"220097","AAC-210","2017/12/14 20:14:03","新北市板橋區光正街9巷11號","121.46265","25.0164966666667","6500100","板橋區"
"220070","AAC-253","2017/12/14 20:59:53","新北市八里區中山路三段409號","121.368673333333","25.1347233333333","6500100","板橋區"
