"lineid","car","time","location","longitude","latitude","cityid","cityname"
"248005","653-BX","2017/09/11 09:05:39","新北市五股區水碓路16巷17號","121.434021666667","25.0730183333333","6501500","五股區"
"232005","290-BY","2017/09/11 09:05:50","新北市坪林區魚堀9-1號","121.70845","24.904845","6502000","坪林區"
"232017","758-BX","2017/09/11 09:05:44","新北市坪林區坪雙路二段166號","121.76848","24.9618266666667","6502000","坪林區"
"244012","069-UM","2017/09/11 09:05:52","新北市林口區文化一路二段192號","121.38284","25.0803316666667","6501700","林口區"
"244006","080-UY","2017/09/11 09:05:40","新北市林口區林口路124巷10弄1號","121.389053333333","25.0817866666667","6501700","林口區"
"244018","403-UM","2017/09/11 09:05:42","新北市林口區忠孝路563-6號","121.373398333333","25.0680066666667","6501700","林口區"
"244008","410-SL","2017/09/11 09:05:46","新北市林口區文林一街12巷47號","121.377728333333","25.085925","6501700","林口區"
"244022","483-VK","2017/09/11 09:05:53","新北市林口區東湖路117巷22號","121.383275","25.0725383333333","6501700","林口區"
"244016","485-VK","2017/09/11 09:05:45","新北市林口區文化二路一段20巷59號","121.365423333333","25.06637","6501700","林口區"
"244010","656-BX","2017/09/11 09:05:39","新北市林口區興林路17巷6號","121.390376666667","25.0769633333333","6501700","林口區"
"244024","837-TS","2017/09/11 09:05:43","新北市林口區忠孝路1號","121.364131666667","25.075995","6501700","林口區"
"222005","289-BY","2017/09/11 09:05:41","新北市深坑區土庫尖路75-1號","121.63125","25.0182133333333","6501800","深坑區"
"231007","189-VK","2017/09/11 09:01:56","新北市新店區新潭路三段236號","121.501598333333","24.903205","6500600","新店區"
"231008","192-VK","2017/09/11 09:05:38","新北市新店區廣興路6號","121.546228333333","24.9119733333333","6500600","新店區"
"226005","5620-A6","2017/09/11 09:05:36","新北市平溪區十分里十分街94號","121.776985","25.0422","6502400","平溪區"
"226001","7418-A5","2017/09/11 08:27:12","新北市平溪區東勢里番仔坑16號","121.756088333333","24.9917283333333","6502400","平溪區"
"226003","AGD-0702","2017/09/11 09:05:51","新北市平溪區十分里十分街271-3號","121.779088333333","25.0448133333333","6502400","平溪區"
"223002","198-BX","2017/09/11 08:36:52","新北市石碇區北宜路五段80號","121.646566666667","24.9517466666667","6501900","石碇區"
"223003","205-TH","2017/09/11 09:04:10","新北市石碇區北宜路六段小金瓜寮巷2-1號","121.65552","24.9357983333333","6501900","石碇區"
"223008","406-TH","2017/09/11 09:05:40","新北市石碇區光明路12號","121.679378333333","25.03092","6501900","石碇區"
"223001","592-UM","2017/09/11 09:05:41","新北市石碇區北宜路六段塗潭巷7號","121.645695","24.9339266666667","6501900","石碇區"
"223004","660-BX","2017/09/11 09:05:56","新北市石碇區碇坪路二段55號","121.684073333333","24.9714216666667","6501900","石碇區"
"223007","661-BX","2017/09/11 09:05:39","新北市石碇區碇南路二段鹿窟巷2號","121.673783333333","25.0290016666667","6501900","石碇區"
"223005","677-TV","2017/09/11 09:05:52","新北市石碇區崩山53號","121.682398333333","24.9688616666667","6501900","石碇區"
"227005","282-VK","2017/09/11 09:03:46","新北市雙溪區泰平里溪尾寮3號","121.819028333333","24.97049","6502500","雙溪區"
"253003","6232-TK","2017/09/11 09:05:52","新北市石門區尖子鹿8-1號","121.575168333333","25.2799166666667","6502200","石門區"
"253001","6251-TK","2017/09/11 09:05:51","新北市石門區八甲74號","121.529818333333","25.26473","6502200","石門區"
"253002","637-UY","2017/09/11 09:05:47","新北市石門區尖山湖3-1號","121.564418333333","25.24084","6502200","石門區"
"253004","8270-PC","2017/09/11 09:05:54","新北市石門區草埔尾34號","121.603493333333","25.2664083333333","6502200","石門區"
"252006","073-UM","2017/09/11 09:05:43","新北市三芝區古庄里四棧橋18-3號","121.490101666667","25.2607566666667","6502100","三芝區"
"252004","249-BX","2017/09/11 09:05:37","新北市三芝區興華里田心子32-2號","121.491173333333","25.19964","6502100","三芝區"
"236007","165-UM","2017/09/11 09:05:39","新北市土城區金城路一段60號","121.44247","24.9709","6501300","土城區"
"236001","339-SR","2017/09/11 09:05:47","新北市土城區中央路三段153號","121.432098333333","24.9654433333333","6501300","土城區"
"236005","498-BY","2017/09/11 09:05:57","新北市土城區承天路10號","121.437133333333","24.9649166666667","6501300","土城區"
"242030","AAC-296","2017/09/11 09:05:42","新北市新莊區忠孝街104號","121.443963333333","25.0373","6500500","新莊區"
"242028","986-R7","2017/09/11 09:05:48","新北市新莊區中榮街152巷47號","121.445553333333","25.0537066666667","6500500","新莊區"
"242049","751-BX","2017/09/11 09:05:54","新北市新莊區民安西路270號","121.42606","25.0130466666667","6500500","新莊區"
"242024","615-BX","2017/09/11 09:05:52","新北市新莊區五工二路70巷4號","121.46048","25.0660516666667","6500500","新莊區"
"242022","613-BX","2017/09/11 09:05:56","新北市新莊區化成路968號","121.46508","25.0636883333333","6500500","新莊區"
"242026","612-BX","2017/09/11 09:05:45","新北市新莊區立信一街26號","121.44377","25.0494366666667","6500500","新莊區"
"242038","566-BX","2017/09/11 09:05:48","新北市新莊區龍安路491號","121.425818333333","25.0181316666667","6500500","新莊區"
"242043","497-BY","2017/09/11 09:05:47","新北市新莊區中正路746巷29號","121.410645","25.0245216666667","6500500","新莊區"
"242035","442-UM","2017/09/11 09:05:44","新北市新莊區建安街23號","121.429065","25.0260433333333","6500500","新莊區"
"242047","441-UM","2017/09/11 09:05:54","新北市新莊區四維路152巷33號","121.421976666667","25.0223683333333","6500500","新莊區"
"242052","440-UM","2017/09/11 09:05:56","新北市新莊區西盛街395巷53號","121.429238333333","25.011885","6500500","新莊區"
"242033","415-TV","2017/09/11 09:05:42","新北市新莊區建中街81巷10弄14號","121.446695","25.0360016666667","6500500","新莊區"
"242003","413-TV","2017/09/11 09:05:41","新北市新莊區化成路314巷18號","121.466885","25.048235","6500500","新莊區"
"242040","400-BY","2017/09/11 09:05:39","新北市新莊區壽山路57-10號","121.411836666667","25.032145","6500500","新莊區"
"242059","362-BY","2017/09/11 09:05:52","新北市新莊區瓊林路59-8號","121.444391666667","25.0274883333333","6500500","新莊區"
"242057","353-BY","2017/09/11 09:05:41","新北市新莊區八德街102號","121.424248333333","25.021285","6500500","新莊區"
"242006","132-UY","2017/09/11 09:05:55","新北市新莊區思源路287巷1弄17號","121.45935","25.04758","6500500","新莊區"
"242045","172-VK","2017/09/11 09:05:52","新北市新莊區富國路66巷5號","121.419841666667","25.0254833333333","6500500","新莊區"
"242008","173-VK","2017/09/11 09:05:51","新北市新莊區昌盛街105-6號","121.456478333333","25.050025","6500500","新莊區"
"242014","175-VK","2017/09/11 09:05:37","新北市新莊區永樂街237巷1號","121.44645","25.0443283333333","6500500","新莊區"
"242001","176-VK","2017/09/11 09:05:46","新北市新莊區中正路30號","121.46498","25.041835","6500500","新莊區"
"242012","346-TH","2017/09/11 09:05:37","新北市新莊區中和街184號","121.44748","25.0497","6500500","新莊區"
"242020","347-TH","2017/09/11 09:05:44","新北市新莊區中正路206號","121.449271666667","25.0355933333333","6500500","新莊區"
"242018","348-TH","2017/09/11 09:05:54","新北市新莊區復興路2段141-1號","121.457491666667","25.044395","6500500","新莊區"
"242055","349-TH","2017/09/11 09:05:50","新北市新莊區中正路347巷28號","121.447158333333","25.0341","6500500","新莊區"
"242016","350-TH","2017/09/11 09:05:54","新北市新莊區中港三街94號","121.448951666667","25.0461533333333","6500500","新莊區"
"242010","351-TH","2017/09/11 09:05:45","新北市新莊區幸福路710巷7弄2號","121.449711666667","25.050215","6500500","新莊區"
"242001","281-VK","2017/09/11 08:36:18","新北市新莊區環河路636-7號","121.437305","25.01126","6500500","新莊區"
