"lineid","car","time","location","longitude","latitude","cityid","cityname"
"248005","653-BX","2017/09/11 10:09:19","新北市五股區新五路二段240號","121.439458333333","25.0800366666667","6501500","五股區"
"244018","403-UM","2017/09/11 10:09:22","新北市林口區麗園二街76-3號","121.381781666667","25.0677866666667","6501700","林口區"
"244022","483-VK","2017/09/11 10:09:33","新北市林口區文化三路一段555巷50號","121.36984","25.0769333333333","6501700","林口區"
"244025","837-TS","2017/09/11 09:35:24","新北市林口區粉寮路二段160巷28號","121.405205","25.0907533333333","6501700","林口區"
"231007","189-VK","2017/09/11 10:09:16","新北市新店區新潭路三段215巷25號","121.50813","24.9040333333333","6500600","新店區"
"231008","192-VK","2017/09/11 09:52:17","新北市新店區平廣路一段256號","121.50758","24.8880716666667","6500600","新店區"
"223002","198-BX","2017/09/11 10:09:18","新北市石碇區員潭子坑3-3號","121.642241666667","24.9864366666667","6501900","石碇區"
"223003","205-TH","2017/09/11 10:09:32","新北市石碇區北宜路五段53號","121.632263333333","24.95208","6501900","石碇區"
"223008","406-TH","2017/09/11 10:07:20","新北市石碇區南勢坑2-3號","121.699453333333","24.990425","6501900","石碇區"
"223001","592-UM","2017/09/11 10:09:21","新北市石碇區北宜路五段52號","121.632188333333","24.952005","6501900","石碇區"
"223007","661-BX","2017/09/11 10:09:19","新北市石碇區南勢坑12號","121.698965","24.982475","6501900","石碇區"
"227005","282-VK","2017/09/11 10:04:46","新北市雙溪區泰平里灣潭路36號","121.812133333333","24.9287633333333","6502500","雙溪區"
"253003","6232-TK","2017/09/11 10:09:33","新北市石門區阿里磅1號","121.590021666667","25.2910083333333","6502200","石門區"
"253001","6251-TK","2017/09/11 10:09:31","新北市石門區崁子腳47-10號","121.534185","25.2838283333333","6502200","石門區"
"253002","637-UY","2017/09/11 10:08:46","新北市石門區楓林47號","121.541003333333","25.2783766666667","6502200","石門區"
"253004","8270-PC","2017/09/11 10:09:25","新北市石門區茂林社區227號","121.591958333333","25.27049","6502200","石門區"
"252006","073-UM","2017/09/11 09:18:27","新北市三芝區埔坪里埔頭坑41號","121.50433","25.264535","6502100","三芝區"
"252004","249-BX","2017/09/11 10:09:17","新北市三芝區福德里埔尾32-2號","121.507948333333","25.2392216666667","6502100","三芝區"
"252006","AAC-283","2017/09/11 10:09:20","新北市三芝區古庄里古庄103號","121.494355","25.2717083333333","6502100","三芝區"
"236005","498-BY","2017/09/11 10:09:17","新北市土城區城林路6巷80號","121.438723333333","24.97975","6501300","土城區"
"242001","281-VK","2017/09/11 08:36:18","新北市新莊區環河路636-7號","121.437305","25.01126","6500500","新莊區"
