"lineid","car","time","location","longitude","latitude","cityid","cityname"
"244018","403-UM","2017/09/11 10:39:22","新北市林口區中山路248號","121.386388333333","25.0793333333333","6501700","林口區"
"244025","837-TS","2017/09/11 09:35:24","新北市林口區粉寮路二段160巷28號","121.405205","25.0907533333333","6501700","林口區"
"231007","189-VK","2017/09/11 10:39:16","新北市新店區新潭路三段80巷36-1號","121.500263333333","24.9101","6500600","新店區"
"231008","192-VK","2017/09/11 10:38:58","新北市新店區小坑一路35巷1號","121.528286666667","24.9092966666667","6500600","新店區"
"223002","198-BX","2017/09/11 10:39:18","新北市石碇區外按11-5號","121.651683333333","24.9990633333333","6501900","石碇區"
"223008","406-TH","2017/09/11 10:39:20","新北市石碇區石崁14-1號","121.654973333333","24.9950116666667","6501900","石碇區"
"227005","282-VK","2017/09/11 10:39:26","新北市雙溪區泰平里溪尾寮2-2號","121.819451666667","24.96594","6502500","雙溪區"
"253004","8270-PC","2017/09/11 10:39:25","新北市石門區小坑18號","121.59685","25.2821616666667","6502200","石門區"
"252006","073-UM","2017/09/11 10:39:17","新北市三芝區埔坪里埔頭坑41號","121.50429","25.264545","6502100","三芝區"
"239006","661-UM","2017/09/11 10:39:18","新北市樹林區中山路三段210-2號","121.381465","24.9655033333333","6500800","鶯歌區"
"242001","281-VK","2017/09/11 10:39:19","新北市新莊區環河路636-7號","121.437278333333","25.011315","6500500","新莊區"
