"lineid","car","time","location","longitude","latitude","cityid","cityname"
"234044","148-BY","2017/09/11 13:29:19","新北市永和區秀朗路二段68號","121.522721666667","25.0017083333333","6500400","永和區"
"234012","149-BY","2017/09/11 13:29:35","新北市永和區中山路一段184巷9弄17號","121.508351666667","25.0091416666667","6500400","永和區"
"234005","207-UY","2017/09/11 13:29:29","新北市永和區中山路一段242號","121.507691666667","25.0079466666667","6500400","永和區"
"234078","298-R6","2017/09/11 13:29:31","新北市永和區福和路7巷15弄19號","121.526065","25.0075216666667","6500400","永和區"
"234036","336-UY","2017/09/11 13:29:35","新北市永和區民樂街34號","121.52755","25.0008716666667","6500400","永和區"
"234062","337-UY","2017/09/11 13:29:28","新北市永和區得和路243巷20號","121.52067","25.0009316666667","6500400","永和區"
"234084","338-UY","2017/09/11 13:29:28","新北市永和區永利路69號","121.51965","25.0048366666667","6500400","永和區"
"234068","552-UM","2017/09/11 13:29:28","新北市永和區中興街1號","121.51558","25.0121333333333","6500400","永和區"
"234052","553-UM","2017/09/11 13:29:33","新北市永和區永和路二段168號","121.515446666667","25.0129383333333","6500400","永和區"
"234015","745-BX","2017/09/11 13:29:34","新北市永和區永和路二段425巷33-1號","121.51449","25.0176166666667","6500400","永和區"
"234028","746-BX","2017/09/11 13:29:34","新北市永和區民權路29巷3號","121.520395","24.99785","6500400","永和區"
"234060","AAD-866","2017/09/11 13:29:18","新北市永和區中正路532號","121.517278333333","25.0052966666667","6500400","永和區"
"234040","862-TW","2017/09/11 13:29:24","新北市永和區中和路603號","121.512405","25.0043133333333","6500400","永和區"
"234048","863-TW","2017/09/11 13:29:22","新北市永和區保福路二段78號","121.510415","25.01331","6500400","永和區"
"234025","9371-KE","2017/09/11 13:29:29","新北市永和區永和路一段157-1號","121.514341666667","25.0095816666667","6500400","永和區"
"234010","9373-KE","2017/09/11 13:29:19","新北市永和區仁愛路141巷3弄3號","121.511783333333","25.01246","6500400","永和區"
"249005","172-UM","2017/09/11 13:29:34","新北市八里區中華路二段470號","121.400418333333","25.1461983333333","6502300","八里區"
"248013","025-BX","2017/09/11 13:29:26","新北市五股區明德路7巷14號","121.434756666667","25.070895","6501500","五股區"
"248015","026-BX","2017/09/11 13:29:16","新北市五股區凌雲路一段83巷13弄2號","121.44925","25.1010066666667","6501500","五股區"
"248005","077-UY","2017/09/11 13:29:31","新北市五股區四維路25號","121.467153333333","25.0707583333333","6501500","五股區"
"248007","095-VK","2017/09/11 13:29:17","新北市五股區四維路185巷42弄7號","121.463751666667","25.0768633333333","6501500","五股區"
"248019","225-UY","2017/09/11 13:29:14","新北市五股區孝義路82號","121.449376666667","25.1157983333333","6501500","五股區"
"248011","247-BX","2017/09/11 13:29:16","新北市五股區御史路3號","121.442078333333","25.0904633333333","6501500","五股區"
"248009","272-BY","2017/09/11 13:29:31","新北市五股區明德路12巷16號","121.433245","25.071965","6501500","五股區"
"248003","677-BX","2017/09/11 13:29:21","新北市五股區民義路一段152號","121.433146666667","25.0874666666667","6501500","五股區"
"248001","678-BX","2017/09/11 13:29:30","新北市五股區西雲路167-1號","121.446873333333","25.0948266666667","6501500","五股區"
"234022","9380-KE","2017/09/11 13:29:29","新北市永和區竹林路91巷43弄2號","121.5213","25.0127716666667","6500400","永和區"
"234076","969-R7","2017/09/11 13:29:25","新北市永和區智光街24號","121.517966666667","24.999085","6500400","永和區"
"234072","AAC-211","2017/09/11 13:29:32","新北市永和區博愛街45巷25弄1號","121.519046666667","25.016975","6500400","永和區"
"234066","AAC-212","2017/09/11 13:29:32","新北市永和區永貞路378巷25號","121.510255","25.0078133333333","6500400","永和區"
"234001","AAC-295","2017/09/11 13:29:18","新北市永和區永和路一段93號","121.513426666667","25.0074783333333","6500400","永和區"
"244018","403-UM","2017/09/11 12:57:15","新北市林口區粉寮69號","121.405061666667","25.09084","6501700","林口區"
"244001","657-BX","2017/09/11 13:29:18","新北市林口區瑞平里10鄰44號","121.335586666667","25.1227016666667","6501700","林口區"
"244025","837-TS","2017/09/11 09:35:24","新北市林口區粉寮路二段160巷28號","121.405205","25.0907533333333","6501700","林口區"
"243005","AAD-798","2017/09/11 13:29:30","新北市泰山區明志路三段166號","121.424188333333","25.03941","6501600","泰山區"
"243007","380-SR","2017/09/11 12:11:53","新北市泰山區犁頭窠3-1號","121.422273333333","25.0606333333333","6501600","泰山區"
"231002","002-UM","2017/09/11 13:29:31","新北市新店區環河路66號","121.536865","24.9628583333333","6500600","新店區"
"231028","046-UY","2017/09/11 13:29:35","新北市新店區安和路一段6-2號","121.517053333333","24.9648066666667","6500600","新店區"
"231030","047-UY","2017/09/11 13:29:30","新北市新店區安康路一段355-4號","121.517655","24.9639516666667","6500600","新店區"
"231029","106-UY","2017/09/11 13:29:32","新北市新店區安康路二段327號","121.499643333333","24.9547383333333","6500600","新店區"
"231018","107-UY","2017/09/11 13:29:18","新北市新店區中央路151號","121.529195","24.9720083333333","6500600","新店區"
"231011","108-UY","2017/09/11 13:29:06","新北市新店區德正街17巷1號","121.543625","24.9730766666667","6500600","新店區"
"231019","187-VK","2017/09/11 13:29:25","新北市新店區新烏路一段18號","121.546623333333","24.9512483333333","6500600","新店區"
"231014","215-TC","2017/09/11 13:29:27","新北市新店區新烏路一段11巷7號","121.547316666667","24.9513183333333","6500600","新店區"
"231026","256-BX","2017/09/11 13:29:21","新北市新店區北宜路一段123號","121.540443333333","24.9536283333333","6500600","新店區"
"231010","278-BY","2017/09/11 13:29:34","新北市新店區中央路7號","121.533453333333","24.97864","6500600","新店區"
"231027","3712-VJ","2017/09/11 13:29:36","新北市新店區新店後街112號","121.537676666667","24.9554466666667","6500600","新店區"
"231024","3713-VJ","2017/09/11 13:29:27","新北市新店區中正路128巷11號","121.542506666667","24.9720816666667","6500600","新店區"
"231025","4716-K9","2017/09/11 13:29:34","新北市新店區中央路177-1號","121.535131666667","24.96951","6500600","新店區"
"231038","4715-K9","2017/09/11 13:29:33","新北市新店區安華路30巷1號","121.519653333333","24.95933","6500600","新店區"
"231036","512-UM","2017/09/11 13:29:30","新北市新店區建業路102-1號","121.478975","24.955335","6500600","新店區"
"231023","513-UM","2017/09/11 13:29:23","新北市新店區北宜路一段168號","121.54032","24.9529283333333","6500600","新店區"
"231035","515-UM","2017/09/11 13:29:26","新北市新店區安康路二段5號","121.515008333333","24.963705","6500600","新店區"
"231003","616-UM","2017/09/11 13:29:32","新北市新店區中正路100號","121.543393333333","24.9706583333333","6500600","新店區"
"231006","617-UM","2017/09/11 13:29:32","新北市新店區安康路一段72號","121.528285","24.9618466666667","6500600","新店區"
"231001","619-UM","2017/09/11 13:29:08","新北市新店區力行路15號","121.537065","24.9655283333333","6500600","新店區"
"231034","645-TV","2017/09/11 13:29:15","新北市新店區安華路16號","121.516845","24.9580566666667","6500600","新店區"
"231013","719-UM","2017/09/11 13:29:22","新北市新店區中央路7號","121.533465","24.9786583333333","6500600","新店區"
"231031","720-UM","2017/09/11 13:29:19","新北市新店區安忠路57巷26弄62號","121.512093333333","24.9567633333333","6500600","新店區"
"231005","897-TW","2017/09/11 13:29:16","新北市新店區光明街284號","121.540333333333","24.964565","6500600","新店區"
"231004","899-TW","2017/09/11 13:29:34","新北市新店區秀山路14號","121.532688333333","24.9603566666667","6500600","新店區"
"231037","AKT-0513","2017/09/11 13:29:31","新北市新店區安康路二段382號","121.500461666667","24.957095","6500600","新店區"
"235030","003-UY","2017/09/11 13:29:25","新北市中和區中山路二段119號","121.502835","25.0036716666667","6500300","中和區"
"235028","005-UY","2017/09/11 13:29:21","新北市中和區圓通路167巷15號","121.497988333333","24.9945216666667","6500300","中和區"
"235027","006-UY","2017/09/11 13:29:17","新北市中和區連城路347巷1弄1號","121.488238333333","24.9957466666667","6500300","中和區"
"235003","097-UM","2017/09/11 13:29:16","新北市中和區景平路166號","121.517056666667","24.9923916666667","6500300","中和區"
"235029","098-UM","2017/09/11 13:29:19","新北市中和區莊敬路49巷4號","121.501415","25.0055483333333","6500300","中和區"
"235004","150-BY","2017/09/11 13:29:30","新北市中和區保健路50巷66號","121.509331666667","24.9951883333333","6500300","中和區"
"235022","151-BY","2017/09/11 13:29:31","新北市中和區圓通路369巷156弄13號","121.488555","24.9819533333333","6500300","中和區"
"235019","183-VK","2017/09/11 13:29:35","新北市中和區民享街283號","121.47117","24.9960433333333","6500300","中和區"
"235002","185-VK","2017/09/11 13:29:17","新北市中和區秀朗路三段128巷10號","121.524658333333","24.9927016666667","6500300","中和區"
"235013","186-VK","2017/09/11 13:29:23","新北市中和區景平路361號","121.504528333333","24.993395","6500300","中和區"
"235031","255-BX","2017/09/11 13:29:23","新北市中和區員山路148巷49號","121.48276","24.9972033333333","6500300","中和區"
"235008","293-VK","2017/09/11 13:29:31","新北市中和區中興街124-1號","121.499871666667","24.992985","6500300","中和區"
"235036","301-VK","2017/09/11 13:29:38","新北市中和區連城路263巷4弄12號","121.491805","24.9952933333333","6500300","中和區"
"235007","352-BY","2017/09/11 13:29:20","新北市中和區景平路323號","121.505965","24.9930866666667","6500300","中和區"
"235015","376-QA","2017/09/11 13:29:16","新北市中和區興南路二段142巷25弄6號","121.502921666667","24.9840933333333","6500300","中和區"
"235032","377-QA","2017/09/11 13:29:31","新北市中和區中正路277號","121.495386666667","24.99374","6500300","中和區"
"235025","378-QA","2017/09/11 13:29:28","新北市中和區民治街29巷2弄6號","121.475595","25.000705","6500300","中和區"
"235014","4979-A6","2017/09/11 13:29:14","新北市中和區景新街410巷18弄10號","121.512075","24.9895233333333","6500300","中和區"
"235033","4980-A6","2017/09/11 13:29:31","新北市中和區連城路89巷4號","121.496963333333","24.99964","6500300","中和區"
"235006","551-UM","2017/09/11 13:29:22","新北市中和區自立路56巷4號","121.523193333333","24.9917983333333","6500300","中和區"
"235034","558-UM","2017/09/11 13:29:25","新北市中和區圓通路119號","121.499295","24.9962683333333","6500300","中和區"
"235009","565-BX","2017/09/11 13:29:32","新北市中和區景安路200巷4弄1號","121.503525","24.9916316666667","6500300","中和區"
"235018","640-BX","2017/09/11 13:29:26","新北市中和區民享街110號","121.474638333333","24.9993166666667","6500300","中和區"
"235024","647-TV","2017/09/11 13:29:15","新北市中和區員山路111號","121.480865","24.9948","6500300","中和區"
"235011","732-UM","2017/09/11 13:29:31","新北市中和區南山路523-1號","121.507946666667","24.9871833333333","6500300","中和區"
"235010","733-UM","2017/09/11 13:29:25","新北市中和區板南路178號","121.50083","24.9928133333333","6500300","中和區"
"235026","800-TS","2017/09/11 13:29:23","新北市中和區景平路754號","121.496511666667","25.0045683333333","6500300","中和區"
"235021","801-TS","2017/09/11 13:29:29","新北市中和區民安街111巷4弄3號","121.476333333333","24.9990566666667","6500300","中和區"
"235005","802-TS","2017/09/11 13:29:34","新北市中和區中和路324巷6弄1號","121.50986","25.0005033333333","6500300","中和區"
"235016","805-TS","2017/09/11 13:29:24","新北市中和區興南路二段133號","121.505261666667","24.984155","6500300","中和區"
"235012","896-TW","2017/09/11 13:29:33","新北市中和區建一路148號","121.48791","24.998645","6500300","中和區"
"235017","900-TW","2017/09/11 13:29:32","新北市中和區民享街457號","121.470485","24.99317","6500300","中和區"
"235020","911-UM","2017/09/11 13:29:19","新北市中和區中山路二段594號","121.482333333333","25.0054566666667","6500300","中和區"
"235001","AAC-213","2017/09/11 13:29:29","新北市中和區景新街383巷62號","121.514665","24.99046","6500300","中和區"
"235023","AAC-215","2017/09/11 13:28:45","新北市中和區員山路36巷16-3號","121.484933333333","24.99108","6500300","中和區"
"220016","013-TV","2017/09/11 13:29:28","新北市板橋區民生路二段120號","121.470356666667","25.0196183333333","6500100","板橋區"
"220034","073-UY","2017/09/11 13:29:23","新北市板橋區華東街1-8號","121.447878333333","24.99481","6500100","板橋區"
"223008","406-TH","2017/09/11 11:01:46","新北市石碇區小粗坑(潭邊里)9-2號","121.678641666667","24.985905","6501900","石碇區"
"208004","AAC-292","2017/09/11 13:29:29","新北市金山區南勢湖70-2號","121.61541","25.21585","6502700","金山區"
"207002","749-BX","2017/09/11 13:29:35","新北市萬里區崁腳里崁腳路166號","121.645178333333","25.1560966666667","6502800","萬里區"
"252005","249-BX","2017/09/11 13:29:21","新北市三芝區圓山里木屐寮40號","121.532923333333","25.2233083333333","6502100","三芝區"
"207001","662-BX","2017/09/11 13:29:32","新北市萬里區野柳里八斗60-1號","121.67571","25.2007583333333","6502800","萬里區"
"236005","498-BY","2017/09/11 13:29:20","新北市土城區亞洲路11巷3弄7號","121.435826666667","24.9714166666667","6501300","土城區"
"242028","986-R7","2017/09/11 11:09:01","新北市新莊區新泰路255巷83號","121.442185","25.039065","6500500","新莊區"
"242045","172-VK","2017/09/11 13:29:35","新北市新莊區四維路119巷17號","121.42413","25.0227516666667","6500500","新莊區"
"221032","280-BY","2017/09/11 13:29:24","新北市汐止區龍安路26號","121.655346666667","25.06401","6501100","汐止區"
"221002","753-BX","2017/09/11 13:29:34","新北市汐止區福德一路394號","121.627565","25.0606966666667","6501100","汐止區"
"220030","610-BX","2017/09/11 13:29:21","新北市板橋區華東街1-10號","121.448301666667","24.9949466666667","6500100","板橋區"
"220019","283-VK","2017/09/11 13:29:24","新北市板橋區華東街1-9號","121.448078333333","24.9949083333333","6500100","板橋區"
"220043","285-UM","2017/09/11 13:29:29","新北市板橋區民生路二段161巷1號","121.470176666667","25.0198483333333","6500100","板橋區"
"220001","285-VK","2017/09/11 13:29:22","新北市板橋區民生路二段120號","121.470365","25.0199016666667","6500100","板橋區"
"220009","295-UM","2017/09/11 02:48:21","新北市板橋區民生路二段120號","121.470421666667","25.0197716666667","6500100","板橋區"
"242001","281-VK","2017/09/11 13:29:21","新北市新莊區泰順街33巷20號","121.44616","25.04296","6500500","新莊區"
"220010","305-R5","2017/09/11 13:29:25","新北市板橋區民生路二段120號","121.470415","25.0196183333333","6500100","板橋區"
"220022","461-BY","2017/09/11 13:29:32","新北市板橋區華東街1-10號","121.448575","24.9950166666667","6500100","板橋區"
"220104","560-BX","2017/09/11 13:29:25","新北市板橋區北門街53號","121.456013333333","25.01165","6500100","板橋區"
"220032","568-UM","2017/09/11 13:29:28","新北市板橋區華東街1-9號","121.448156666667","24.9950166666667","6500100","板橋區"
"220011","609-BX","2017/09/11 00:23:28","新北市板橋區民生路二段161巷1號","121.469871666667","25.0200233333333","6500100","板橋區"
"220025","687-BX","2017/09/11 13:29:30","新北市板橋區四川路二段橋頭1號","121.446575","24.99413","6500100","板橋區"
