"lineid","car","time","location","longitude","latitude","cityid","cityname"
"234044","148-BY","2017/09/11 13:39:19","新北市永和區得和路423號","121.526268333333","24.9992383333333","6500400","永和區"
"234012","149-BY","2017/09/11 13:39:35","新北市永和區永平路258號","121.508285","25.0112716666667","6500400","永和區"
"234005","207-UY","2017/09/11 13:39:29","新北市永和區中山路一段36號","121.513413333333","25.01065","6500400","永和區"
"234078","298-R6","2017/09/11 13:39:31","新北市永和區林森路46巷1號","121.525038333333","25.004775","6500400","永和區"
"234036","336-UY","2017/09/11 13:39:14","新北市永和區民樂街29號","121.527793333333","25.0015666666667","6500400","永和區"
"234062","337-UY","2017/09/11 13:39:28","新北市永和區秀朗路一段192巷6弄10號","121.519186666667","25.0023466666667","6500400","永和區"
"234084","338-UY","2017/09/11 13:39:28","新北市永和區林森路65號","121.524146666667","25.004105","6500400","永和區"
"234068","552-UM","2017/09/11 13:39:28","新北市永和區竹林路66巷2-3號","121.518016666667","25.013705","6500400","永和區"
"234052","553-UM","2017/09/11 13:39:33","新北市永和區竹林路39巷26號","121.519088333333","25.0147616666667","6500400","永和區"
"234015","745-BX","2017/09/11 13:39:25","新北市永和區永和路二段299號","121.51596","25.0161633333333","6500400","永和區"
"234028","746-BX","2017/09/11 13:39:30","新北市永和區民生路59號","121.522638333333","24.99751","6500400","永和區"
"234060","AAD-866","2017/09/11 13:39:18","新北市永和區中正路446號","121.517411666667","25.0026433333333","6500400","永和區"
"234040","862-TW","2017/09/11 13:39:23","新北市永和區永貞路267號","121.511801666667","25.004745","6500400","永和區"
"234048","863-TW","2017/09/11 13:39:32","新北市永和區保安路11號","121.510536666667","25.0169366666667","6500400","永和區"
"234010","9373-KE","2017/09/11 13:39:19","新北市永和區保福路二段37號","121.510906666667","25.0114683333333","6500400","永和區"
"249005","172-UM","2017/09/11 13:39:34","新北市八里區中華路二段552號","121.398668333333","25.145425","6502300","八里區"
"248013","025-BX","2017/09/11 13:39:26","新北市五股區中興路四段70號","121.436981666667","25.0834516666667","6501500","五股區"
"248015","026-BX","2017/09/11 13:39:36","新北市五股區凌雲路一段149巷42號","121.44863","25.1009066666667","6501500","五股區"
"248005","077-UY","2017/09/11 13:39:24","新北市五股區中興路一段32號","121.468676666667","25.072455","6501500","五股區"
"248007","095-VK","2017/09/11 13:39:17","新北市五股區中興路一段150巷6號","121.464656666667","25.0742033333333","6501500","五股區"
"248019","225-UY","2017/09/11 13:38:54","新北市五股區孝義路102號","121.445155","25.1198366666667","6501500","五股區"
"248011","247-BX","2017/09/11 13:39:36","新北市五股區成泰路三段6-1號","121.44136","25.087825","6501500","五股區"
"248009","272-BY","2017/09/11 13:39:31","新北市五股區水碓七路168號","121.430793333333","25.073985","6501500","五股區"
"248003","677-BX","2017/09/11 13:39:21","新北市五股區民義路一段270號","121.425868333333","25.09279","6501500","五股區"
"248001","678-BX","2017/09/11 13:39:30","新北市五股區西雲路247號","121.449298333333","25.0979483333333","6501500","五股區"
"234022","9380-KE","2017/09/11 13:39:29","新北市永和區中正路702巷20弄1號","121.516508333333","25.010585","6500400","永和區"
"234076","969-R7","2017/09/11 13:39:32","新北市永和區民權路34號","121.520213333333","24.9989433333333","6500400","永和區"
"234072","AAC-211","2017/09/11 13:39:12","新北市永和區竹林路213巷14號","121.52152","25.008835","6500400","永和區"
"234066","AAC-212","2017/09/11 13:39:32","新北市永和區中山路一段197號","121.509001666667","25.0087683333333","6500400","永和區"
"234001","AAC-295","2017/09/11 13:39:25","新北市永和區秀朗路一段39號","121.514125","25.0068016666667","6500400","永和區"
"244018","403-UM","2017/09/11 12:57:15","新北市林口區粉寮69號","121.405061666667","25.09084","6501700","林口區"
"244001","657-BX","2017/09/11 13:39:18","新北市林口區後坑34-1號","121.35025","25.1292016666667","6501700","林口區"
"244025","837-TS","2017/09/11 09:35:24","新北市林口區粉寮路二段160巷28號","121.405205","25.0907533333333","6501700","林口區"
"243005","AAD-798","2017/09/11 13:39:30","新北市泰山區明志路三段206巷3號","121.423326666667","25.0379666666667","6501600","泰山區"
"243001","297-R6","2017/09/11 13:39:24","新北市泰山區黎明路31號","121.421778333333","25.06066","6501600","泰山區"
"243007","380-SR","2017/09/11 12:11:53","新北市泰山區犁頭窠3-1號","121.422273333333","25.0606333333333","6501600","泰山區"
"243004","646-TV","2017/09/11 13:39:20","新北市泰山區泰林路二段286號","121.431276666667","25.062625","6501600","泰山區"
"231002","002-UM","2017/09/11 13:39:31","新北市新店區溪園路393號","121.524275","24.979105","6500600","新店區"
"231028","046-UY","2017/09/11 13:39:35","新北市新店區安和路二段166-10號","121.519195","24.9741116666667","6500600","新店區"
"231030","047-UY","2017/09/11 13:39:30","新北市新店區安康路一段90號","121.527921666667","24.962","6500600","新店區"
"231029","106-UY","2017/09/11 13:39:32","新北市新店區安康路二段216號","121.509816666667","24.959375","6500600","新店區"
"231018","107-UY","2017/09/11 13:39:18","新北市新店區中正路448-1號","121.533925","24.97878","6500600","新店區"
"231011","108-UY","2017/09/11 13:39:31","新北市新店區德正街27巷29弄36號","121.545816666667","24.9725166666667","6500600","新店區"
"231019","187-VK","2017/09/11 13:39:25","新北市新店區永興路90-1號","121.543941666667","24.9314966666667","6500600","新店區"
"231014","215-TC","2017/09/11 13:39:27","新北市新店區竹林路2巷31號","121.550403333333","24.95017","6500600","新店區"
"231026","256-BX","2017/09/11 13:39:21","新北市新店區中正路331號","121.535973333333","24.9750233333333","6500600","新店區"
"231010","278-BY","2017/09/11 13:39:34","新北市新店區平等街46巷15號","121.535671666667","24.9733716666667","6500600","新店區"
"231027","3712-VJ","2017/09/11 13:39:16","新北市新店區北宜路一段170號","121.540506666667","24.9529416666667","6500600","新店區"
"231024","3713-VJ","2017/09/11 13:39:27","新北市新店區華興街38巷8號","121.537171666667","24.9693383333333","6500600","新店區"
"231025","4716-K9","2017/09/11 13:39:34","新北市新店區中央六街56號","121.52792","24.97579","6500600","新店區"
"231038","4715-K9","2017/09/11 13:39:33","新北市新店區安華路30巷1號","121.519691666667","24.95934","6500600","新店區"
"231036","512-UM","2017/09/11 13:39:30","新北市新店區安祥路147巷47號","121.476398333333","24.9562466666667","6500600","新店區"
"231023","513-UM","2017/09/11 13:39:23","新北市新店區新店路148號","121.537206666667","24.95541","6500600","新店區"
"231035","515-UM","2017/09/11 13:39:26","新北市新店區安忠路56巷6號","121.512898333333","24.9593333333333","6500600","新店區"
"231003","616-UM","2017/09/11 13:39:36","新北市新店區中興路一段290號","121.545921666667","24.9690533333333","6500600","新店區"
"231006","617-UM","2017/09/11 13:39:32","新北市新店區北宜路一段83號","121.538663333333","24.9560016666667","6500600","新店區"
"231001","619-UM","2017/09/11 13:39:28","新北市新店區中正路374號","121.535036666667","24.9764816666667","6500600","新店區"
"231034","645-TV","2017/09/11 13:39:35","新北市新店區車子路109號","121.505233333333","24.9521133333333","6500600","新店區"
"231013","719-UM","2017/09/11 13:39:31","新北市新店區二十張路139號","121.535586666667","24.97905","6500600","新店區"
"231031","720-UM","2017/09/11 13:39:19","新北市新店區莒光路44巷21弄10號","121.520455","24.9548233333333","6500600","新店區"
"231005","897-TW","2017/09/11 13:39:36","新北市新店區寶中路81號","121.547763333333","24.9806133333333","6500600","新店區"
"231004","899-TW","2017/09/11 13:39:15","新北市新店區北新路二段9號","121.542748333333","24.9713816666667","6500600","新店區"
"231037","AKT-0513","2017/09/11 13:39:31","新北市新店區薏仁坑路53-1號","121.491023333333","24.963725","6500600","新店區"
"235030","003-UY","2017/09/11 13:39:25","新北市中和區水源路37號","121.50446","25.0035566666667","6500300","中和區"
"235028","005-UY","2017/09/11 13:39:21","新北市中和區連城路139巷23號","121.496323333333","24.998165","6500300","中和區"
"235027","006-UY","2017/09/11 13:39:17","新北市中和區中正路700號","121.486113333333","24.9963283333333","6500300","中和區"
"235003","097-UM","2017/09/11 13:39:16","新北市中和區大勇街25巷46號","121.515366666667","24.9940566666667","6500300","中和區"
"235029","098-UM","2017/09/11 13:39:19","新北市中和區莊敬路33巷36弄14號","121.500653333333","25.0063783333333","6500300","中和區"
"235004","150-BY","2017/09/11 13:39:30","新北市中和區保健路50巷68號","121.50916","24.995195","6500300","中和區"
"235022","151-BY","2017/09/11 13:39:31","新北市中和區圓通路369巷55弄1號","121.490776666667","24.9841966666667","6500300","中和區"
"235019","183-VK","2017/09/11 13:39:35","新北市中和區莒光路120巷15弄2號","121.471678333333","25.0011033333333","6500300","中和區"
"235002","185-VK","2017/09/11 13:39:32","新北市永和區民有街75巷10弄18號","121.519085","24.9959783333333","6500300","中和區"
"235013","186-VK","2017/09/11 13:39:23","新北市中和區景安路153號","121.505675","24.99511","6500300","中和區"
"235031","255-BX","2017/09/11 13:39:23","新北市中和區新生街220巷2號","121.483158333333","24.99861","6500300","中和區"
"235008","293-VK","2017/09/11 13:39:31","新北市中和區景安路220巷1弄5號","121.503321666667","24.9905966666667","6500300","中和區"
"235036","301-VK","2017/09/11 13:39:18","新北市中和區連城路265巷1號","121.49142","24.996335","6500300","中和區"
"235007","352-BY","2017/09/11 13:39:23","新北市中和區景平路161-1號","121.512526666667","24.9923166666667","6500300","中和區"
"235015","376-QA","2017/09/11 13:39:16","新北市中和區華新街143巷106弄1號","121.505985","24.9791366666667","6500300","中和區"
"235032","377-QA","2017/09/11 13:39:31","新北市中和區中正路211巷24號","121.496915","24.9930516666667","6500300","中和區"
"235025","378-QA","2017/09/11 13:39:28","新北市中和區民享街91號","121.474326666667","25.00142","6500300","中和區"
"235014","4979-A6","2017/09/11 13:39:34","新北市中和區景新街496巷32弄20號","121.512725","24.9853883333333","6500300","中和區"
"235033","4980-A6","2017/09/11 13:39:31","新北市中和區連城路65巷11號","121.497948333333","25.0008216666667","6500300","中和區"
"235006","551-UM","2017/09/11 13:39:22","新北市中和區成功路41巷1號","121.526308333333","24.9932266666667","6500300","中和區"
"235034","558-UM","2017/09/11 13:39:25","新北市中和區南華路39-2號","121.503211666667","24.9963266666667","6500300","中和區"
"235009","565-BX","2017/09/11 13:39:32","新北市中和區南山路236巷36弄8號","121.504125","24.9884366666667","6500300","中和區"
"235018","640-BX","2017/09/11 13:39:26","新北市中和區民享街86巷9號","121.473948333333","25.0007966666667","6500300","中和區"
"235024","647-TV","2017/09/11 13:39:35","新北市中和區員山路489號","121.480028333333","25.0055616666667","6500300","中和區"
"235011","732-UM","2017/09/11 13:39:31","新北市中和區南山路320巷10弄14號","121.506873333333","24.98673","6500300","中和區"
"235010","733-UM","2017/09/11 13:39:25","新北市中和區忠孝街126-1號","121.512201666667","24.986325","6500300","中和區"
"235026","800-TS","2017/09/11 13:39:23","新北市中和區中山路二段312巷6號","121.495626666667","25.0027416666667","6500300","中和區"
"235021","801-TS","2017/09/11 13:39:30","新北市中和區民安街42巷14號","121.479731666667","25.00083","6500300","中和區"
"235005","802-TS","2017/09/11 13:39:34","新北市中和區中和路400巷27號","121.511811666667","25.00215","6500300","中和區"
"235016","805-TS","2017/09/11 13:39:24","新北市中和區興南路三段21號","121.496813333333","24.9791966666667","6500300","中和區"
"235012","896-TW","2017/09/11 13:39:33","新北市中和區中正路81號","121.5007","24.993465","6500300","中和區"
"235017","900-TW","2017/09/11 13:39:32","新北市土城區延壽路77巷4弄3號","121.469188333333","24.99287","6500300","中和區"
"235020","911-UM","2017/09/11 13:39:35","新北市中和區員山路466巷17弄18號","121.48049","25.00745","6500300","中和區"
"235001","AAC-213","2017/09/11 13:39:29","新北市中和區景平路111巷67號","121.515133333333","24.990315","6500300","中和區"
"235023","AAC-215","2017/09/11 13:39:25","新北市中和區員山路36巷16-3號","121.485036666667","24.9912266666667","6500300","中和區"
"220016","013-TV","2017/09/11 13:39:28","新北市板橋區民生路二段120號","121.470353333333","25.019605","6500100","板橋區"
"220013","072-UY","2017/09/11 13:39:24","新北市板橋區華東街1-9號","121.448125","24.994975","6500100","板橋區"
"220034","073-UY","2017/09/11 13:39:23","新北市板橋區南雅西路二段179號","121.451875","25.0126216666667","6500100","板橋區"
"220017","AAD-861","2017/09/11 13:39:32","新北市板橋區華東街1-10號","121.448435","24.99499","6500100","板橋區"
"247011","546-UM","2017/09/11 13:39:23","新北市五股區凌雲路一段21號","121.455268333333","25.0975966666667","6501400","蘆洲區"
"247009","339-TH","2017/09/11 13:39:05","新北市五股區凌雲路一段21號","121.455178333333","25.0977133333333","6501400","蘆洲區"
"247015","057-VK","2017/09/11 13:39:27","新北市五股區成泰路三段544-1號","121.453836666667","25.101345","6501400","蘆洲區"
"247017","001-UY","2017/09/11 13:39:16","新北市蘆洲區中正路520巷9號","121.4625","25.099655","6501400","蘆洲區"
"223008","406-TH","2017/09/11 11:01:46","新北市石碇區小粗坑(潭邊里)9-2號","121.678641666667","24.985905","6501900","石碇區"
"208004","AAC-292","2017/09/11 13:39:29","新北市金山區重和里三重橋11號","121.592743333333","25.1934083333333","6502700","金山區"
"207002","749-BX","2017/09/11 13:39:35","新北市萬里區崁腳里崁腳路166號","121.645216666667","25.15606","6502800","萬里區"
"252005","249-BX","2017/09/11 13:39:21","新北市三芝區圓山里內柑宅25-2號","121.536705","25.2259233333333","6502100","三芝區"
"207001","662-BX","2017/09/11 13:39:32","新北市萬里區磺潭里公館崙19號","121.6376","25.213985","6502800","萬里區"
"236040","107-UM","2017/09/11 13:39:24","新北市土城區城林路6巷80號","121.438531666667","24.97974","6501300","土城區"
"236074","166-UM","2017/09/11 13:39:28","新北市土城區城林路6巷80號","121.438248333333","24.97962","6501300","土城區"
"236012","270-VK","2017/09/11 13:39:23","新北市土城區城林路6巷80號","121.43861","24.9797616666667","6501300","土城區"
"236032","271-VK","2017/09/11 13:39:24","新北市土城區城林路6巷80號","121.43839","24.9798733333333","6501300","土城區"
"236005","498-BY","2017/09/11 13:39:20","新北市土城區慶祥街78號","121.436175","24.9735383333333","6501300","土城區"
"236052","AAC-216","2017/09/11 13:39:33","新北市土城區城林路6巷80號","121.438351666667","24.9797733333333","6501300","土城區"
"242028","986-R7","2017/09/11 11:09:01","新北市新莊區新泰路255巷83號","121.442185","25.039065","6500500","新莊區"
"242045","172-VK","2017/09/11 13:39:16","新北市新莊區四維路117號","121.423181666667","25.0231633333333","6500500","新莊區"
"221032","280-BY","2017/09/11 13:39:24","新北市汐止區秀峰路6巷12號","121.65906","25.0662416666667","6501100","汐止區"
"221002","753-BX","2017/09/11 13:39:34","新北市汐止區福德二路235號","121.626783333333","25.064505","6501100","汐止區"
"220027","145-BY","2017/09/11 13:39:33","新北市板橋區南雅西路二段194號","121.451705","25.0145616666667","6500100","板橋區"
"220028","200-UY","2017/09/11 13:39:25","新北市板橋區華東街1-10號","121.448316666667","24.995065","6500100","板橋區"
"220030","610-BX","2017/09/11 13:39:21","新北市板橋區華東街1-9號","121.448155","24.99502","6500100","板橋區"
"220023","256-TC","2017/09/11 13:39:21","新北市板橋區華東街1-9號","121.448178333333","24.9950016666667","6500100","板橋區"
"220040","267-BY","2017/09/11 13:38:02","新北市板橋區民生路二段161巷5號","121.470141666667","25.0196666666667","6500100","板橋區"
"220004","276-BY","2017/09/11 13:39:22","新北市板橋區四川路二段140巷18號","121.449383333333","24.9932916666667","6500100","板橋區"
"220020","277-BY","2017/09/11 13:39:33","新北市板橋區板城路407號","121.44745","24.9951666666667","6500100","板橋區"
"220019","283-VK","2017/09/11 13:39:24","新北市板橋區華東街1-9號","121.448071666667","24.9949233333333","6500100","板橋區"
"220043","285-UM","2017/09/11 13:39:29","新北市板橋區民生路二段161巷3號","121.470145","25.0198","6500100","板橋區"
"220001","285-VK","2017/09/11 13:39:22","新北市板橋區民生路二段120號","121.470336666667","25.01996","6500100","板橋區"
"220031","286-VK","2017/09/11 13:39:25","新北市板橋區華東街1-10號","121.448373333333","24.99509","6500100","板橋區"
"220009","295-UM","2017/09/11 02:48:21","新北市板橋區民生路二段120號","121.470421666667","25.0197716666667","6500100","板橋區"
"242001","281-VK","2017/09/11 13:39:21","新北市新莊區中港二街96號","121.449176666667","25.0457766666667","6500500","新莊區"
"220010","305-R5","2017/09/11 13:39:25","新北市板橋區民生路二段120號","121.470503333333","25.0196816666667","6500100","板橋區"
"220022","461-BY","2017/09/11 13:39:32","新北市板橋區南雅南路一段72號","121.455346666667","25.00515","6500100","板橋區"
"220012","486-VK","2017/09/11 13:39:32","新北市板橋區縣民大道一段187號","121.458671666667","25.00763","6500100","板橋區"
"220104","560-BX","2017/09/11 13:39:25","新北市板橋區林園街7-1號","121.454033333333","25.0092283333333","6500100","板橋區"
"220032","568-UM","2017/09/11 13:39:28","新北市板橋區華東街1-9號","121.448155","24.9949866666667","6500100","板橋區"
"220011","609-BX","2017/09/11 13:39:21","新北市板橋區民生路二段171號","121.469761666667","25.020145","6500100","板橋區"
"220025","687-BX","2017/09/11 13:39:30","新北市板橋區大觀路三段212巷70號","121.429756666667","24.993565","6500100","板橋區"
"220003","827-TW","2017/09/11 13:39:27","新北市板橋區華東街1-9號","121.44819","24.9949683333333","6500100","板橋區"
"220021","985-R7","2017/09/11 13:39:27","新北市板橋區四川路二段130巷25弄2號","121.449196666667","24.994435","6500100","板橋區"
"220018","AAC-253","2017/09/11 13:39:34","新北市板橋區華東街1-9號","121.448263333333","24.9949033333333","6500100","板橋區"
