"lineid","car","time","location","longitude","latitude","cityid","cityname"
"234044","148-BY","2017/09/11 14:03:19","新北市永和區永利路248號","121.524511666667","25.002835","6500400","永和區"
"234012","149-BY","2017/09/11 14:03:16","新北市永和區仁愛路295號","121.505255","25.0092733333333","6500400","永和區"
"234005","207-UY","2017/09/11 14:03:18","新北市中和區中和路356號","121.510171666667","25.0015183333333","6500400","永和區"
"234078","298-R6","2017/09/11 14:03:10","新北市永和區國中路86巷1號","121.524645","25.00617","6500400","永和區"
"234036","336-UY","2017/09/11 14:03:16","新北市永和區成功路二段75號","121.526733333333","24.9996116666667","6500400","永和區"
"234062","337-UY","2017/09/11 14:03:22","新北市永和區秀朗路一段196巷10號","121.519748333333","25.0026916666667","6500400","永和區"
"234084","338-UY","2017/09/11 14:03:08","新北市永和區福和路278號","121.517908333333","25.0075983333333","6500400","永和區"
"234068","552-UM","2017/09/11 14:03:08","新北市永和區永亨路49號","121.52018","25.0064133333333","6500400","永和區"
"234052","553-UM","2017/09/11 14:03:13","新北市永和區竹林路39巷46號","121.520215","25.0152766666667","6500400","永和區"
"234015","745-BX","2017/09/11 14:03:20","新北市永和區仁愛路7號","121.514903333333","25.0134533333333","6500400","永和區"
"234028","746-BX","2017/09/11 14:03:14","新北市永和區民權路49巷5弄32號","121.522075","24.99784","6500400","永和區"
"234060","AAD-866","2017/09/11 14:03:18","新北市永和區中正路151巷5弄1號","121.516046666667","24.9984933333333","6500400","永和區"
"234040","862-TW","2017/09/11 14:03:23","新北市永和區雙和街14號","121.509608333333","25.0021","6500400","永和區"
"234048","863-TW","2017/09/11 14:03:22","新北市永和區新生路237巷12號","121.506345","25.0135616666667","6500400","永和區"
"249005","172-UM","2017/09/11 14:03:14","新北市八里區中山路一段109號","121.414543333333","25.1598033333333","6502300","八里區"
"248015","026-BX","2017/09/11 14:03:16","新北市五股區成泰路三段577巷24號","121.451438333333","25.10297","6501500","五股區"
"248007","095-VK","2017/09/11 14:03:17","新北市五股區中興路一段118巷6弄28號","121.466381666667","25.0749016666667","6501500","五股區"
"248019","225-UY","2017/09/11 14:03:14","新北市五股區凌雲路三段57號","121.425365","25.1250366666667","6501500","五股區"
"248011","247-BX","2017/09/11 14:03:16","新北市五股區工商路42號","121.439251666667","25.0839","6501500","五股區"
"248009","272-BY","2017/09/11 14:03:11","新北市五股區水碓一路23號","121.430635","25.0713016666667","6501500","五股區"
"248003","677-BX","2017/09/11 14:03:21","新北市五股區民義路一段242-3號","121.426631666667","25.091985","6501500","五股區"
"248001","678-BX","2017/09/11 14:03:10","新北市五股區凌雲路一段158巷14-1號","121.447841666667","25.10352","6501500","五股區"
"234022","9380-KE","2017/09/11 14:03:22","新北市永和區博愛街31巷8號","121.518346666667","25.0160816666667","6500400","永和區"
"234076","969-R7","2017/09/11 14:03:05","新北市永和區民族街67巷10號","121.519026666667","24.997185","6500400","永和區"
"234072","AAC-211","2017/09/11 14:03:12","新北市永和區竹林路159號","121.520543333333","25.01031","6500400","永和區"
"234066","AAC-212","2017/09/11 14:03:13","新北市永和區永貞路356號","121.510275","25.006525","6500400","永和區"
"234001","AAC-295","2017/09/11 14:03:18","新北市永和區永和路一段118號","121.514086666667","25.0078","6500400","永和區"
"244018","403-UM","2017/09/11 12:57:15","新北市林口區粉寮69號","121.405061666667","25.09084","6501700","林口區"
"244001","657-BX","2017/09/11 14:03:18","新北市林口區太平里18-3號","121.362808333333","25.134785","6501700","林口區"
"244025","837-TS","2017/09/11 09:35:24","新北市林口區粉寮路二段160巷28號","121.405205","25.0907533333333","6501700","林口區"
"243005","AAD-798","2017/09/11 14:03:12","新北市泰山區明志路三段341巷5弄5號","121.42311","25.0351783333333","6501600","泰山區"
"243001","297-R6","2017/09/11 14:03:12","新北市泰山區福德街22號","121.432195","25.06295","6501600","泰山區"
"243007","380-SR","2017/09/11 14:03:12","新北市泰山區明志路一段297號","121.431735","25.059425","6501600","泰山區"
"243006","421-VK","2017/09/11 14:03:01","新北市泰山區黎明路23號","121.420936666667","25.0626466666667","6501600","泰山區"
"243002","KEA-2215","2017/09/11 14:03:08","新北市泰山區明志路一段352巷15弄1號","121.429861666667","25.0592066666667","6501600","泰山區"
"243003","KEA-2216","2017/09/11 14:03:11","新北市泰山區明志路二段298巷10號","121.42611","25.04668","6501600","泰山區"
"243004","646-TV","2017/09/11 14:03:20","新北市泰山區福興一街118號","121.431841666667","25.0577933333333","6501600","泰山區"
"243008","680-BX","2017/09/11 14:03:18","新北市泰山區明志路二段323號","121.426376666667","25.0455083333333","6501600","泰山區"
"231002","002-UM","2017/09/11 14:03:11","新北市新店區中正路554號","121.533716666667","24.9868516666667","6500600","新店區"
"231028","046-UY","2017/09/11 14:03:15","新北市新店區安和路三段35-1號","121.517111666667","24.9808016666667","6500600","新店區"
"231030","047-UY","2017/09/11 14:03:10","新北市新店區安民街121巷19號","121.51511","24.9686433333333","6500600","新店區"
"231029","106-UY","2017/09/11 14:03:12","新北市新店區安康路二段64號","121.51485","24.963635","6500600","新店區"
"231018","107-UY","2017/09/11 14:01:27","新北市新店區安華路3號","121.519341666667","24.95972","6500600","新店區"
"231011","108-UY","2017/09/11 14:03:06","新北市新店區五峰路129號","121.544965","24.9659233333333","6500600","新店區"
"231019","187-VK","2017/09/11 14:03:05","新北市新店區屈尺路75號","121.545696666667","24.922695","6500600","新店區"
"231014","215-TC","2017/09/11 14:03:07","新北市新店區郵政路29號","121.556221666667","24.95146","6500600","新店區"
"231026","256-BX","2017/09/11 14:03:01","新北市新店區安康路一段266巷4號","121.520061666667","24.9639533333333","6500600","新店區"
"231027","3712-VJ","2017/09/11 14:03:16","新北市新店區北宜路一段3號","121.538465","24.9584166666667","6500600","新店區"
"231024","3713-VJ","2017/09/11 14:03:24","新北市新店區力行路14巷8號","121.539356666667","24.965035","6500600","新店區"
"231025","4716-K9","2017/09/11 14:03:14","新北市新店區中正路275巷11號","121.537408333333","24.9737283333333","6500600","新店區"
"231038","4715-K9","2017/09/11 14:03:13","新北市新店區溪洲路121號","121.53127","24.9630466666667","6500600","新店區"
"231036","512-UM","2017/09/11 14:03:10","新北市新店區安祥路110巷18號","121.474358333333","24.9566","6500600","新店區"
"231023","513-UM","2017/09/11 14:03:23","新北市新店區文中路40號","121.539743333333","24.9566","6500600","新店區"
"231035","515-UM","2017/09/11 14:03:06","新北市新店區安和路一段52巷2號","121.517621666667","24.9660616666667","6500600","新店區"
"231003","616-UM","2017/09/11 14:03:21","新北市新店區中興路一段24-2號","121.538576666667","24.9584116666667","6500600","新店區"
"231006","617-UM","2017/09/11 14:03:12","新北市新店區北宜路二段205號","121.553063333333","24.9534","6500600","新店區"
"231001","619-UM","2017/09/11 14:03:08","新北市新店區三民路43號","121.537223333333","24.9709433333333","6500600","新店區"
"231034","645-TV","2017/09/11 14:03:15","新北市新店區達觀路16號","121.502955","24.9411966666667","6500600","新店區"
"231013","719-UM","2017/09/11 14:03:23","新北市新店區北新路三段65巷18號","121.5406","24.981065","6500600","新店區"
"231031","720-UM","2017/09/11 14:03:19","新北市新店區永業路12號","121.533575","24.9559983333333","6500600","新店區"
"231005","897-TW","2017/09/11 14:03:16","新北市新店區中興路三段232號","121.54328","24.9833466666667","6500600","新店區"
"231004","899-TW","2017/09/11 14:03:14","新北市新店區北新路二段167號","121.54285","24.9763516666667","6500600","新店區"
"231037","AKT-0513","2017/09/11 14:03:11","新北市新店區安康路三段207巷19號","121.488445","24.9507783333333","6500600","新店區"
"235030","003-UY","2017/09/11 14:03:05","新北市中和區中山路二段131巷5弄16號","121.503335","25.0032583333333","6500300","中和區"
"235028","005-UY","2017/09/11 14:03:21","新北市中和區泰和街44巷1號","121.498803333333","25.0001183333333","6500300","中和區"
"235027","006-UY","2017/09/11 14:03:17","新北市中和區中正路602號","121.485596666667","24.9952766666667","6500300","中和區"
"235003","097-UM","2017/09/11 14:03:16","新北市中和區自立路58巷10號","121.523151666667","24.991425","6500300","中和區"
"235029","098-UM","2017/09/11 14:03:19","新北市中和區莊敬路30號","121.501335","25.0051733333333","6500300","中和區"
"235004","150-BY","2017/09/11 14:03:10","新北市中和區保健路46巷18號","121.509006666667","24.9963416666667","6500300","中和區"
"235022","151-BY","2017/09/11 14:03:11","新北市中和區連城路569巷9弄11號","121.47972","24.994155","6500300","中和區"
"235019","183-VK","2017/09/11 14:03:16","新北市中和區德光路12號","121.471371666667","25.00457","6500300","中和區"
"235002","185-VK","2017/09/11 14:03:17","新北市中和區立人街24-5號","121.51895","24.99416","6500300","中和區"
"235013","186-VK","2017/09/11 14:03:23","新北市中和區景安路163號","121.505345","24.9945616666667","6500300","中和區"
"235031","255-BX","2017/09/11 14:03:23","新北市中和區新生街164號","121.48368","25.0002783333333","6500300","中和區"
"235008","293-VK","2017/09/11 14:03:11","新北市中和區中興街161巷5弄22號","121.500841666667","24.9914533333333","6500300","中和區"
"235036","301-VK","2017/09/11 14:03:18","新北市中和區中山路二段75號","121.503761666667","25.0043066666667","6500300","中和區"
"235007","352-BY","2017/09/11 14:03:20","新北市中和區成功路93號","121.52608","24.9918433333333","6500300","中和區"
"235015","376-QA","2017/09/11 14:03:16","新北市中和區忠孝街19巷12號","121.510131666667","24.983225","6500300","中和區"
"235032","377-QA","2017/09/11 14:03:11","新北市中和區圓通路355號","121.491395","24.9901516666667","6500300","中和區"
"235025","378-QA","2017/09/11 14:03:08","新北市中和區員山路394巷3號","121.480771666667","25.0046066666667","6500300","中和區"
"235014","4979-A6","2017/09/11 14:03:18","新北市中和區復興路81號","121.503503333333","24.9898716666667","6500300","中和區"
"235033","4980-A6","2017/09/11 14:03:11","新北市中和區中和路217巷18弄1號","121.504771666667","25.0003416666667","6500300","中和區"
"235006","551-UM","2017/09/11 14:03:22","新北市中和區秀朗路三段128巷1弄9號","121.52402","24.9918383333333","6500300","中和區"
"235034","558-UM","2017/09/11 14:03:05","新北市中和區南山路17號","121.501991666667","24.99918","6500300","中和區"
"235009","565-BX","2017/09/11 14:03:12","新北市中和區景新街467巷20弄7-5號","121.514421666667","24.98786","6500300","中和區"
"235018","640-BX","2017/09/11 14:03:06","新北市中和區民享街37號","121.474143333333","25.0037033333333","6500300","中和區"
"235024","647-TV","2017/09/11 14:03:15","新北市中和區民治街5巷2號","121.47509","25.0049883333333","6500300","中和區"
"235011","732-UM","2017/09/11 14:03:11","新北市中和區興南路二段70號","121.506138333333","24.9847883333333","6500300","中和區"
"235010","733-UM","2017/09/11 14:03:05","新北市中和區忠孝街1巷48號","121.508483333333","24.9843416666667","6500300","中和區"
"235026","800-TS","2017/09/11 14:03:23","新北市中和區中山路二段340巷63號","121.492876666667","25.0049183333333","6500300","中和區"
"235021","801-TS","2017/09/11 14:03:09","新北市中和區民安街53-4號","121.479231666667","24.9996566666667","6500300","中和區"
"235005","802-TS","2017/09/11 14:03:14","新北市中和區永貞路260號","121.5139","25.00358","6500300","中和區"
"235016","805-TS","2017/09/11 14:03:24","新北市中和區興南路二段244號","121.503321666667","24.9820283333333","6500300","中和區"
"235012","896-TW","2017/09/11 14:03:12","新北市中和區忠孝街1巷1號","121.508853333333","24.9832333333333","6500300","中和區"
"235017","900-TW","2017/09/11 14:03:12","新北市中和區和平路200巷5號","121.464646666667","24.995145","6500300","中和區"
"235020","911-UM","2017/09/11 14:03:18","新北市中和區員山路534號","121.478735","25.0099033333333","6500300","中和區"
"235001","AAC-213","2017/09/11 14:03:09","新北市中和區秀朗路三段10巷14弄39號","121.524201666667","24.99616","6500300","中和區"
"235023","AAC-215","2017/09/11 14:02:45","新北市中和區圓通路433巷8號","121.48791","24.988365","6500300","中和區"
"220016","013-TV","2017/09/11 14:03:08","新北市板橋區三民路一段31巷19號","121.480148333333","25.02317","6500100","板橋區"
"220013","072-UY","2017/09/11 14:03:05","新北市板橋區民族路287巷12號","121.471201666667","25.0072166666667","6500100","板橋區"
"220034","073-UY","2017/09/11 14:03:03","新北市板橋區中正路228號","121.455861666667","25.01872","6500100","板橋區"
"220105","075-UY","2017/09/11 14:03:23","新北市板橋區莒光路29號","121.470165","25.0246583333333","6500100","板橋區"
"220017","AAD-861","2017/09/11 14:03:12","新北市板橋區華興街66號","121.457508333333","25.0049483333333","6500100","板橋區"
"220051","120-SR","2017/09/11 14:03:17","新北市板橋區田單街2巷13號","121.481988333333","25.0286316666667","6500100","板橋區"
"247021","893-R6","2017/09/11 14:03:02","新北市蘆洲區民族路451號","121.467453333333","25.0886483333333","6501400","蘆洲區"
"247011","546-UM","2017/09/11 14:03:03","新北市蘆洲區民族路158號","121.479635","25.0862","6501400","蘆洲區"
"247019","500-BY","2017/09/11 14:03:20","新北市蘆洲區民族路422巷128號","121.472395","25.0943933333333","6501400","蘆洲區"
"247009","339-TH","2017/09/11 14:03:05","新北市蘆洲區集賢路224巷27號","121.481723333333","25.08706","6501400","蘆洲區"
"247001","337-TH","2017/09/11 14:03:04","新北市蘆洲區永平街32巷22弄1號","121.459841666667","25.09234","6501400","蘆洲區"
"247003","336-TH","2017/09/11 14:03:16","新北市蘆洲區長安街106號","121.461736666667","25.0812866666667","6501400","蘆洲區"
"247015","057-VK","2017/09/11 14:03:07","新北市蘆洲區中正路185巷3弄52號","121.468856666667","25.0844183333333","6501400","蘆洲區"
"247005","056-VK","2017/09/11 14:03:04","新北市蘆洲區九芎街88號","121.465891666667","25.0797983333333","6501400","蘆洲區"
"247007","053-VK","2017/09/11 14:03:03","新北市蘆洲區國道路二段25號","121.474845","25.0737883333333","6501400","蘆洲區"
"247013","007-UY","2017/09/11 14:03:14","新北市蘆洲區保和街67號","121.469483333333","25.08589","6501400","蘆洲區"
"247017","001-UY","2017/09/11 14:03:16","新北市蘆洲區民族路327巷3號","121.474553333333","25.0911766666667","6501400","蘆洲區"
"223008","406-TH","2017/09/11 11:01:46","新北市石碇區小粗坑(潭邊里)9-2號","121.678641666667","24.985905","6501900","石碇區"
"208004","AAC-292","2017/09/11 14:03:09","新北市金山區山城路58號","121.598396666667","25.2019383333333","6502700","金山區"
"207002","749-BX","2017/09/11 14:03:15","新北市萬里區溪底里富士坪路21-5號","121.62972","25.1496266666667","6502800","萬里區"
"252005","249-BX","2017/09/11 14:03:21","新北市三芝區橫山里橫山21號","121.540266666667","25.2628183333333","6502100","三芝區"
"207001","662-BX","2017/09/11 14:03:12","新北市萬里區磺潭里清水18號","121.637881666667","25.197755","6502800","萬里區"
"236064","105-UM","2017/09/11 14:03:16","新北市土城區城林路6巷80號","121.438428333333","24.9797683333333","6501300","土城區"
"236040","107-UM","2017/09/11 14:03:16","新北市土城區裕生路61號","121.447698333333","24.9860933333333","6501300","土城區"
"236074","166-UM","2017/09/11 14:03:13","新北市土城區永寧路32巷42弄10號","121.428223333333","24.9614333333333","6501300","土城區"
"236028","253-BX","2017/09/11 14:03:14","新北市土城區城林路6巷80號","121.43853","24.9798116666667","6501300","土城區"
"236024","269-VK","2017/09/11 14:03:14","新北市土城區承天路18號","121.439391666667","24.96347","6501300","土城區"
"236012","270-VK","2017/09/11 14:03:23","新北市土城區員林街57號","121.44372","24.9776316666667","6501300","土城區"
"236032","271-VK","2017/09/11 14:03:04","新北市土城區金城路二段65-1號","121.451291666667","24.97886","6501300","土城區"
"236016","401-BY","2017/09/11 14:03:11","新北市土城區城林路6巷80號","121.438606666667","24.9797983333333","6501300","土城區"
"236005","498-BY","2017/09/11 14:03:21","新北市土城區中央路一段73號","121.447615","24.9896166666667","6501300","土城區"
"236056","912-UM","2017/09/11 14:03:23","新北市土城區中央路三段226號","121.428843333333","24.964375","6501300","土城區"
"236044","913-UM","2017/09/11 14:03:15","新北市土城區中正路75號","121.444968333333","24.975775","6501300","土城區"
"236060","915-UM","2017/09/11 14:03:13","新北市土城區中華路二段2號","121.439485","24.9795966666667","6501300","土城區"
"236052","AAC-216","2017/09/11 14:03:13","新北市土城區城林路6巷80號","121.438355","24.9798233333333","6501300","土城區"
"242028","986-R7","2017/09/11 11:09:01","新北市新莊區新泰路255巷83號","121.442185","25.039065","6500500","新莊區"
"242045","172-VK","2017/09/11 14:03:16","新北市新莊區新樹路605號","121.433178333333","25.0056383333333","6500500","新莊區"
"220027","145-BY","2017/09/11 14:03:13","新北市板橋區民權路202巷9弄62號","121.459036666667","25.01579","6500100","板橋區"
"220028","200-UY","2017/09/11 14:03:05","新北市板橋區大觀路二段文和巷77-1號","121.444078333333","24.998435","6500100","板橋區"
"220030","610-BX","2017/09/11 14:03:21","新北市板橋區篤行路二段136號","121.429876666667","24.988425","6500100","板橋區"
"220023","256-TC","2017/09/11 14:03:21","新北市板橋區大仁街122號","121.45249","25.0157866666667","6500100","板橋區"
"220046","257-TC","2017/09/11 14:03:21","新北市板橋區國光路208號","121.462073333333","25.0185516666667","6500100","板橋區"
"220040","267-BY","2017/09/11 14:03:02","新北市板橋區萬板路316號","121.477751666667","25.025265","6500100","板橋區"
"220004","276-BY","2017/09/11 14:03:21","新北市土城區廣興街2號","121.456895","24.9920016666667","6500100","板橋區"
"220020","277-BY","2017/09/11 14:03:13","新北市板橋區溪北路111號","121.4301","24.988715","6500100","板橋區"
"220050","280-UM","2017/09/11 14:03:22","新北市板橋區莊敬路113號","121.472233333333","25.0257366666667","6500100","板橋區"
"220019","283-VK","2017/09/11 14:03:24","新北市板橋區忠孝路154巷5號","121.464173333333","25.002065","6500100","板橋區"
"220043","285-UM","2017/09/11 14:03:09","新北市板橋區光武街24號","121.467698333333","25.0254733333333","6500100","板橋區"
"220001","285-VK","2017/09/11 14:03:22","新北市板橋區太和街4巷2號","121.473975","25.019735","6500100","板橋區"
"220031","286-VK","2017/09/11 14:03:05","新北市板橋區大觀路一段38巷180號","121.44154","25.00463","6500100","板橋區"
"220029","287-VK","2017/09/11 14:03:18","新北市板橋區光華街28巷1號","121.453926666667","25.0125616666667","6500100","板橋區"
"220039","288-VK","2017/09/11 14:03:18","新北市板橋區互助街25巷9號","121.463266666667","25.027105","6500100","板橋區"
"220009","295-UM","2017/09/11 14:03:20","新北市板橋區懷仁街95號","121.477636666667","25.0181516666667","6500100","板橋區"
"242001","281-VK","2017/09/11 14:03:21","新北市新莊區瓊林路59-66號","121.441403333333","25.0226983333333","6500500","新莊區"
"220010","305-R5","2017/09/11 14:03:23","新北市板橋區三民路二段245巷89-1號","121.48157","25.0126433333333","6500100","板橋區"
"220041","307-R5","2017/09/11 14:03:17","新北市板橋區文化路一段144號","121.465333333333","25.018925","6500100","板橋區"
"220047","317-R6","2017/09/11 14:03:19","新北市板橋區四維路112巷36號","121.465316666667","25.0258666666667","6500100","板橋區"
"220022","461-BY","2017/09/11 14:03:11","新北市板橋區館前西路120號","121.456725","25.0077083333333","6500100","板橋區"
"220012","486-VK","2017/09/11 14:03:12","新北市板橋區中山路一段317號","121.471566666667","25.0148433333333","6500100","板橋區"
"220038","487-VK","2017/09/11 14:03:06","新北市板橋區文化路二段472號","121.47512","25.0326283333333","6500100","板橋區"
"220037","491-VK","2017/09/11 14:03:11","新北市板橋區文化路二段19號","121.468885","25.0245983333333","6500100","板橋區"
"220104","560-BX","2017/09/11 14:03:05","新北市板橋區中正路375巷27號","121.453851666667","25.02016","6500100","板橋區"
"220052","561-BX","2017/09/11 14:03:13","新北市板橋區文化路一段188巷9弄39號","121.469358333333","25.0191916666667","6500100","板橋區"
"220032","568-UM","2017/09/11 14:03:08","新北市板橋區龍興街34號","121.443076666667","25.0005416666667","6500100","板橋區"
"220011","609-BX","2017/09/11 14:03:22","新北市板橋區中山路二段260號","121.478933333333","25.0183166666667","6500100","板橋區"
"220005","686-BX","2017/09/11 14:03:09","新北市板橋區重慶路63號","121.461925","25.0071583333333","6500100","板橋區"
"220025","687-BX","2017/09/11 14:03:10","新北市板橋區大觀路二段174巷171號","121.441933333333","25.00351","6500100","板橋區"
"220042","689-BX","2017/09/11 14:03:14","新北市板橋區民生路三段170號","121.465851666667","25.0278483333333","6500100","板橋區"
"220002","741-BX","2017/09/11 14:03:12","新北市板橋區後埔街79號","121.460646666667","25.00553","6500100","板橋區"
"220003","827-TW","2017/09/11 14:03:07","新北市板橋區中山路一段156-3號","121.465541666667","25.0114283333333","6500100","板橋區"
"220014","829-TW","2017/09/11 14:03:25","新北市板橋區民享街116巷13號","121.478543333333","25.0155483333333","6500100","板橋區"
"220045","831-TW","2017/09/11 14:03:03","新北市板橋區莒光路157號","121.473658333333","25.024125","6500100","板橋區"
"220021","985-R7","2017/09/11 14:03:07","新北市板橋區北門街55號","121.456038333333","25.01171","6500100","板橋區"
"220018","AAC-253","2017/09/11 14:03:14","新北市板橋區四川路一段467號","121.457358333333","24.997625","6500100","板橋區"
