"lineid","car","time","location","longitude","latitude","cityid","cityname"
"248007","095-VK","2017/09/11 15:18:57","新北市五股區中興路一段1巷26-1號","121.469455","25.070135","6501500","五股區"
"248003","677-BX","2017/09/11 15:19:01","新北市五股區中興路四段40號","121.438571666667","25.08287","6501500","五股區"
"244018","403-UM","2017/09/11 12:57:15","新北市林口區粉寮69號","121.405061666667","25.09084","6501700","林口區"
"244025","837-TS","2017/09/11 09:35:24","新北市林口區粉寮路二段160巷28號","121.405205","25.0907533333333","6501700","林口區"
"243003","KEA-2216","2017/09/11 15:18:51","新北市泰山區中山路二段661號","121.429766666667","25.03994","6501600","泰山區"
"243008","680-BX","2017/09/11 15:18:57","新北市泰山區明志路二段181號","121.427478333333","25.0499566666667","6501600","泰山區"
"231002","002-UM","2017/09/11 15:18:51","新北市新店區中正路700巷3號","121.53353","24.99176","6500600","新店區"
"231028","046-UY","2017/09/11 15:18:55","新北市新店區僑信路90巷46號","121.498581666667","24.94746","6500600","新店區"
"231030","047-UY","2017/09/11 15:18:50","新北市新店區安民街339號","121.517008333333","24.9748066666667","6500600","新店區"
"231029","106-UY","2017/09/11 15:18:52","新北市新店區安康路三段740號","121.47379","24.9419983333333","6500600","新店區"
"231011","108-UY","2017/09/11 15:19:06","新北市新店區順安街74號","121.54122","24.9866733333333","6500600","新店區"
"231018","110-UY","2017/09/11 15:19:01","新北市新店區中央二街5巷2號","121.528931666667","24.972935","6500600","新店區"
"231019","187-VK","2017/09/11 15:19:05","新北市新店區花園二路三段21號","121.5571","24.9322466666667","6500600","新店區"
"231026","256-BX","2017/09/11 15:18:49","新北市新店區中正路265巷21號","121.537858333333","24.97323","6500600","新店區"
"231024","3713-VJ","2017/09/11 15:18:47","新北市新店區新明街14號","121.541018333333","24.9682816666667","6500600","新店區"
"231025","4716-K9","2017/09/11 15:18:54","新北市新店區中央路151號","121.52957","24.9723716666667","6500600","新店區"
"231036","512-UM","2017/09/11 15:18:50","新北市新店區安祥路69巷17號","121.48187","24.9613533333333","6500600","新店區"
"231023","513-UM","2017/09/11 15:19:03","新北市新店區行政街24號","121.543021666667","24.9656216666667","6500600","新店區"
"231035","515-UM","2017/09/11 15:19:06","新北市新店區永平街23巷1號","121.51686","24.98329","6500600","新店區"
"231003","616-UM","2017/09/11 15:18:59","新北市新店區寶高路83號","121.553248333333","24.9770966666667","6500600","新店區"
"231006","617-UM","2017/09/11 15:18:52","新北市新店區新坡一街88號","121.548283333333","24.9620033333333","6500600","新店區"
"231001","619-UM","2017/09/11 15:18:48","新北市新店區北新路一段88巷1號","121.541646666667","24.9678466666667","6500600","新店區"
"231034","645-TV","2017/09/11 15:18:57","新北市新店區玫瑰路32號","121.495488333333","24.95011","6500600","新店區"
"231039","718-UY","2017/09/11 15:19:04","新北市新店區寶元路一段61號","121.542223333333","24.9860433333333","6500600","新店區"
"231031","720-UM","2017/09/11 15:18:58","新北市新店區和成街19巷24號","121.487653333333","24.9460533333333","6500600","新店區"
"231005","897-TW","2017/09/11 15:18:59","新北市新店區民族路59號","121.539913333333","24.9783316666667","6500600","新店區"
"231004","899-TW","2017/09/11 15:18:54","新北市新店區博愛街13巷24號","121.5402","24.97402","6500600","新店區"
"231037","AKT-0513","2017/09/11 15:19:10","新北市新店區安興路91巷28-1號","121.512156666667","24.974815","6500600","新店區"
"235030","003-UY","2017/09/11 15:19:05","新北市中和區南工路87號","121.507113333333","25.003055","6500300","中和區"
"235003","097-UM","2017/09/11 15:18:56","新北市中和區安平路17號","121.509121666667","24.9941416666667","6500300","中和區"
"235008","293-VK","2017/09/11 15:18:50","新北市中和區中正路65巷6號","121.501188333333","24.9929416666667","6500300","中和區"
"235036","301-VK","2017/09/11 15:18:58","新北市中和區員山路36巷16-2號","121.485276666667","24.9918266666667","6500300","中和區"
"235032","377-QA","2017/09/11 15:19:04","新北市中和區中山路二段250巷24號","121.497306666667","25.0033666666667","6500300","中和區"
"235014","4979-A6","2017/09/11 15:18:54","新北市中和區景安路82巷6弄4號","121.505263333333","24.9963316666667","6500300","中和區"
"235033","4980-A6","2017/09/11 15:18:51","新北市中和區中正路304號","121.494211666667","24.9941316666667","6500300","中和區"
"235034","558-UM","2017/09/11 15:19:05","新北市中和區中正路226號","121.496256666667","24.99409","6500300","中和區"
"235012","896-TW","2017/09/11 15:18:53","新北市中和區興南路一段20-1號","121.511286666667","24.9910533333333","6500300","中和區"
"235023","AAC-215","2017/09/11 15:19:05","新北市中和區圓通路316號","121.486501666667","24.98763","6500300","中和區"
"220013","072-UY","2017/09/11 15:19:04","新北市板橋區懷德街139巷20弄25-15號","121.482128333333","25.0317083333333","6500100","板橋區"
"220017","AAD-861","2017/09/11 15:19:00","新北市板橋區大明街25巷2弄2號","121.45828","25.0023333333333","6500100","板橋區"
"220051","120-SR","2017/09/11 15:18:57","新北市板橋區漢生東路83巷2號","121.466935","25.015765","6500100","板橋區"
"247009","339-TH","2017/09/11 15:19:05","新北市八里區中山路三段409號","121.368631666667","25.134865","6501400","蘆洲區"
"247007","053-VK","2017/09/11 15:19:03","新北市林口區太平里180號","121.367228333333","25.1337283333333","6501400","蘆洲區"
"223008","406-TH","2017/09/11 11:01:46","新北市石碇區小粗坑(潭邊里)9-2號","121.678641666667","24.985905","6501900","石碇區"
"208004","AAC-292","2017/09/11 15:19:09","新北市金山區三界壇路1-8號","121.618878333333","25.2330133333333","6502700","金山區"
"207002","749-BX","2017/09/11 15:18:55","新北市萬里區崁腳里內中福路4-2號","121.667001666667","25.1644183333333","6502800","萬里區"
"207001","662-BX","2017/09/11 15:18:52","新北市萬里區大鵬里萬里加投29號","121.648003333333","25.206135","6502800","萬里區"
"236064","105-UM","2017/09/11 15:18:56","新北市土城區學府路一段143巷18號","121.454155","24.985505","6501300","土城區"
"236040","107-UM","2017/09/11 15:18:56","新北市土城區裕民路259巷8號","121.454978333333","24.9834166666667","6501300","土城區"
"236074","166-UM","2017/09/11 15:18:53","新北市土城區溪頭路20巷2弄2號","121.41287","24.9555283333333","6501300","土城區"
"236028","253-BX","2017/09/11 15:18:55","新北市土城區中央路一段318巷2號","121.442975","24.9818816666667","6501300","土城區"
"236024","269-VK","2017/09/11 15:18:53","新北市土城區中央路二段98號","121.442278333333","24.978375","6501300","土城區"
"236012","270-VK","2017/09/11 15:19:03","新北市土城區學府路一段23巷16號","121.45791","24.987285","6501300","土城區"
"236032","271-VK","2017/09/11 15:19:04","新北市土城區國際路139巷53號","121.468375","24.9775516666667","6501300","土城區"
"236016","401-BY","2017/09/11 15:18:50","新北市土城區峰廷街3號","121.469126666667","24.987435","6501300","土城區"
"236056","912-UM","2017/09/11 15:19:03","新北市土城區金城路一段55號","121.441365","24.9697966666667","6501300","土城區"
"236044","913-UM","2017/09/11 15:18:55","新北市土城區金城路三段6號","121.464366666667","24.9860183333333","6501300","土城區"
"236052","AAC-216","2017/09/11 15:18:53","新北市土城區學府路一段254號","121.451393333333","24.9844566666667","6501300","土城區"
"242028","986-R7","2017/09/11 11:09:01","新北市新莊區新泰路255巷83號","121.442185","25.039065","6500500","新莊區"
"238002","755-BX","2017/09/11 15:19:04","新北市樹林區啟智街156巷1號","121.414766666667","24.9874883333333","6500700","樹林區"
"238010","601-UM","2017/09/11 15:19:05","新北市樹林區大安路221號","121.42016","24.9951333333333","6500700","樹林區"
"238006","599-UM","2017/09/11 15:19:04","新北市樹林區八德街251巷8號","121.422185","24.9787666666667","6500700","樹林區"
"238005","571-TV","2017/09/11 15:18:56","新北市板橋區大觀路三段36巷5-3號","121.432993333333","24.9959383333333","6500700","樹林區"
"238011","5061-A6","2017/09/11 15:19:01","新北市樹林區博愛一街29巷66號","121.425818333333","24.99166","6500700","樹林區"
"238008","KEA-2217","2017/09/11 15:18:53","新北市樹林區西圳街165巷20弄26號","121.395623333333","24.9600266666667","6500700","樹林區"
"238009","KEA-2213","2017/09/11 15:19:03","新北市樹林區忠孝街93號","121.424256666667","24.98103","6500700","樹林區"
"238012","303-VK","2017/09/11 15:18:59","新北市樹林區中山路二段111號","121.410636666667","24.981","6500700","樹林區"
"238004","283-BY","2017/09/11 15:18:58","新北市樹林區太平路247巷30號","121.42096","24.975945","6500700","樹林區"
"238001","282-BY","2017/09/11 15:18:51","新北市樹林區大安路503號","121.414243333333","24.986415","6500700","樹林區"
"238007","268-VK","2017/09/11 15:19:02","新北市樹林區大安路147號","121.421738333333","24.9969466666667","6500700","樹林區"
"238013","172-UY","2017/09/11 15:19:00","新北市樹林區東順街79巷2號","121.409475","24.9763233333333","6500700","樹林區"
"238003","169-UY","2017/09/11 15:18:38","新北市樹林區中華路190-6號","121.410123333333","24.9805233333333","6500700","樹林區"
"221002","707-TV","2017/09/11 15:18:56","新北市汐止區汐萬路一段39號","121.654923333333","25.0690633333333","6501100","汐止區"
"220030","610-BX","2017/09/11 15:19:00","新北市板橋區篤行路二段88號","121.431576666667","24.991745","6500100","板橋區"
"220046","257-TC","2017/09/11 15:19:01","新北市板橋區文化路一段101巷11號","121.46075","25.014515","6500100","板橋區"
"220050","280-UM","2017/09/11 15:19:03","新北市板橋區雙十路二段47巷2弄29號","121.475018333333","25.0269433333333","6500100","板橋區"
"220031","286-VK","2017/09/11 15:19:01","新北市板橋區僑中二街88巷19號","121.445411666667","25.0094116666667","6500100","板橋區"
"220029","287-VK","2017/09/11 15:18:58","新北市板橋區僑中一街80巷5弄8號","121.447451666667","25.0125833333333","6500100","板橋區"
"242001","281-VK","2017/09/11 15:18:53","新北市新莊區環河路636-7號","121.437565","25.011705","6500500","新莊區"
"220010","305-R5","2017/09/11 15:19:05","新北市樹林區中華路6-3號","121.424763333333","24.9840016666667","6500100","板橋區"
"220047","317-R6","2017/09/11 15:18:58","新北市板橋區大觀路二段385巷7號","121.440915","24.9972766666667","6500100","板橋區"
"220012","486-VK","2017/09/11 15:18:52","新北市板橋區長安街331巷10號","121.474251666667","25.0123683333333","6500100","板橋區"
"220038","487-VK","2017/09/11 15:19:06","新北市板橋區互助街53號","121.460873333333","25.0265033333333","6500100","板橋區"
"220037","491-VK","2017/09/11 15:18:51","新北市板橋區民治街73-1號","121.479635","25.0326883333333","6500100","板橋區"
"220052","561-BX","2017/09/11 15:18:53","新北市板橋區漢生西路79巷2號","121.46268","25.019405","6500100","板橋區"
"220011","609-BX","2017/09/11 15:19:02","新北市板橋區三民路一段149號","121.479291666667","25.0195883333333","6500100","板橋區"
"220025","687-BX","2017/09/11 15:18:50","新北市板橋區大觀路一段59號","121.447461666667","25.006085","6500100","板橋區"
"220042","689-BX","2017/09/11 15:18:54","新北市板橋區長江路二段139號","121.46547","25.0316516666667","6500100","板橋區"
"220018","AAC-253","2017/09/11 15:18:54","新北市板橋區四川路二段245巷71號","121.45279","24.9920183333333","6500100","板橋區"
