"lineid","car","time","location","longitude","latitude","cityid","cityname"
"244018","403-UM","2017/09/11 12:57:15","新北市林口區粉寮69號","121.405061666667","25.09084","6501700","林口區"
"244025","837-TS","2017/09/11 09:35:24","新北市林口區粉寮路二段160巷28號","121.405205","25.0907533333333","6501700","林口區"
"231028","046-UY","2017/09/11 15:38:54","新北市新店區安豐路45號","121.50021","24.9550916666667","6500600","新店區"
"231030","047-UY","2017/09/11 15:38:50","新北市新店區新和街93巷12號","121.520711666667","24.986725","6500600","新店區"
"231029","106-UY","2017/09/11 15:38:52","新北市新店區安康路三段47號","121.492713333333","24.9526116666667","6500600","新店區"
"231011","108-UY","2017/09/11 15:38:46","新北市新店區文化路92號","121.544986666667","24.9825616666667","6500600","新店區"
"231018","110-UY","2017/09/11 15:39:01","新北市新店區中央七街11號","121.530343333333","24.9749516666667","6500600","新店區"
"231019","187-VK","2017/09/11 15:38:45","新北市新店區新烏路一段85巷2號","121.54812","24.9420433333333","6500600","新店區"
"231014","215-TC","2017/09/11 15:38:47","新北市新店區北宜路二段108號","121.555956666667","24.953715","6500600","新店區"
"231026","256-BX","2017/09/11 15:38:49","新北市新店區三民路75巷5弄1號","121.535568333333","24.9707983333333","6500600","新店區"
"231046","278-BY","2017/09/11 15:38:50","新北市新店區安華路28-1號","121.519393333333","24.961245","6500600","新店區"
"231038","4715-K9","2017/09/11 15:38:53","新北市新店區安康路一段258-1號","121.520578333333","24.9643716666667","6500600","新店區"
"231036","512-UM","2017/09/11 15:38:50","新北市新店區安祥路65號","121.483668333333","24.9601816666667","6500600","新店區"
"231023","513-UM","2017/09/11 15:39:02","新北市新店區中興路一段285號","121.545285","24.9686233333333","6500600","新店區"
"231035","515-UM","2017/09/11 15:39:06","新北市新店區安興路83-3號","121.515346666667","24.975455","6500600","新店區"
"231003","616-UM","2017/09/11 15:39:00","新北市新店區寶興路47號","121.549128333333","24.9734033333333","6500600","新店區"
"231034","645-TV","2017/09/11 15:38:54","新北市新店區玫瑰路58巷18號","121.494503333333","24.946715","6500600","新店區"
"231039","718-UY","2017/09/11 15:38:44","新北市新店區寶元路二段11號","121.546133333333","24.982415","6500600","新店區"
"231013","719-UM","2017/09/11 15:39:02","新北市新店區永業路81巷60號","121.529203333333","24.94814","6500600","新店區"
"231031","720-UM","2017/09/11 15:38:58","新北市新店區雙城路133號","121.497958333333","24.938775","6500600","新店區"
"231005","897-TW","2017/09/11 15:38:55","新北市新店區建國路122號","121.539198333333","24.9786933333333","6500600","新店區"
"231004","899-TW","2017/09/11 15:38:54","新北市新店區民族路108號","121.538121666667","24.977345","6500600","新店區"
"231037","AKT-0513","2017/09/11 15:38:51","新北市新店區安興路105-1號","121.514691666667","24.977735","6500600","新店區"
"241015","062-VK","2017/09/11 15:38:59","新北市三重區重新路四段121號","121.485186666667","25.052085","6500200","三重區"
"241017","063-VK","2017/09/11 15:38:49","新北市三重區重新路四段91-1號","121.486223333333","25.055395","6500200","三重區"
"241009","156-TC","2017/09/11 15:39:01","新北市三重區重新路四段121號","121.484976666667","25.05244","6500200","三重區"
"241013","265-UM","2017/09/11 15:38:51","新北市三重區捷運路36號","121.482875","25.0552","6500200","三重區"
"241020","413-TH","2017/09/11 15:38:59","新北市三重區忠孝路二段54號","121.484996666667","25.070385","6500200","三重區"
"241014","543-UM","2017/09/11 15:39:06","新北市三重區重新路四段121號","121.485075","25.052155","6500200","三重區"
"241029","887-TS","2017/09/11 15:38:49","新北市三重區成功路55號","121.489236666667","25.05091","6500200","三重區"
"241033","AAC-255","2017/09/11 15:38:46","新北市三重區重新路五段283號","121.478756666667","25.0489833333333","6500200","三重區"
"235008","293-VK","2017/09/11 15:38:50","新北市新店區薏仁坑路自強巷1號","121.496778333333","24.9581683333333","6500300","中和區"
"235033","4980-A6","2017/09/11 15:38:51","新北市中和區員山路262號","121.481545","25.0017533333333","6500300","中和區"
"235023","AAC-215","2017/09/11 15:39:05","新北市中和區員山路5-9號","121.483173333333","24.9845416666667","6500300","中和區"
"247007","053-VK","2017/09/11 15:39:03","新北市八里區中山路三段235號","121.381741666667","25.1404116666667","6501400","蘆洲區"
"223008","406-TH","2017/09/11 11:01:46","新北市石碇區小粗坑(潭邊里)9-2號","121.678641666667","24.985905","6501900","石碇區"
"208004","AAC-292","2017/09/11 15:38:48","新北市金山區三界壇路1-12號","121.628545","25.2252366666667","6502700","金山區"
"236064","105-UM","2017/09/11 15:38:56","新北市土城區中央路三段59號","121.438858333333","24.9695966666667","6501300","土城區"
"236040","107-UM","2017/09/11 15:38:56","新北市土城區學府路一段188號","121.453321666667","24.9860483333333","6501300","土城區"
"236074","166-UM","2017/09/11 15:38:53","新北市土城區福安街100號","121.417428333333","24.963975","6501300","土城區"
"236028","253-BX","2017/09/11 15:39:03","新北市土城區中央路一段156巷7號","121.445538333333","24.9873633333333","6501300","土城區"
"236024","269-VK","2017/09/11 15:38:53","新北市土城區裕生路102巷30號","121.445968333333","24.98499","6501300","土城區"
"236012","270-VK","2017/09/11 15:39:03","新北市土城區廣明街92號","121.454848333333","24.9943383333333","6501300","土城區"
"236032","271-VK","2017/09/11 15:39:04","新北市土城區明德路一段309號","121.459625","24.97718","6501300","土城區"
"236016","401-BY","2017/09/11 15:38:50","新北市土城區延吉街165巷5號","121.470436666667","24.98536","6501300","土城區"
"236056","912-UM","2017/09/11 15:39:03","新北市土城區中央路一段330號","121.44312","24.981445","6501300","土城區"
"236044","913-UM","2017/09/11 15:38:55","新北市土城區金城路三段97號","121.467145","24.9875383333333","6501300","土城區"
"236052","AAC-216","2017/09/11 15:38:53","新北市土城區金城路三段33巷39號","121.464858333333","24.9876383333333","6501300","土城區"
"242028","986-R7","2017/09/11 11:09:01","新北市新莊區新泰路255巷83號","121.442185","25.039065","6500500","新莊區"
"238002","755-BX","2017/09/11 15:39:04","新北市樹林區日新街101號","121.42144","24.989955","6500700","樹林區"
"238010","601-UM","2017/09/11 15:39:05","新北市樹林區三福街60號","121.405288333333","25.0162816666667","6500700","樹林區"
"238006","599-UM","2017/09/11 15:38:52","新北市樹林區太順街35號","121.418798333333","24.979555","6500700","樹林區"
"238005","571-TV","2017/09/11 15:38:56","新北市樹林區鎮前街165號","121.422356666667","24.9873933333333","6500700","樹林區"
"238011","5061-A6","2017/09/11 15:38:59","新北市樹林區八德街212巷24號","121.415081666667","24.9734516666667","6500700","樹林區"
"238008","KEA-2217","2017/09/11 15:38:53","新北市樹林區柑園街一段64號","121.402496666667","24.9604183333333","6500700","樹林區"
"238009","KEA-2213","2017/09/11 15:39:03","新北市樹林區仁愛街12巷2號","121.421786666667","24.9818033333333","6500700","樹林區"
"238012","303-VK","2017/09/11 15:39:00","新北市樹林區中山路二段54號","121.416445","24.9845966666667","6500700","樹林區"
"238004","283-BY","2017/09/11 15:38:57","新北市樹林區保安街二段333巷2號","121.412325","25.007635","6500700","樹林區"
"238001","282-BY","2017/09/11 15:38:51","新北市樹林區千歲街61巷40弄2號","121.425801666667","24.9987833333333","6500700","樹林區"
"238007","268-VK","2017/09/11 15:39:02","新北市樹林區俊英街168-2號","121.426548333333","25.007015","6500700","樹林區"
"238013","172-UY","2017/09/11 15:39:00","新北市樹林區新興街19巷6號","121.400523333333","24.9726533333333","6500700","樹林區"
"238003","169-UY","2017/09/11 15:38:58","新北市樹林區日新街63號","121.42222","24.9912216666667","6500700","樹林區"
"220050","280-UM","2017/09/11 15:39:02","新北市板橋區漢生東路83巷1號","121.466505","25.0159933333333","6500100","板橋區"
"220031","286-VK","2017/09/11 15:39:01","新北市板橋區僑中二街108巷1號","121.445838333333","25.0072433333333","6500100","板橋區"
"220029","287-VK","2017/09/11 15:38:58","新北市板橋區金門街215巷91弄7號","121.4348","24.9887933333333","6500100","板橋區"
"242001","281-VK","2017/09/11 15:38:53","新北市新莊區環河路636-7號","121.43758","25.011705","6500500","新莊區"
"220010","305-R5","2017/09/11 15:38:25","新北市樹林區中山路三段214號","121.380126666667","24.96788","6500100","板橋區"
"220038","487-VK","2017/09/11 15:38:46","新北市板橋區四維路321號","121.462871666667","25.0290533333333","6500100","板橋區"
"220052","561-BX","2017/09/11 15:38:53","新北市板橋區漢生東路53巷2號","121.465956666667","25.0167283333333","6500100","板橋區"
"220018","AAC-253","2017/09/11 15:38:54","新北市五股區新五路二段66-1號","121.437101666667","25.0731366666667","6500100","板橋區"
