"lineid","car","time","location","longitude","latitude","cityid","cityname"
"244018","403-UM","2017/09/11 12:57:15","新北市林口區粉寮69號","121.405061666667","25.09084","6501700","林口區"
"244025","837-TS","2017/09/11 09:35:24","新北市林口區粉寮路二段160巷28號","121.405205","25.0907533333333","6501700","林口區"
"231030","047-UY","2017/09/11 15:49:03","新北市新店區永安街36號","121.517885","24.9867333333333","6500600","新店區"
"231011","108-UY","2017/09/11 15:49:06","新北市新店區寶強路47號","121.543583333333","24.9796483333333","6500600","新店區"
"231018","110-UY","2017/09/11 15:49:01","新北市新店區中央五街27號","121.529111666667","24.9747483333333","6500600","新店區"
"231014","215-TC","2017/09/11 15:48:47","新北市新店區中華路52號","121.539581666667","24.9685683333333","6500600","新店區"
"231026","256-BX","2017/09/11 15:48:49","新北市新店區中正路347號","121.535423333333","24.975825","6500600","新店區"
"231046","278-BY","2017/09/11 15:48:50","新北市新店區安華路28-1號","121.519445","24.9611416666667","6500600","新店區"
"231038","4715-K9","2017/09/11 15:49:06","新北市新店區安康路二段191號","121.509311666667","24.9590616666667","6500600","新店區"
"231023","513-UM","2017/09/11 15:49:02","新北市新店區中興路一段255號","121.544468333333","24.9671366666667","6500600","新店區"
"231035","515-UM","2017/09/11 15:48:46","新北市新店區安興路102號","121.515171666667","24.9766216666667","6500600","新店區"
"231003","616-UM","2017/09/11 15:48:52","新北市新店區寶興路60巷4號","121.549765","24.9719133333333","6500600","新店區"
"231034","645-TV","2017/09/11 15:48:54","新北市新店區玫瑰路57巷28號","121.496673333333","24.9462883333333","6500600","新店區"
"231013","719-UM","2017/09/11 15:49:02","新北市新店區永業路81巷1弄1-1號","121.52967","24.9493066666667","6500600","新店區"
"231031","720-UM","2017/09/11 15:48:59","新北市新店區雙城路60巷13號","121.491958333333","24.9475983333333","6500600","新店區"
"231037","AKT-0513","2017/09/11 15:48:51","新北市新店區安興路105號","121.51472","24.97774","6500600","新店區"
"241011","013-R5","2017/09/11 15:48:55","新北市三重區秀江街192號","121.497731666667","25.0716466666667","6500200","三重區"
"241008","059-VK","2017/09/11 15:48:53","新北市三重區忠孝路三段2號","121.481923333333","25.067645","6500200","三重區"
"241015","062-VK","2017/09/11 15:48:59","新北市三重區重新路四段121號","121.485173333333","25.052075","6500200","三重區"
"241017","063-VK","2017/09/11 15:48:49","新北市三重區大仁街1號","121.491633333333","25.0635266666667","6500200","三重區"
"241024","065-VK","2017/09/11 15:49:01","新北市三重區重新路四段121號","121.48473","25.05189","6500200","三重區"
"241009","156-TC","2017/09/11 15:49:01","新北市三重區重新路四段121號","121.485061666667","25.05193","6500200","三重區"
"241005","262-UM","2017/09/11 15:49:02","新北市三重區河邊北街160巷2號","121.503425","25.0731483333333","6500200","三重區"
"241013","265-UM","2017/09/11 15:48:51","新北市三重區正義北路293號","121.495033333333","25.070645","6500200","三重區"
"241022","267-UM","2017/09/11 15:48:51","新北市三重區重新路四段121號","121.484866666667","25.0516966666667","6500200","三重區"
"241020","413-TH","2017/09/11 15:48:59","新北市三重區忠孝路二段52號","121.485053333333","25.0703766666667","6500200","三重區"
"241019","478-VK","2017/09/11 15:48:53","新北市三重區重新路四段121號","121.485135","25.0518966666667","6500200","三重區"
"241014","543-UM","2017/09/11 15:48:46","新北市三重區重新路四段121號","121.485143333333","25.0520933333333","6500200","三重區"
"241023","545-UM","2017/09/11 15:48:50","新北市三重區成功路97號","121.48808","25.05142","6500200","三重區"
"241001","547-UM","2017/09/11 15:48:56","新北市三重區重新路四段121號","121.48469","25.0520833333333","6500200","三重區"
"241006","AAD-863","2017/09/11 15:49:04","新北市三重區重新路四段121號","121.48469","25.05246","6500200","三重區"
"241029","887-TS","2017/09/11 15:48:49","新北市三重區同安東街78號","121.498596666667","25.05744","6500200","三重區"
"241012","941-UM","2017/09/11 15:48:49","新北市三重區自強路一段69號","121.497546666667","25.0669733333333","6500200","三重區"
"241033","AAC-255","2017/09/11 15:48:46","新北市三重區光復路一段7號","121.472018333333","25.0471066666667","6500200","三重區"
"235033","4980-A6","2017/09/11 15:48:51","新北市中和區中正路637巷32號","121.484976666667","24.9945633333333","6500300","中和區"
"235026","800-TS","2017/09/11 15:49:03","新北市中和區橋和路88-1號","121.490273333333","25.0052633333333","6500300","中和區"
"235023","AAC-215","2017/09/11 15:49:05","新北市中和區員山路37-8號","121.482155","24.9900933333333","6500300","中和區"
"247007","053-VK","2017/09/11 15:49:03","新北市五股區凌雲路二段18巷6號","121.443578333333","25.1066666666667","6501400","蘆洲區"
"223008","406-TH","2017/09/11 11:01:46","新北市石碇區小粗坑(潭邊里)9-2號","121.678641666667","24.985905","6501900","石碇區"
"227001","400-TW","2017/09/11 15:48:52","新北市雙溪區平林里外平林44號","121.85294","25.0363416666667","6502500","雙溪區"
"208004","AAC-292","2017/09/11 15:48:50","新北市金山區六股里下六股33號","121.621243333333","25.221855","6502700","金山區"
"236064","105-UM","2017/09/11 15:48:56","新北市土城區中山路48-1號","121.427365","24.96583","6501300","土城區"
"236074","166-UM","2017/09/11 15:48:57","新北市土城區民族街20號","121.41907","24.9629733333333","6501300","土城區"
"236028","253-BX","2017/09/11 15:48:54","新北市土城區學成路128巷11號","121.44953","24.99006","6501300","土城區"
"236024","269-VK","2017/09/11 15:48:53","新北市土城區裕生路86巷6號","121.446865","24.98526","6501300","土城區"
"236012","270-VK","2017/09/11 15:49:03","新北市土城區廣明街65號","121.455005","24.9936716666667","6501300","土城區"
"236016","401-BY","2017/09/11 15:48:54","新北市土城區延吉街111巷12弄18號","121.47158","24.9855783333333","6501300","土城區"
"236056","912-UM","2017/09/11 15:49:03","新北市土城區中央路一段136號","121.446303333333","24.9875883333333","6501300","土城區"
"236044","913-UM","2017/09/11 15:49:01","新北市土城區金城路三段135號","121.468065","24.988175","6501300","土城區"
"236052","AAC-216","2017/09/11 15:48:53","新北市土城區中央路一段45巷2弄1號","121.448516666667","24.9902716666667","6501300","土城區"
"242028","986-R7","2017/09/11 11:09:01","新北市新莊區新泰路255巷83號","121.442185","25.039065","6500500","新莊區"
"238002","755-BX","2017/09/11 15:49:04","新北市樹林區啟智街44巷1號","121.420378333333","24.99266","6500700","樹林區"
"238010","601-UM","2017/09/11 15:49:05","新北市樹林區龍興街32巷28號","121.401921666667","25.015515","6500700","樹林區"
"238006","599-UM","2017/09/11 15:48:52","新北市樹林區八德街225號","121.421641666667","24.9795733333333","6500700","樹林區"
"238005","571-TV","2017/09/11 15:48:56","新北市樹林區太平路91號","121.419433333333","24.9813116666667","6500700","樹林區"
"238011","5061-A6","2017/09/11 15:48:59","新北市樹林區中山路二段219號","121.40299","24.9765466666667","6500700","樹林區"
"238008","KEA-2217","2017/09/11 15:48:52","新北市樹林區柑園街一段168號","121.397026666667","24.9567516666667","6500700","樹林區"
"238009","KEA-2213","2017/09/11 15:49:03","新北市樹林區太元街17號","121.418123333333","24.9801866666667","6500700","樹林區"
"238012","303-VK","2017/09/11 15:48:59","新北市樹林區中山路一段163號","121.421746666667","24.9885833333333","6500700","樹林區"
"238004","283-BY","2017/09/11 15:48:57","新北市樹林區保安街二段215號","121.413105","25.0040283333333","6500700","樹林區"
"238001","282-BY","2017/09/11 15:48:51","新北市樹林區潭興街143巷6號","121.425605","24.99993","6500700","樹林區"
"238007","268-VK","2017/09/11 15:49:02","新北市樹林區三俊街271號","121.42275","25.0142733333333","6500700","樹林區"
"238013","172-UY","2017/09/11 15:49:00","新北市樹林區中洲街30巷13弄45號","121.398301666667","24.9726933333333","6500700","樹林區"
"238003","169-UY","2017/09/11 15:48:58","新北市樹林區復興路337號","121.417896666667","24.9877716666667","6500700","樹林區"
"220029","287-VK","2017/09/11 15:48:58","新北市樹林區八德街634號","121.397076666667","24.96922","6500100","板橋區"
"242001","281-VK","2017/09/11 15:48:53","新北市新莊區環河路636-7號","121.437318333333","25.01129","6500500","新莊區"
"220010","305-R5","2017/09/11 15:48:45","新北市樹林區環河路10-1號","121.424823333333","24.976365","6500100","板橋區"
"220018","AAC-253","2017/09/11 15:48:54","新北市五股區成泰路四段3號","121.452638333333","25.10626","6500100","板橋區"
