"lineid","car","time","location","longitude","latitude","cityid","cityname"
"234026","9372-KE","2017/09/11 17:28:45","新北市永和區福和路1號","121.526493333333","25.0096516666667","6500400","永和區"
"249005","172-UM","2017/09/11 17:28:51","新北市八里區荖阡坑路71號","121.407075","25.1262533333333","6502300","八里區"
"249001","173-UM","2017/09/11 17:28:46","新北市八里區中華路一段28號","121.422208333333","25.1581516666667","6502300","八里區"
"249004","303-UY","2017/09/11 17:28:40","新北市八里區民有街24號","121.415866666667","25.1567633333333","6502300","八里區"
"249002","305-UY","2017/09/11 17:28:43","新北市八里區龍米路二段117巷33-2號","121.444851666667","25.142805","6502300","八里區"
"249003","593-UM","2017/09/11 17:28:44","新北市八里區中山路二段398號","121.400386666667","25.1478066666667","6502300","八里區"
"244013","069-UM","2017/09/11 17:28:50","新北市林口區中山路154號","121.390963333333","25.0787516666667","6501700","林口區"
"244007","080-UY","2017/09/11 17:28:54","新北市林口區湖子7號","121.39037","25.092265","6501700","林口區"
"244019","403-UM","2017/09/11 17:28:55","新北市林口區公園路166號","121.37213","25.072315","6501700","林口區"
"244009","410-SL","2017/09/11 17:28:42","新北市林口區中華路261號","121.384953333333","25.0901033333333","6501700","林口區"
"244023","483-VK","2017/09/11 17:28:44","新北市林口區隆林街12號","121.389196666667","25.07541","6501700","林口區"
"244017","485-VK","2017/09/11 17:28:33","新北市林口區粉寮69號","121.404965","25.0909116666667","6501700","林口區"
"244011","656-BX","2017/09/11 17:28:42","新北市林口區仁愛路一段410號","121.386518333333","25.07671","6501700","林口區"
"244025","837-TS","2017/09/11 17:28:58","新北市林口區民族路157號","121.367058333333","25.07644","6501700","林口區"
"244021","838-TS","2017/09/11 17:28:37","新北市林口區粉寮路二段227-1號","121.403498333333","25.0907533333333","6501700","林口區"
"243009","297-R6","2017/09/11 15:49:55","新北市泰山區黎明路25號","121.421968333333","25.0610716666667","6501600","泰山區"
"231046","278-BY","2017/09/11 17:28:50","新北市新店區直潭路92號","121.530916666667","24.9376733333333","6500600","新店區"
"241011","013-R5","2017/09/11 17:28:58","新北市三重區河邊北街110巷10號","121.503396666667","25.0707283333333","6500200","三重區"
"241015","062-VK","2017/09/11 17:28:39","新北市三重區長元街65巷8弄18號","121.503441666667","25.066535","6500200","三重區"
"241017","063-VK","2017/09/11 17:28:49","新北市三重區中正北路25巷13號","121.49286","25.0624583333333","6500200","三重區"
"241024","065-VK","2017/09/11 17:28:41","新北市三重區中正北路191巷3弄10號","121.477975","25.0697833333333","6500200","三重區"
"241002","090-VK","2017/09/11 17:28:51","新北市三重區自強路五段80號","121.49609","25.0828883333333","6500200","三重區"
"241003","091-VK","2017/09/11 17:29:00","新北市三重區碧華街378號","121.49099","25.0843633333333","6500200","三重區"
"241009","156-TC","2017/09/11 17:28:42","新北市三重區三和路四段143-1號","121.484425","25.07824","6500200","三重區"
"241005","262-UM","2017/09/11 17:28:42","新北市三重區永安北路二段43巷2號","121.48257","25.082605","6500200","三重區"
"241016","266-UM","2017/09/11 17:28:41","新北市三重區信義西街49號","121.495215","25.0638633333333","6500200","三重區"
"241018","268-UM","2017/09/11 17:28:45","新北市三重區大智街65號","121.49254","25.0681416666667","6500200","三重區"
"241032","269-UM","2017/09/11 17:28:56","新北市三重區名源街31號","121.481845","25.0604316666667","6500200","三重區"
"241025","271-UM","2017/09/11 17:29:00","新北市三重區中正北路380號","121.47637","25.06992","6500200","三重區"
"241007","398-BY","2017/09/11 17:28:44","新北市三重區三和路四段145巷158號","121.488173333333","25.0795066666667","6500200","三重區"
"241020","413-TH","2017/09/11 17:28:59","新北市三重區忠孝路一段101號","121.489388333333","25.0720766666667","6500200","三重區"
"241019","478-VK","2017/09/11 17:28:53","新北市三重區自強路二段54號","121.488698333333","25.0696366666667","6500200","三重區"
"241030","480-VK","2017/09/11 17:28:53","新北市三重區集美街196號","121.490798333333","25.0536","6500200","三重區"
"241014","543-UM","2017/09/11 17:28:46","新北市三重區長壽街48號","121.500398333333","25.0682833333333","6500200","三重區"
"241023","545-UM","2017/09/11 17:28:50","新北市三重區三民街146巷3弄16號","121.481261666667","25.0649516666667","6500200","三重區"
"241024","743-BX","2017/09/11 17:28:45","新北市三重區國道路一段58巷15號","121.481398333333","25.0720083333333","6500200","三重區"
"241029","887-TS","2017/09/11 17:28:49","新北市三重區重新路四段28號","121.488118333333","25.0573","6500200","三重區"
"241012","941-UM","2017/09/11 17:28:49","新北市三重區公園街55號","121.498646666667","25.07498","6500200","三重區"
"241033","AAC-255","2017/09/11 17:28:46","新北市三重區興德路133號","121.470068333333","25.0529266666667","6500200","三重區"
"235062","800-TS","2017/09/11 17:18:49","新北市中和區員山路36巷16-3號","121.484973333333","24.99141","6500300","中和區"
"247022","893-R6","2017/09/11 17:28:51","新北市蘆洲區中正路314號","121.464516666667","25.0911283333333","6501400","蘆洲區"
"247012","546-UM","2017/09/11 17:28:54","新北市蘆洲區民族路1號","121.47545","25.0839233333333","6501400","蘆洲區"
"247020","500-BY","2017/09/11 17:28:42","新北市蘆洲區仁愛街102-1號","121.470031666667","25.0947866666667","6501400","蘆洲區"
"247010","339-TH","2017/09/11 17:28:56","新北市蘆洲區鷺江街16-3號","121.478688333333","25.0825133333333","6501400","蘆洲區"
"247002","337-TH","2017/09/11 17:28:52","新北市蘆洲區永樂街38巷67弄32號","121.457278333333","25.0912","6501400","蘆洲區"
"247004","336-TH","2017/09/11 17:29:01","新北市蘆洲區長安街237號","121.459135","25.0828883333333","6501400","蘆洲區"
"247016","057-VK","2017/09/11 17:28:47","新北市蘆洲區光華路22巷4號","121.469421666667","25.08364","6501400","蘆洲區"
"247006","056-VK","2017/09/11 17:28:54","新北市蘆洲區九芎街90巷17號","121.464866666667","25.0811016666667","6501400","蘆洲區"
"247008","053-VK","2017/09/11 17:28:48","新北市蘆洲區信義路34巷118號","121.47569","25.07678","6501400","蘆洲區"
"247014","007-UY","2017/09/11 17:28:52","新北市蘆洲區復興路11號","121.47202","25.0852816666667","6501400","蘆洲區"
"247024","002-UY","2017/09/11 17:28:46","新北市蘆洲區長興路413號","121.461751666667","25.0924466666667","6501400","蘆洲區"
"247018","001-UY","2017/09/11 17:28:48","新北市蘆洲區民權路109號","121.472575","25.0893083333333","6501400","蘆洲區"
"223008","406-TH","2017/09/11 11:01:46","新北市石碇區小粗坑(潭邊里)9-2號","121.678641666667","24.985905","6501900","石碇區"
"228003","097-TW","2017/09/11 17:28:53","新北市貢寮區仁理村尖山腳街20號","121.924818333333","25.0470333333333","6502600","貢寮區"
"228002","585-TW","2017/09/11 17:28:54","新北市貢寮區福隆里興隆街24-1號","121.944305","25.0165816666667","6502600","貢寮區"
"228001","670-TC","2017/09/11 17:28:44","新北市貢寮區仁理村仁愛路39號","121.925008333333","25.053305","6502600","貢寮區"
"224010","AGQ-8101","2017/09/11 17:27:02","新北市瑞芳區明燈路二段50號","121.809403333333","25.1080216666667","6501200","瑞芳區"
"224006","676-BX","2017/09/11 17:28:58","新北市瑞芳區傑魚坑路189號","121.78821","25.1076833333333","6501200","瑞芳區"
"224009","285-BY","2017/09/11 17:28:57","新北市瑞芳區汽車路52-1號","121.845255","25.1106933333333","6501200","瑞芳區"
"224008","275-VK","2017/09/11 17:28:51","新北市瑞芳區九芎橋路14號","121.832076666667","25.0908566666667","6501200","瑞芳區"
"224005","271-BY","2017/09/11 17:28:40","新北市瑞芳區鼻頭路247號","121.912373333333","25.1236916666667","6501200","瑞芳區"
"227001","400-TW","2017/09/11 17:28:52","新北市雙溪區平林里外平林43-2號","121.852818333333","25.0360216666667","6502500","雙溪區"
"251009","008-UM","2017/09/11 17:28:55","新北市淡水區新生街92號","121.43956","25.17456","6501000","淡水區"
"251004","009-UM","2017/09/11 17:28:47","新北市淡水區中正東路二段88巷15號","121.45918","25.15054","6501000","淡水區"
"251001","011-UM","2017/09/11 17:28:46","新北市淡水區民權路92巷35-1號","121.462235","25.126675","6501000","淡水區"
"251007","179-VK","2017/09/11 17:28:51","新北市淡水區民生路47-4號","121.462055","25.1380666666667","6501000","淡水區"
"251008","181-VK","2017/09/11 17:28:46","新北市淡水區大同路120巷16號","121.463103333333","25.1397233333333","6501000","淡水區"
"251013","182-VK","2017/09/11 17:28:42","新北市淡水區大竹圍5號","121.46661","25.1952516666667","6501000","淡水區"
"251010","413-VK","2017/09/11 17:28:56","新北市淡水區中正路二段208號","121.426348333333","25.1891366666667","6501000","淡水區"
"251012","441-VK","2017/09/11 17:28:47","新北市淡水區北新路100號","121.447503333333","25.1784333333333","6501000","淡水區"
"251015","442-VK","2017/09/11 17:28:47","新北市淡水區三空泉16-10號","121.472746666667","25.165045","6501000","淡水區"
"251005","443-VK","2017/09/11 17:28:48","新北市淡水區鄧公路31巷1號","121.451388333333","25.1708733333333","6501000","淡水區"
"251006","561-UM","2017/09/11 17:28:57","新北市淡水區大仁街11號","121.442283333333","25.1749566666667","6501000","淡水區"
"251011","650-BX","2017/09/11 17:28:54","新北市淡水區坪頂路718號","121.482548333333","25.158495","6501000","淡水區"
"251002","672-BX","2017/09/11 17:28:47","新北市淡水區中正路一段1號","121.427031666667","25.1759583333333","6501000","淡水區"
"251003","766-UM","2017/09/11 17:28:50","新北市淡水區中山路159-1號","121.440746666667","25.17292","6501000","淡水區"
"207003","550-UM","2017/09/11 17:28:44","新北市萬里區龜吼里美崙路96號","121.68432","25.1853716666667","6502800","萬里區"
"207004","225-TW","2017/09/11 17:28:57","新北市萬里區萬里里景美路16號","121.686725","25.1734116666667","6502800","萬里區"
"252002","178-VK","2017/09/11 17:28:51","新北市三芝區忠孝街1-14號","121.50549","25.2539666666667","6502100","三芝區"
"252001","292-VK","2017/09/11 17:28:41","新北市三芝區長安街119號","121.49801","25.2596816666667","6502100","三芝區"
"252006","AAC-283","2017/09/11 16:07:15","新北市三芝區埔坪里埔頭坑41號","121.504473333333","25.2644233333333","6502100","三芝區"
"237011","572-TV","2017/09/11 17:24:09","新北市三峽區中山路459巷163-3號","121.348616666667","24.93301","6500900","三峽區"
"237015","649-BX","2017/09/11 17:28:44","新北市三峽區中山路459巷163-3號","121.348685","24.9329566666667","6500900","三峽區"
"242031","AAC-296","2017/09/11 17:29:02","新北市新莊區新泰路413巷25號","121.442383333333","25.0442933333333","6500500","新莊區"
"242029","986-R7","2017/09/11 17:28:48","新北市新莊區復興路二段190號","121.459153333333","25.0443916666667","6500500","新莊區"
"242050","751-BX","2017/09/11 17:28:56","新北市新莊區新樹路449巷5號","121.433086666667","25.0136683333333","6500500","新莊區"
"242025","615-BX","2017/09/11 17:29:01","新北市新莊區中港路270號","121.453103333333","25.0438933333333","6500500","新莊區"
"242023","613-BX","2017/09/11 17:28:56","新北市新莊區公園路138號","121.452821666667","25.0400433333333","6500500","新莊區"
"242027","612-BX","2017/09/11 17:28:55","新北市新莊區思源路70號","121.460151666667","25.0445083333333","6500500","新莊區"
"242039","566-BX","2017/09/11 17:28:52","新北市新莊區民安路272號","121.42758","25.02138","6500500","新莊區"
"242044","497-BY","2017/09/11 17:28:54","新北市新莊區富國路75號","121.420021666667","25.0259583333333","6500500","新莊區"
"242036","442-UM","2017/09/11 17:28:48","新北市新莊區建國二路11號","121.434626666667","25.0238516666667","6500500","新莊區"
"242048","441-UM","2017/09/11 17:28:52","新北市新莊區四維路210號","121.421333333333","25.0200833333333","6500500","新莊區"
"242053","440-UM","2017/09/11 17:28:59","新北市新莊區瓊林南路305巷25號","121.43565","25.005045","6500500","新莊區"
"242034","415-TV","2017/09/11 17:28:53","新北市新莊區新莊路453號","121.449611666667","25.0332866666667","6500500","新莊區"
"242004","413-TV","2017/09/11 17:28:59","新北市新莊區中港路282號","121.453065","25.04419","6500500","新莊區"
"242042","400-BY","2017/09/11 17:28:53","新北市新莊區建國一路136號","121.434936666667","25.028435","6500500","新莊區"
"242060","362-BY","2017/09/11 17:29:00","新北市新莊區瓊林路59-88號","121.439578333333","25.02105","6500500","新莊區"
"242058","353-BY","2017/09/11 17:28:58","新北市新莊區中正路516-32號","121.432836666667","25.032235","6500500","新莊區"
"242007","132-UY","2017/09/11 17:28:55","新北市新莊區中華路二段40號","121.454028333333","25.0455066666667","6500500","新莊區"
"242021","135-UY","2017/09/11 17:28:41","新北市新莊區中正路134號","121.452686666667","25.0361983333333","6500500","新莊區"
"242046","172-VK","2017/09/11 17:28:54","新北市新莊區新樹路65-5號","121.43945","25.0308216666667","6500500","新莊區"
"242009","173-VK","2017/09/11 17:28:51","新北市新莊區中原路187-1號","121.452696666667","25.0543316666667","6500500","新莊區"
"242015","175-VK","2017/09/11 17:28:57","新北市新莊區新泰路152號","121.447705","25.0373316666667","6500500","新莊區"
"242002","176-VK","2017/09/11 17:28:58","新北市新莊區瓊林路13-2號","121.449166666667","25.0309266666667","6500500","新莊區"
"242013","346-TH","2017/09/11 17:28:56","新北市新莊區中誠街16巷3號","121.451925","25.0483316666667","6500500","新莊區"
"242019","348-TH","2017/09/11 17:28:53","新北市新莊區中港路63號","121.455358333333","25.03856","6500500","新莊區"
"242056","349-TH","2017/09/11 17:28:45","新北市新莊區新豐街57號","121.446761666667","25.0335166666667","6500500","新莊區"
"242017","350-TH","2017/09/11 17:28:55","新北市新莊區中華路一段103號","121.452678333333","25.0438933333333","6500500","新莊區"
"242011","351-TH","2017/09/11 17:28:50","新北市新莊區中港路404號","121.452201666667","25.050015","6500500","新莊區"
"238015","755-BX","2017/09/11 17:28:47","新北市樹林區大安路267號","121.419013333333","24.9938133333333","6500700","樹林區"
"238023","601-UM","2017/09/11 17:28:45","新北市樹林區中正路433-2號","121.414993333333","25.0081533333333","6500700","樹林區"
"238019","599-UM","2017/09/11 17:28:52","新北市樹林區太平路13號","121.419066666667","24.983635","6500700","樹林區"
"238018","571-TV","2017/09/11 17:28:56","新北市樹林區鎮前街269巷17號","121.420031666667","24.985325","6500700","樹林區"
"238024","5061-A6","2017/09/11 17:28:58","新北市樹林區鎮前街132號","121.424746666667","24.9906566666667","6500700","樹林區"
"238021","KEA-2217","2017/09/11 17:28:42","新北市樹林區西圳街一段13號","121.401938333333","24.9615266666667","6500700","樹林區"
"238022","KEA-2213","2017/09/11 17:29:03","新北市樹林區和平街45號","121.423273333333","24.9819166666667","6500700","樹林區"
"238025","303-VK","2017/09/11 17:28:59","新北市樹林區保安街一段350號","121.417813333333","24.9982733333333","6500700","樹林區"
"238017","283-BY","2017/09/11 17:28:57","新北市樹林區光武街32巷2號","121.416195","25.0057266666667","6500700","樹林區"
"238014","282-BY","2017/09/11 17:28:51","新北市樹林區長壽街70巷31弄13號","121.421538333333","24.994825","6500700","樹林區"
"238020","268-VK","2017/09/11 17:29:02","新北市樹林區俊英街90號","121.427763333333","25.0049383333333","6500700","樹林區"
"238026","172-UY","2017/09/11 17:28:53","新北市樹林區八德街435號","121.406061666667","24.9680583333333","6500700","樹林區"
"238016","169-UY","2017/09/11 17:28:52","新北市樹林區中山路一段96號","121.423216666667","24.99123","6500700","樹林區"
"239007","AAC-297","2017/09/11 17:28:53","新北市鶯歌區中山路292號","121.343788333333","24.95703","6500800","鶯歌區"
"239006","891-R6","2017/09/11 17:28:58","新北市鶯歌區鳳鳴路105號","121.334488333333","24.9663516666667","6500800","鶯歌區"
"239008","527-UM","2017/09/11 17:28:54","新北市鶯歌區大湖路624號","121.334696666667","24.9748533333333","6500800","鶯歌區"
"239005","526-UM","2017/09/11 17:28:52","新北市鶯歌區鶯桃路二段11號","121.325753333333","24.971795","6500800","鶯歌區"
"239001","417-VK","2017/09/11 17:28:47","新北市鶯歌區高職西街74號","121.336435","24.9420916666667","6500800","鶯歌區"
"239003","360-BY","2017/09/11 17:28:53","新北市鶯歌區德昌街72號","121.332886666667","24.9599466666667","6500800","鶯歌區"
"239002","359-BY","2017/09/11 17:28:51","新北市鶯歌區育才街14號","121.349371666667","24.95499","6500800","鶯歌區"
"221033","647-BX","2017/09/11 17:28:43","新北市汐止區汐萬路一段333巷23號","121.648733333333","25.07607","6501100","汐止區"
"221018","753-BX","2017/09/11 17:28:49","新北市汐止區康寧街901號","121.651508333333","25.0749916666667","6501100","汐止區"
"242001","281-VK","2017/09/11 15:59:40","新北市新莊區環河路636-7號","121.437298333333","25.0112833333333","6500500","新莊區"
