"lineid","car","time","location","longitude","latitude","cityid","cityname"
"234026","9372-KE","2017/09/11 17:48:50","新北市永和區和平街107號","121.510988333333","25.0098766666667","6500400","永和區"
"249005","172-UM","2017/09/11 17:48:51","新北市八里區荖阡坑路34-2號","121.402306666667","25.1310866666667","6502300","八里區"
"249001","173-UM","2017/09/11 17:48:46","新北市八里區龍米路二段143號","121.444273333333","25.1489816666667","6502300","八里區"
"249004","303-UY","2017/09/11 17:48:40","新北市八里區中華路一段79巷7號","121.420673333333","25.1565433333333","6502300","八里區"
"249002","305-UY","2017/09/11 17:48:42","新北市八里區龍形三街9巷2號","121.450643333333","25.1317333333333","6502300","八里區"
"249003","593-UM","2017/09/11 17:48:44","新北市八里區中山路二段125號","121.4055","25.1518283333333","6502300","八里區"
"248006","077-UY","2017/09/11 17:48:53","新北市五股區中興路二段83巷26-6號","121.460025","25.0749966666667","6501500","五股區"
"248010","272-BY","2017/09/11 17:48:42","新北市五股區中興路二段83巷26-6號","121.460125","25.0751883333333","6501500","五股區"
"232011","375-UM","2017/09/11 17:48:59","新北市坪林區北宜路八段109號","121.706345","24.9347633333333","6502000","坪林區"
"244013","069-UM","2017/09/11 17:48:50","新北市林口區中正路420號","121.384363333333","25.0777683333333","6501700","林口區"
"244007","080-UY","2017/09/11 17:48:54","新北市林口區佳林路1號","121.387313333333","25.08248","6501700","林口區"
"244019","403-UM","2017/09/11 17:48:55","新北市林口區文化一路一段89-5號","121.371946666667","25.0703883333333","6501700","林口區"
"244009","410-SL","2017/09/11 17:49:01","新北市林口區民享路226號","121.382988333333","25.084885","6501700","林口區"
"244023","483-VK","2017/09/11 17:48:44","新北市林口區東明二街101號","121.388771666667","25.07078","6501700","林口區"
"244017","485-VK","2017/09/11 17:48:53","新北市林口區忠孝路403號","121.370193333333","25.0707466666667","6501700","林口區"
"244011","656-BX","2017/09/11 17:48:42","新北市林口區中正路266號","121.389351666667","25.0776983333333","6501700","林口區"
"244025","837-TS","2017/09/11 17:48:58","新北市林口區文化三路一段225巷13號","121.361965","25.0714333333333","6501700","林口區"
"244021","838-TS","2017/09/11 17:48:57","新北市林口區仁愛路一段159巷46號","121.397731666667","25.072235","6501700","林口區"
"243009","297-R6","2017/09/11 15:49:55","新北市泰山區黎明路25號","121.421968333333","25.0610716666667","6501600","泰山區"
"222003","436-BY","2017/09/11 17:48:57","新北市深坑區阿柔洋60-1號","121.608615","24.998545","6501800","深坑區"
"222002","659-BX","2017/09/11 17:48:49","新北市深坑區平埔街22巷17弄1號","121.614895","25.0008433333333","6501800","深坑區"
"231046","278-BY","2017/09/11 17:48:50","新北市新店區下石厝路17號","121.532916666667","24.9274966666667","6500600","新店區"
"241005","262-UM","2017/09/11 17:48:42","新北市三重區碧華街308號","121.489885","25.0835316666667","6500200","三重區"
"241016","266-UM","2017/09/11 17:48:41","新北市三重區重新路三段2號","121.495546666667","25.061535","6500200","三重區"
"241023","545-UM","2017/09/11 17:48:49","新北市三重區重陽路二段10號","121.486545","25.0620266666667","6500200","三重區"
"241024","743-BX","2017/09/11 17:48:45","新北市三重區車路頭街51巷1號","121.484015","25.0721866666667","6500200","三重區"
"241033","AAC-255","2017/09/11 17:48:46","新北市三重區光復路一段7號","121.472153333333","25.047085","6500200","三重區"
"235061","378-QA","2017/09/11 17:40:13","新北市中和區員山路36巷16-2號","121.485205","24.9917633333333","6500300","中和區"
"235062","800-TS","2017/09/11 17:18:49","新北市中和區員山路36巷16-3號","121.484973333333","24.99141","6500300","中和區"
"247022","893-R6","2017/09/11 17:48:51","新北市蘆洲區中正路314號","121.464546666667","25.090925","6501400","蘆洲區"
"247012","546-UM","2017/09/11 17:48:54","新北市蘆洲區復興路51-2號","121.475805","25.08702","6501400","蘆洲區"
"247020","500-BY","2017/09/11 17:48:42","新北市蘆洲區民義街69號","121.47308","25.090195","6501400","蘆洲區"
"247010","339-TH","2017/09/11 17:48:56","新北市蘆洲區民族路31-1號","121.477571666667","25.08488","6501400","蘆洲區"
"247002","337-TH","2017/09/11 17:48:52","新北市蘆洲區永平街32巷33弄2號","121.459265","25.092095","6501400","蘆洲區"
"247004","336-TH","2017/09/11 17:48:41","新北市蘆洲區長安街194巷17號","121.459803333333","25.0845316666667","6501400","蘆洲區"
"247016","057-VK","2017/09/11 17:48:47","新北市蘆洲區中正路185巷27號","121.466695","25.08437","6501400","蘆洲區"
"247006","056-VK","2017/09/11 17:48:54","新北市蘆洲區九芎街167巷3號","121.464923333333","25.0787116666667","6501400","蘆洲區"
"247008","053-VK","2017/09/11 17:48:56","新北市蘆洲區中山一路287號","121.471905","25.079285","6501400","蘆洲區"
"247024","002-UY","2017/09/11 17:48:46","新北市蘆洲區光榮路100號","121.46414","25.0892383333333","6501400","蘆洲區"
"247018","001-UY","2017/09/11 17:48:48","新北市蘆洲區復興路231號","121.480076666667","25.0899383333333","6501400","蘆洲區"
"223008","406-TH","2017/09/11 11:01:46","新北市石碇區小粗坑(潭邊里)9-2號","121.678641666667","24.985905","6501900","石碇區"
"228003","097-TW","2017/09/11 17:48:53","新北市貢寮區真理里延平街72號","121.925043333333","25.0577433333333","6502600","貢寮區"
"228002","585-TW","2017/09/11 17:48:54","新北市貢寮區福隆里外隆林街15號","121.958691666667","25.0037433333333","6502600","貢寮區"
"228001","670-TC","2017/09/11 17:48:44","新北市貢寮區仁理村仁愛路95-1號","121.927691666667","25.0554433333333","6502600","貢寮區"
"224006","676-BX","2017/09/11 17:48:58","新北市瑞芳區傑魚坑路128號","121.791655","25.1103466666667","6501200","瑞芳區"
"224002","639-TC","2017/09/11 17:48:53","新北市瑞芳區民權街3-1號","121.809428333333","25.1081733333333","6501200","瑞芳區"
"224009","285-BY","2017/09/11 17:48:56","新北市瑞芳區金光路376號","121.850603333333","25.111415","6501200","瑞芳區"
"224008","275-VK","2017/09/11 17:48:51","新北市瑞芳區明燈路一段100號","121.819206666667","25.1078633333333","6501200","瑞芳區"
"224007","273-VK","2017/09/11 17:48:58","新北市瑞芳區靜安路四段26號","121.798781666667","25.08951","6501200","瑞芳區"
"224005","271-BY","2017/09/11 17:48:40","新北市瑞芳區海濱路38-1號","121.831121666667","25.1234933333333","6501200","瑞芳區"
"208002","742-BX","2017/09/11 17:48:52","新北市金山區磺清路135號","121.639296666667","25.2276066666667","6502700","金山區"
"208003","665-BX","2017/09/11 17:48:57","新北市金山區磺清路135號","121.639465","25.2277566666667","6502700","金山區"
"208001","761-BX","2017/09/11 17:48:50","新北市金山區磺清路135號","121.63937","25.2277483333333","6502700","金山區"
"251009","008-UM","2017/09/11 17:48:54","新北市淡水區長興街31-1號","121.443985","25.171185","6501000","淡水區"
"251004","009-UM","2017/09/11 17:48:47","新北市淡水區民權一街17巷4號","121.458873333333","25.13652","6501000","淡水區"
"251001","011-UM","2017/09/11 17:48:46","新北市淡水區民權路92巷35-1號","121.462211666667","25.1267083333333","6501000","淡水區"
"251007","179-VK","2017/09/11 17:48:51","新北市淡水區民生路16巷2號","121.461073333333","25.1374066666667","6501000","淡水區"
"251008","181-VK","2017/09/11 17:48:45","新北市淡水區八勢路一段133號","121.467053333333","25.157845","6501000","淡水區"
"251013","182-VK","2017/09/11 17:49:01","新北市淡水區泉洲厝31號","121.479531666667","25.1910316666667","6501000","淡水區"
"251010","413-VK","2017/09/11 17:48:56","新北市淡水區淡海路302號","121.416871666667","25.18694","6501000","淡水區"
"251012","441-VK","2017/09/11 17:48:47","新北市淡水區北新路一段339號","121.466633333333","25.1822683333333","6501000","淡水區"
"251015","442-VK","2017/09/11 17:48:47","新北市淡水區興福寮22-3號","121.494441666667","25.1644533333333","6501000","淡水區"
"251005","443-VK","2017/09/11 17:48:48","新北市淡水區學府路102巷2號","121.450448333333","25.1719333333333","6501000","淡水區"
"251006","561-UM","2017/09/11 17:48:57","新北市淡水區新生街51巷45號","121.441226666667","25.1761016666667","6501000","淡水區"
"251011","650-BX","2017/09/11 17:44:33","新北市淡水區吳(仔)厝10-3號","121.481651666667","25.1485183333333","6501000","淡水區"
"251002","672-BX","2017/09/11 17:48:51","新北市淡水區中山路46號","121.444203333333","25.1700683333333","6501000","淡水區"
"251003","766-UM","2017/09/11 17:48:50","新北市淡水區大忠街16號","121.443261666667","25.176075","6501000","淡水區"
"207003","550-UM","2017/09/11 17:48:44","新北市萬里區野柳里東澳路66號","121.692831666667","25.2009466666667","6502800","萬里區"
"207004","225-TW","2017/09/11 17:48:57","新北市萬里區萬里里瑪鋉頂街61號","121.688376666667","25.18045","6502800","萬里區"
"252002","178-VK","2017/09/11 17:48:50","新北市三芝區智成街70號","121.504633333333","25.2560233333333","6502100","三芝區"
"252001","292-VK","2017/09/11 17:48:41","新北市三芝區中山路一段10號","121.500703333333","25.2586283333333","6502100","三芝區"
"252006","AAC-283","2017/09/11 16:07:15","新北市三芝區埔坪里埔頭坑41號","121.504473333333","25.2644233333333","6502100","三芝區"
"237004","078-UY","2017/09/11 17:48:53","新北市三峽區中山路118號","121.365713333333","24.9359266666667","6500900","三峽區"
"237009","210-TH","2017/09/11 17:48:52","新北市三峽區大勇路31號","121.367211666667","24.93623","6500900","三峽區"
"237013","252-BX","2017/09/11 17:48:53","新北市三峽區愛國路16巷9號","121.373843333333","24.9333666666667","6500900","三峽區"
"237012","275-BY","2017/09/11 17:49:00","新北市三峽區文化路9號","121.373195","24.93557","6500900","三峽區"
"237008","302-VK","2017/09/11 17:48:57","新北市三峽區中園街237-1號","121.366863333333","24.9194833333333","6500900","三峽區"
"237014","433-BY","2017/09/11 17:48:58","新北市三峽區文化路120巷7號","121.371028333333","24.9364966666667","6500900","三峽區"
"237006","5529-G3","2017/09/11 17:48:45","新北市三峽區介壽路二段38巷104號","121.392308333333","24.9333516666667","6500900","三峽區"
"237011","572-TV","2017/09/11 17:36:54","新北市三峽區中山路98號","121.366455","24.9354416666667","6500900","三峽區"
"237015","649-BX","2017/09/11 17:48:44","新北市三峽區白雞129-1號","121.396255","24.9082833333333","6500900","三峽區"
"237005","AKY-6261","2017/09/11 17:48:48","新北市三峽區中山路459巷82號","121.354266666667","24.936655","6500900","三峽區"
"236069","105-UM","2017/09/11 17:48:58","新北市土城區城林路6巷80號","121.438443333333","24.9797666666667","6501300","土城區"
"236042","107-UM","2017/09/11 17:48:59","新北市土城區中央路一段264-2號","121.443866666667","24.9838016666667","6501300","土城區"
"236078","166-UM","2017/09/11 17:48:55","新北市土城區永寧路95號","121.429831666667","24.9556166666667","6501300","土城區"
"236030","253-BX","2017/09/11 17:48:47","新北市土城區城林路6巷80號","121.43854","24.979555","6501300","土城區"
"236015","270-VK","2017/09/11 17:48:57","新北市土城區城林路6巷80號","121.438581666667","24.97957","6501300","土城區"
"236036","271-VK","2017/09/11 17:48:50","新北市土城區城林路6巷80號","121.438471666667","24.979705","6501300","土城區"
"236020","401-BY","2017/09/11 17:48:49","新北市土城區城林路6巷80號","121.43872","24.979665","6501300","土城區"
"236058","912-UM","2017/09/11 17:48:52","新北市土城區城林路6巷80號","121.438503333333","24.9797916666667","6501300","土城區"
"236048","913-UM","2017/09/11 17:48:49","新北市土城區城林路6巷80號","121.438625","24.97977","6501300","土城區"
"236062","915-UM","2017/09/11 17:48:53","新北市土城區城林路6巷80號","121.438498333333","24.979775","6501300","土城區"
"236053","AAC-216","2017/09/11 17:48:47","新北市土城區城林路6巷80號","121.438573333333","24.979605","6501300","土城區"
"242031","AAC-296","2017/09/11 17:48:42","新北市新莊區新泰路321巷37號","121.443105","25.0410866666667","6500500","新莊區"
"242029","986-R7","2017/09/11 17:48:48","新北市新莊區復興路一段103號","121.449033333333","25.0429416666667","6500500","新莊區"
"242050","751-BX","2017/09/11 17:48:56","新北市新莊區西盛街245巷20號","121.42886","25.0160333333333","6500500","新莊區"
"242025","615-BX","2017/09/11 17:48:40","新北市三重區中山路234號","121.46821","25.06143","6500500","新莊區"
"242023","613-BX","2017/09/11 17:48:53","新北市新莊區福樂街46號","121.457778333333","25.0457683333333","6500500","新莊區"
"242027","612-BX","2017/09/11 17:48:56","新北市新莊區福壽街155號","121.45804","25.053345","6500500","新莊區"
"242039","566-BX","2017/09/11 17:48:52","新北市新莊區民安路143號","121.425276666667","25.0239183333333","6500500","新莊區"
"242044","497-BY","2017/09/11 17:48:54","新北市新莊區中正路855巷21號","121.420265","25.0269566666667","6500500","新莊區"
"242036","442-UM","2017/09/11 17:48:48","新北市新莊區後港一路103號","121.4282","25.0270366666667","6500500","新莊區"
"242048","441-UM","2017/09/11 17:48:52","新北市新莊區萬安街102巷16號","121.42036","25.0229183333333","6500500","新莊區"
"242053","440-UM","2017/09/11 17:48:59","新北市新莊區新樹路575號","121.43295","25.00698","6500500","新莊區"
"242034","415-TV","2017/09/11 17:48:53","新北市新莊區新樹路6號","121.44059","25.0327466666667","6500500","新莊區"
"242004","413-TV","2017/09/11 17:48:39","新北市新莊區思源路177巷5弄21號","121.458551666667","25.045015","6500500","新莊區"
"242042","400-BY","2017/09/11 17:48:52","新北市新莊區中正路614巷4弄2號","121.425868333333","25.0305283333333","6500500","新莊區"
"242060","362-BY","2017/09/11 17:48:40","新北市新莊區新樹路607號","121.43345","25.0054683333333","6500500","新莊區"
"242058","353-BY","2017/09/11 17:48:48","新北市新莊區中正路704號","121.417288333333","25.0255833333333","6500500","新莊區"
"242007","132-UY","2017/09/11 17:48:55","新北市新莊區福樂街110號","121.45738","25.04772","6500500","新莊區"
"242021","135-UY","2017/09/11 17:49:01","新北市新莊區中港路128號","121.455336666667","25.0405083333333","6500500","新莊區"
"242046","172-VK","2017/09/11 17:48:54","新北市新莊區建國一路49號","121.434425","25.0305533333333","6500500","新莊區"
"242009","173-VK","2017/09/11 17:48:51","新北市新莊區昌明街42-1號","121.456261666667","25.0522683333333","6500500","新莊區"
"242015","175-VK","2017/09/11 17:48:57","新北市新莊區新泰路472號","121.442966666667","25.0451233333333","6500500","新莊區"
"242002","176-VK","2017/09/11 17:48:58","新北市新莊區新泰路20號","121.449558333333","25.0336633333333","6500500","新莊區"
"242013","346-TH","2017/09/11 17:48:52","新北市新莊區中誠街164號","121.448196666667","25.0474716666667","6500500","新莊區"
"242019","348-TH","2017/09/11 17:48:53","新北市新莊區復興路2段141-1號","121.457518333333","25.0444833333333","6500500","新莊區"
"242056","349-TH","2017/09/11 17:48:45","新北市新莊區豐年街116號","121.446461666667","25.0303683333333","6500500","新莊區"
"242017","350-TH","2017/09/11 17:48:55","新北市新莊區永安街69號","121.451041666667","25.0446533333333","6500500","新莊區"
"242011","351-TH","2017/09/11 17:49:00","新北市新莊區中港路713號","121.450561666667","25.057495","6500500","新莊區"
"238015","755-BX","2017/09/11 17:48:50","新北市樹林區長壽街25巷20號","121.420186666667","24.99454","6500700","樹林區"
"238023","601-UM","2017/09/11 17:48:52","新北市樹林區福興街3號","121.404296666667","25.0168883333333","6500700","樹林區"
"238019","599-UM","2017/09/11 17:48:52","新北市樹林區太平路156號","121.418563333333","24.9777116666667","6500700","樹林區"
"238018","571-TV","2017/09/11 17:48:36","新北市樹林區鎮前街25號","121.425771666667","24.99241","6500700","樹林區"
"238024","5061-A6","2017/09/11 17:48:38","新北市樹林區八德街1016號","121.391278333333","24.9685666666667","6500700","樹林區"
"238021","KEA-2217","2017/09/11 17:48:42","新北市樹林區柑園街一段287號","121.393583333333","24.9563033333333","6500700","樹林區"
"238022","KEA-2213","2017/09/11 17:48:43","新北市樹林區太元街37號","121.418536666667","24.9795216666667","6500700","樹林區"
"238025","303-VK","2017/09/11 17:48:59","新北市樹林區俊興街225號","121.417726666667","25.0149533333333","6500700","樹林區"
"238017","283-BY","2017/09/11 17:48:57","新北市樹林區三德街25號","121.413763333333","25.0130616666667","6500700","樹林區"
"238014","282-BY","2017/09/11 17:48:51","新北市樹林區保安街一段328號","121.4183","24.9977333333333","6500700","樹林區"
"238020","268-VK","2017/09/11 17:48:51","新北市樹林區三俊街213-1號","121.420716666667","25.01534","6500700","樹林區"
"238026","172-UY","2017/09/11 17:48:53","新北市樹林區八德街65-2號","121.400445","24.9685083333333","6500700","樹林區"
"238016","169-UY","2017/09/11 17:48:52","新北市樹林區復興路284號","121.417856666667","24.9879466666667","6500700","樹林區"
"239007","AAC-297","2017/09/11 17:48:56","新北市鶯歌區鶯桃路96-1號","121.339833333333","24.953805","6500800","鶯歌區"
"239006","891-R6","2017/09/11 17:48:58","新北市鶯歌區鳳鳴路79號","121.33411","24.9658666666667","6500800","鶯歌區"
"239008","527-UM","2017/09/11 17:48:54","新北市鶯歌區香賓街3巷2號","121.336203333333","24.9785183333333","6500800","鶯歌區"
"239005","526-UM","2017/09/11 17:48:52","新北市鶯歌區鳳吉四街8號","121.32646","24.9724566666667","6500800","鶯歌區"
"239001","417-VK","2017/09/11 17:48:47","新北市鶯歌區中正三路489號","121.321025","24.9339433333333","6500800","鶯歌區"
"239003","360-BY","2017/09/11 17:48:53","新北市鶯歌區鶯桃路285巷2-5號","121.334355","24.95913","6500800","鶯歌區"
"239002","359-BY","2017/09/11 17:48:51","新北市鶯歌區國華路71-1號","121.342921666667","24.9546233333333","6500800","鶯歌區"
"221036","130-UY","2017/09/11 17:48:44","新北市汐止區長江街101-5號","121.659206666667","25.074275","6501100","汐止區"
"221015","131-UY","2017/09/11 17:48:40","新北市汐止區長江街250號","121.662926666667","25.079405","6501100","汐止區"
"221010","269-BY","2017/09/11 17:48:47","新北市汐止區汐萬路一段420號","121.649903333333","25.078025","6501100","汐止區"
"221031","277-VK","2017/09/11 17:48:50","新北市汐止區康寧街901號","121.651398333333","25.0750183333333","6501100","汐止區"
"221012","278-VK","2017/09/11 17:48:44","新北市汐止區長江街21號","121.655153333333","25.0711916666667","6501100","汐止區"
"221023","279-VK","2017/09/11 17:48:56","新北市汐止區康寧街680-1號","121.636548333333","25.0712933333333","6501100","汐止區"
"221032","280-BY","2017/09/11 17:48:47","新北市汐止區民權街一段16號","121.62135","25.0535633333333","6501100","汐止區"
"221038","297-VK","2017/09/11 17:48:55","新北市汐止區康寧街901號","121.65139","25.0750366666667","6501100","汐止區"
"221029","298-VK","2017/09/11 17:48:58","新北市汐止區康寧街901號","121.65164","25.0749266666667","6501100","汐止區"
"221021","299-VK","2017/09/11 17:48:42","新北市汐止區中正路311號","121.655941666667","25.0677166666667","6501100","汐止區"
"221008","358-BY","2017/09/11 17:48:44","新北市汐止區康寧街901號","121.65144","25.0750783333333","6501100","汐止區"
"221035","622-UM","2017/09/11 17:48:40","新北市汐止區汐萬路一段211巷15號","121.651511666667","25.07187","6501100","汐止區"
"221025","623-UM","2017/09/11 17:48:46","新北市汐止區大同路二段175號","121.651633333333","25.064385","6501100","汐止區"
"221033","647-BX","2017/09/11 17:48:42","新北市汐止區橫科路73巷20弄22號","121.619805","25.0516683333333","6501100","汐止區"
"221018","753-BX","2017/09/11 17:48:49","新北市汐止區忠孝東路348號","121.665628333333","25.0697566666667","6501100","汐止區"
"242001","281-VK","2017/09/11 15:59:40","新北市新莊區環河路636-7號","121.437298333333","25.0112833333333","6500500","新莊區"
