"lineid","car","time","location","longitude","latitude","cityid","cityname"
"234046","148-BY","2017/09/11 20:18:53","新北市永和區林森路65號","121.524145","25.0041633333333","6500400","永和區"
"234013","149-BY","2017/09/11 20:18:55","新北市永和區保生路34號","121.506316666667","25.0079066666667","6500400","永和區"
"234007","207-UY","2017/09/11 20:18:45","新北市永和區仁愛路296號","121.503713333333","25.0081616666667","6500400","永和區"
"234081","298-R6","2017/09/11 20:18:54","新北市永和區國中路132巷5號","121.523666666667","25.007175","6500400","永和區"
"234038","336-UY","2017/09/11 20:18:40","新北市永和區成功路一段93巷23弄13號","121.528473333333","25.003445","6500400","永和區"
"234064","337-UY","2017/09/11 20:18:50","新北市永和區得和路192號","121.520093333333","24.9999716666667","6500400","永和區"
"234086","338-UY","2017/09/11 20:18:52","新北市永和區福和路239號","121.518401666667","25.0074383333333","6500400","永和區"
"234070","552-UM","2017/09/11 20:18:55","新北市永和區永寧街91號","121.518811666667","25.0066866666667","6500400","永和區"
"234054","553-UM","2017/09/11 20:18:40","新北市永和區光復街2巷26弄2號","121.51766","25.0164283333333","6500400","永和區"
"234017","745-BX","2017/09/11 20:18:44","新北市永和區文化路40號","121.514901666667","25.015125","6500400","永和區"
"234030","746-BX","2017/09/11 20:18:50","新北市永和區民權路53號","121.520351666667","24.9965866666667","6500400","永和區"
"234061","AAD-866","2017/09/11 20:18:56","新北市永和區安樂路72巷3號","121.51502","24.9986716666667","6500400","永和區"
"234042","862-TW","2017/09/11 20:18:42","新北市永和區雙和街2號","121.50986","25.0017666666667","6500400","永和區"
"234050","863-TW","2017/09/11 20:18:54","新北市永和區環河西路二段21號","121.507726666667","25.0158883333333","6500400","永和區"
"234026","9372-KE","2017/09/11 20:18:45","新北市永和區保生路55-1號","121.504516666667","25.0109466666667","6500400","永和區"
"234011","9373-KE","2017/09/11 20:18:50","新北市永和區仁愛路352巷124號","121.500173333333","25.0084716666667","6500400","永和區"
"249005","172-UM","2017/09/11 20:18:51","新北市八里區下罟子2號","121.387316666667","25.1411916666667","6502300","八里區"
"249001","173-UM","2017/09/11 20:18:47","新北市八里區中華路二段536-4號","121.39914","25.1450766666667","6502300","八里區"
"249004","303-UY","2017/09/11 20:18:49","新北市八里區中山路一段332號","121.412671666667","25.1590683333333","6502300","八里區"
"249002","305-UY","2017/09/11 20:18:42","新北市八里區龍米路一段366號","121.451576666667","25.13149","6502300","八里區"
"249003","593-UM","2017/09/11 20:18:53","新北市八里區中山路二段447巷16號","121.396908333333","25.14533","6502300","八里區"
"248016","026-BX","2017/09/11 20:18:44","新北市五股區凌雲路一段158巷39弄12號","121.446505","25.1040966666667","6501500","五股區"
"248012","247-BX","2017/09/11 20:18:49","新北市五股區五福路49號","121.43287","25.089445","6501500","五股區"
"248004","677-BX","2017/09/11 20:18:45","新北市五股區成泰路二段10號","121.43687","25.0807066666667","6501500","五股區"
"248002","678-BX","2017/09/11 20:18:55","新北市五股區成泰路三段157號","121.445048333333","25.0916333333333","6501500","五股區"
"234023","9380-KE","2017/09/11 20:18:44","新北市永和區永和路二段282號","121.51601","25.0154266666667","6500400","永和區"
"234077","969-R7","2017/09/11 20:18:52","新北市永和區民享街23巷3號","121.515798333333","24.99503","6500400","永和區"
"234074","AAC-211","2017/09/11 20:18:49","新北市永和區竹林路201巷22弄21號","121.522898333333","25.00942","6500400","永和區"
"234067","AAC-212","2017/09/11 20:18:50","新北市永和區保平路266號","121.508691666667","25.005185","6500400","永和區"
"234003","AAC-295","2017/09/11 20:18:45","新北市永和區自強街19巷3號","121.514736666667","25.0084833333333","6500400","永和區"
"243013","AAD-798","2017/09/11 20:18:56","新北市泰山區新民路12號","121.42639","25.044615","6501600","泰山區"
"243009","297-R6","2017/09/11 20:18:46","新北市泰山區福泰街24巷4號","121.433411666667","25.059855","6501600","泰山區"
"243015","380-SR","2017/09/11 20:18:38","新北市泰山區仁德路2號","121.434963333333","25.0572166666667","6501600","泰山區"
"243014","421-VK","2017/09/11 20:18:45","新北市泰山區泰林路二段464-1號","121.425586666667","25.0641433333333","6501600","泰山區"
"243010","KEA-2215","2017/09/11 20:18:42","新北市泰山區明志路二段254巷16弄5號","121.426163333333","25.0481566666667","6501600","泰山區"
"243011","KEA-2216","2017/09/11 20:18:49","新北市泰山區壽山路50號","121.420253333333","25.0291016666667","6501600","泰山區"
"243012","646-TV","2017/09/11 20:18:45","新北市泰山區楓江路57號","121.43588","25.0626733333333","6501600","泰山區"
"243016","680-BX","2017/09/11 20:18:50","新北市泰山區新生路1號","121.42661","25.045755","6501600","泰山區"
"222003","436-BY","2017/09/11 20:18:49","新北市深坑區文化街76號","121.618155","25.0020183333333","6501800","深坑區"
"222002","659-BX","2017/09/11 20:18:49","新北市深坑區萬福路57號","121.600563333333","25.007605","6501800","深坑區"
"222001","696-SL","2017/09/11 20:18:43","新北市深坑區北深路三段213號","121.600415","25.003975","6501800","深坑區"
"231041","002-UM","2017/09/11 20:18:43","新北市新店區民權路46號","121.540141666667","24.9829233333333","6500600","新店區"
"231059","046-UY","2017/09/11 20:18:41","新北市新店區安德街120巷14號","121.50862","24.960955","6500600","新店區"
"231061","047-UY","2017/09/11 20:18:56","新北市新店區安興路32號","121.5158","24.9703833333333","6500600","新店區"
"231060","106-UY","2017/09/11 20:18:43","新北市新店區安康路三段576號","121.48136","24.9487266666667","6500600","新店區"
"231051","107-UY","2017/09/11 20:18:53","新北市新店區中央六街39號","121.528746666667","24.975415","6500600","新店區"
"231047","108-UY","2017/09/11 20:18:48","新北市新店區寶橋路132號","121.547395","24.9760683333333","6500600","新店區"
"231052","187-VK","2017/09/11 20:18:47","新北市新店區新烏路二段369巷353-1號","121.550573333333","24.910305","6500600","新店區"
"231050","215-TC","2017/09/11 20:18:45","新北市新店區北宜路一段256號","121.545576666667","24.9529016666667","6500600","新店區"
"231057","256-BX","2017/09/11 20:18:49","新北市新店區花園五路二段11號","121.553868333333","24.93432","6500600","新店區"
"231063","268-BY","2017/09/11 20:18:46","新北市新店區黎明路9號","121.502488333333","24.950195","6500600","新店區"
"231058","3712-VJ","2017/09/11 20:18:42","新北市新店區安民街65巷21-1號","121.515496666667","24.9673066666667","6500600","新店區"
"231055","3713-VJ","2017/09/11 20:18:44","新北市新店區新明街24號","121.540873333333","24.9684866666667","6500600","新店區"
"231056","4716-K9","2017/09/11 20:18:39","新北市新店區中正路275巷17-1號","121.537218333333","24.9735366666667","6500600","新店區"
"231067","4772-VM","2017/09/11 20:18:41","新北市新店區溪洲路6巷88號","121.533418333333","24.9635183333333","6500600","新店區"
"231065","512-UM","2017/09/11 20:18:50","新北市新店區安祥路106巷48號","121.476783333333","24.9616516666667","6500600","新店區"
"231054","513-UM","2017/09/11 20:18:46","新北市新店區檳榔路109號","121.544428333333","24.9616183333333","6500600","新店區"
"231064","515-UM","2017/09/11 20:18:50","新北市新店區安和路二段77-1號","121.518435","24.96873","6500600","新店區"
"231042","616-UM","2017/09/11 20:18:53","新北市新店區中興路二段231-2號","121.547751666667","24.9750583333333","6500600","新店區"
"231045","617-UM","2017/09/11 20:18:48","新北市新店區中興路一段178號","121.543033333333","24.9646566666667","6500600","新店區"
"231040","619-UM","2017/09/11 20:18:43","新北市新店區北新路二段2號","121.542656666667","24.9704566666667","6500600","新店區"
"231068","718-UY","2017/09/11 20:18:47","新北市新店區寶安街30-1號","121.542141666667","24.982365","6500600","新店區"
"231049","719-UM","2017/09/11 20:18:39","新北市新店區北新路二段35號","121.542805","24.9724633333333","6500600","新店區"
"231062","720-UM","2017/09/11 20:18:49","新北市新店區安泰路7巷16號","121.48568","24.9510183333333","6500600","新店區"
"231044","897-TW","2017/09/11 20:18:52","新北市新店區北新路三段153號","121.541135","24.9835483333333","6500600","新店區"
"231043","899-TW","2017/09/11 20:18:48","新北市新店區建國路133號","121.539368333333","24.978275","6500600","新店區"
"231066","AKT-0513","2017/09/11 20:18:44","新北市新店區安興路112號","121.514608333333","24.977675","6500600","新店區"
"241011","013-R5","2017/09/11 20:18:54","新北市三重區龍濱路287號","121.501128333333","25.0737016666667","6500200","三重區"
"241028","022-UY","2017/09/11 20:18:44","新北市三重區大同南路162號","121.496645","25.05755","6500200","三重區"
"241008","059-VK","2017/09/11 20:18:53","新北市三重區永福街211巷27號","121.478961666667","25.0740333333333","6500200","三重區"
"241031","061-VK","2017/09/11 20:18:50","新北市三重區三寧街15號","121.48944","25.0598066666667","6500200","三重區"
"241015","062-VK","2017/09/11 20:18:46","新北市三重區重新路一段118號","121.500513333333","25.0631066666667","6500200","三重區"
"241017","063-VK","2017/09/11 20:18:49","新北市三重區重陽路三段5巷1號","121.490526666667","25.0656183333333","6500200","三重區"
"241024","065-VK","2017/09/11 20:18:41","新北市三重區中正北路242號","121.481753333333","25.0680283333333","6500200","三重區"
"241026","066-VK","2017/09/11 20:18:41","新北市三重區中央南路85號","121.501465","25.0608316666667","6500200","三重區"
"241002","090-VK","2017/09/11 20:18:51","新北市三重區五華街7巷32號","121.496435","25.0807866666667","6500200","三重區"
"241003","091-VK","2017/09/11 20:18:39","新北市三重區富華街84號","121.490801666667","25.0834","6500200","三重區"
"241009","156-TC","2017/09/11 20:18:51","新北市三重區三和路四段382巷49號","121.481208333333","25.07858","6500200","三重區"
"241005","262-UM","2017/09/11 20:18:42","新北市三重區分子尾街79巷1號","121.48914","25.0823883333333","6500200","三重區"
"241013","265-UM","2017/09/11 20:18:50","新北市三重區三和路三段155號","121.492041666667","25.07375","6500200","三重區"
"241016","266-UM","2017/09/11 20:18:40","新北市三重區新北大道一段3-1號","121.490798333333","25.06136","6500200","三重區"
"241022","267-UM","2017/09/11 20:18:42","新北市三重區中正北路2號","121.48935","25.0629166666667","6500200","三重區"
"241018","268-UM","2017/09/11 20:18:39","新北市三重區雙園街101號","121.493736666667","25.06728","6500200","三重區"
"241032","269-UM","2017/09/11 20:18:43","新北市三重區捷運路19巷6弄21號","121.48433","25.0568216666667","6500200","三重區"
"241007","398-BY","2017/09/11 20:18:44","新北市三重區溪尾街108巷69號","121.487186666667","25.0782266666667","6500200","三重區"
"241020","413-TH","2017/09/11 20:18:39","新北市三重區三和路三段172號","121.492623333333","25.0732566666667","6500200","三重區"
"241035","462-BY","2017/09/11 20:18:39","新北市三重區正義北路33巷46號","121.49889","25.0639266666667","6500200","三重區"
"241004","475-VK","2017/09/11 20:18:55","新北市三重區自強路四段87號","121.49101","25.0793516666667","6500200","三重區"
"241019","478-VK","2017/09/11 20:18:53","新北市三重區自強路二段81號","121.488701666667","25.0699583333333","6500200","三重區"
"241030","480-VK","2017/09/11 20:18:53","新北市三重區集美街89巷29號","121.488188333333","25.0525683333333","6500200","三重區"
"241014","543-UM","2017/09/11 20:18:45","新北市三重區長樂街190號","121.503445","25.0699566666667","6500200","三重區"
"241023","545-UM","2017/09/11 20:18:49","新北市三重區忠孝路三段93巷12號","121.478491666667","25.0649583333333","6500200","三重區"
"241001","547-UM","2017/09/11 20:18:54","新北市三重區三和路四段91號","121.488875","25.075635","6500200","三重區"
"241006","AAD-863","2017/09/11 20:18:38","新北市三重區車路頭街139巷14號","121.484353333333","25.076285","6500200","三重區"
"241029","887-TS","2017/09/11 20:18:41","新北市三重區中正南路129巷8號","121.493565","25.056835","6500200","三重區"
"241012","941-UM","2017/09/11 20:18:48","新北市三重區河邊北街379-1號","121.50177","25.0765133333333","6500200","三重區"
"241033","AAC-255","2017/09/11 20:18:46","新北市三重區五谷王北街77號","121.475745","25.050155","6500200","三重區"
"235066","003-UY","2017/09/11 20:18:41","新北市中和區保平路326巷3號","121.507021666667","25.00438","6500300","中和區"
"235039","097-UM","2017/09/11 20:18:44","新北市中和區自強路52號","121.520185","24.9948383333333","6500300","中和區"
"235065","098-UM","2017/09/11 20:18:56","新北市中和區永和路55號","121.497063333333","25.0053183333333","6500300","中和區"
"235040","150-BY","2017/09/11 20:18:52","新北市中和區保健路26巷25號","121.508745","24.9970583333333","6500300","中和區"
"235044","293-VK","2017/09/11 20:18:51","新北市中和區板南路187號","121.499995","24.9928916666667","6500300","中和區"
"235072","301-VK","2017/09/11 20:18:39","新北市八里區下罟子23號","121.376173333333","25.1386783333333","6500300","中和區"
"235068","377-QA","2017/09/11 20:18:43","新北市中和區勝利路35巷1弄4號","121.499118333333","25.0074516666667","6500300","中和區"
"235061","378-QA","2017/09/11 20:18:44","新北市新店區安豐路54-1號","121.49973","24.95421","6500300","中和區"
"235050","4979-A6","2017/09/11 20:18:41","新北市中和區景安路177巷10號","121.505821666667","24.9939916666667","6500300","中和區"
"235069","4980-A6","2017/09/11 20:18:56","新北市中和區中正路446號","121.491005","24.9943983333333","6500300","中和區"
"235042","551-UM","2017/09/11 20:18:51","新北市新店區安康路二段320巷15弄2號","121.503545","24.959455","6500300","中和區"
"235070","558-UM","2017/09/11 20:18:36","新北市中和區錦和路216號","121.490308333333","24.9942483333333","6500300","中和區"
"235037","AAC-213","2017/09/11 20:18:45","新北市中和區秀朗路三段179號","121.524406666667","24.9907766666667","6500300","中和區"
"235059","AAC-215","2017/09/11 20:18:55","新北市中和區圓通路296巷1號","121.487405","24.9884916666667","6500300","中和區"
"220065","072-UY","2017/09/11 20:18:38","新北市板橋區篤行路三段98號","121.425903333333","24.9846366666667","6500100","板橋區"
"220069","AAD-861","2017/09/11 20:18:55","新北市板橋區大明街27號","121.458388333333","25.0024783333333","6500100","板橋區"
"220102","120-SR","2017/09/11 20:18:56","新北市板橋區介壽街114號","121.469573333333","25.0175416666667","6500100","板橋區"
"247022","893-R6","2017/09/11 20:18:55","新北市蘆洲區民族路578號","121.467011666667","25.0886033333333","6501400","蘆洲區"
"247012","546-UM","2017/09/11 20:18:47","新北市蘆洲區中興街17號","121.48058","25.08711","6501400","蘆洲區"
"247020","500-BY","2017/09/11 20:18:53","新北市蘆洲區仁愛街64號","121.471398333333","25.09403","6501400","蘆洲區"
"247010","339-TH","2017/09/11 20:18:37","新北市蘆洲區信義路222巷32弄16號","121.480436666667","25.0846133333333","6501400","蘆洲區"
"247002","337-TH","2017/09/11 20:18:37","新北市蘆洲區長安街331巷28號","121.45616","25.086745","6501400","蘆洲區"
"247004","336-TH","2017/09/11 20:18:41","新北市蘆洲區長安街220巷10號","121.45886","25.08486","6501400","蘆洲區"
"247016","057-VK","2017/09/11 20:18:39","新北市蘆洲區光華路132巷39號","121.465788333333","25.0837783333333","6501400","蘆洲區"
"247006","056-VK","2017/09/11 20:18:45","新北市蘆洲區九芎街136號","121.464923333333","25.0790883333333","6501400","蘆洲區"
"247008","053-VK","2017/09/11 20:18:57","新北市蘆洲區集賢路300號","121.48155","25.0850966666667","6501400","蘆洲區"
"247014","007-UY","2017/09/11 20:18:50","新北市蘆洲區中山二路155號","121.471453333333","25.0813816666667","6501400","蘆洲區"
"247024","002-UY","2017/09/11 20:18:53","新北市蘆洲區光榮路120巷8弄39號","121.464548333333","25.0879383333333","6501400","蘆洲區"
"247018","001-UY","2017/09/11 20:18:52","新北市蘆洲區民族路408巷7號","121.474805","25.09195","6501400","蘆洲區"
"223008","406-TH","2017/09/11 11:01:46","新北市石碇區小粗坑(潭邊里)9-2號","121.678641666667","24.985905","6501900","石碇區"
"251009","008-UM","2017/09/11 20:18:54","新北市淡水區中山北路一段22號","121.44155","25.1751033333333","6501000","淡水區"
"251001","011-UM","2017/09/11 20:18:46","新北市淡水區新市二路四段265號","121.445726666667","25.19253","6501000","淡水區"
"251008","181-VK","2017/09/11 20:18:45","新北市淡水區淡海路180巷31號","121.421906666667","25.1845766666667","6501000","淡水區"
"251013","182-VK","2017/09/11 20:18:21","新北市淡水區相公山1-3號","121.474121666667","25.206785","6501000","淡水區"
"251010","413-VK","2017/09/11 20:18:55","新北市淡水區新民街一段134號","121.427528333333","25.1888883333333","6501000","淡水區"
"251012","441-VK","2017/09/11 20:18:52","新北市淡水區淡金路三段379號","121.448843333333","25.20765","6501000","淡水區"
"251015","442-VK","2017/09/11 20:18:46","新北市淡水區興仁路103巷17號","121.449971666667","25.2176383333333","6501000","淡水區"
"251005","443-VK","2017/09/11 20:18:48","新北市淡水區淡金路二段38號","121.451388333333","25.1821333333333","6501000","淡水區"
"251006","561-UM","2017/09/11 20:18:37","新北市淡水區北新路175號","121.450653333333","25.179525","6501000","淡水區"
"251011","650-BX","2017/09/11 20:18:53","新北市淡水區崁頂75-2號","121.435821666667","25.2038483333333","6501000","淡水區"
"251002","672-BX","2017/09/11 20:18:46","新北市淡水區中正路232號","121.439016666667","25.170835","6501000","淡水區"
"251003","766-UM","2017/09/11 20:18:50","新北市淡水區中山北路一段229號","121.44446","25.1795166666667","6501000","淡水區"
"207004","225-TW","2017/09/11 20:18:57","新北市萬里區北基里仁三街2號","121.682286666667","25.1754733333333","6502800","萬里區"
"252002","178-VK","2017/09/11 20:18:50","新北市三芝區淡金路二段15號","121.502518333333","25.2591116666667","6502100","三芝區"
"252001","292-VK","2017/09/11 20:18:41","新北市三芝區中山路一段31號","121.500616666667","25.2580316666667","6502100","三芝區"
"252006","AAC-283","2017/09/11 16:07:15","新北市三芝區埔坪里埔頭坑41號","121.504473333333","25.2644233333333","6502100","三芝區"
"237007","153-BY","2017/09/11 20:18:56","新北市三峽區二鬮路136巷18弄19號","121.35868","24.90818","6500900","三峽區"
"237012","275-BY","2017/09/11 20:17:40","新北市三峽區中華路74-5號","121.371555","24.92911","6500900","三峽區"
"237006","5529-G3","2017/09/11 20:18:45","新北市三峽區中正路二段233號","121.365941666667","24.9127433333333","6500900","三峽區"
"237011","572-TV","2017/09/11 19:07:11","新北市三峽區中正路一段100號","121.374268333333","24.9296366666667","6500900","三峽區"
"237005","AKY-6261","2017/09/11 20:18:47","新北市三峽區三樹路98巷113號","121.382743333333","24.93871","6500900","三峽區"
"236069","105-UM","2017/09/11 20:18:57","新北市土城區亞洲路59號","121.433311666667","24.97101","6501300","土城區"
"236042","107-UM","2017/09/11 20:18:39","新北市土城區學享街51號","121.451896666667","24.987005","6501300","土城區"
"236078","166-UM","2017/09/11 20:18:55","新北市土城區金安街48巷37號","121.420525","24.9654766666667","6501300","土城區"
"236030","253-BX","2017/09/11 20:18:47","新北市土城區中央路一段45巷15號","121.449191666667","24.9899983333333","6501300","土城區"
"236026","269-VK","2017/09/11 20:18:54","新北市土城區中央路一段249巷23號","121.446231666667","24.985475","6501300","土城區"
"236014","270-VK","2017/09/11 20:18:57","新北市土城區廣明街90巷21號","121.455356666667","24.9946633333333","6501300","土城區"
"236036","271-VK","2017/09/11 20:18:53","新北市土城區明德路一段65號","121.465371666667","24.984355","6501300","土城區"
"236020","401-BY","2017/09/11 20:18:45","新北市土城區延吉街111巷12弄15-3號","121.471596666667","24.9849183333333","6501300","土城區"
"236058","912-UM","2017/09/11 20:18:52","新北市土城區中央路二段392-1號","121.439635","24.9708","6501300","土城區"
"236048","913-UM","2017/09/11 20:18:08","新北市土城區裕民路285號","121.456006666667","24.98163","6501300","土城區"
"236053","AAC-216","2017/09/11 20:18:47","新北市土城區慶祥街12號","121.437831666667","24.9755083333333","6501300","土城區"
"242031","AAC-296","2017/09/11 20:18:44","新北市新莊區義豐街35號","121.441116666667","25.03542","6500500","新莊區"
"242029","986-R7","2017/09/11 20:18:57","新北市新莊區中原路305號","121.447248333333","25.05438","6500500","新莊區"
"242050","751-BX","2017/09/11 20:18:56","新北市新莊區民安西路212巷6號","121.425321666667","25.0148966666667","6500500","新莊區"
"242025","615-BX","2017/09/11 20:18:52","新北市新莊區五工三路70巷21號","121.459891666667","25.0655866666667","6500500","新莊區"
"242023","613-BX","2017/09/11 20:18:41","新北市新莊區化成路704號","121.465875","25.05663","6500500","新莊區"
"242027","612-BX","2017/09/11 20:18:45","新北市新莊區幸福路558號","121.454706666667","25.04938","6500500","新莊區"
"242039","566-BX","2017/09/11 20:18:51","新北市新莊區龍安路441號","121.42445","25.0185716666667","6500500","新莊區"
"242044","497-BY","2017/09/11 20:18:53","新北市新莊區中正路895-26號","121.412323333333","25.0218583333333","6500500","新莊區"
"242036","442-UM","2017/09/11 20:18:47","新北市新莊區建安街26巷2號","121.428806666667","25.025915","6500500","新莊區"
"242053","440-UM","2017/09/11 20:18:46","新北市新莊區民安西路261巷1號","121.426308333333","25.013225","6500500","新莊區"
"242034","415-TV","2017/09/11 20:18:53","新北市新莊區仁愛街54巷1號","121.444855","25.0371166666667","6500500","新莊區"
"242004","413-TV","2017/09/11 20:18:39","新北市新莊區中原東路99號","121.46187","25.0536433333333","6500500","新莊區"
"242042","400-BY","2017/09/11 20:18:48","新北市新莊區壽山路57-2號","121.411431666667","25.0324","6500500","新莊區"
"242060","362-BY","2017/09/11 20:18:40","新北市新莊區新樹路172號","121.43455","25.0218716666667","6500500","新莊區"
"242058","353-BY","2017/09/11 20:18:57","新北市新莊區龍安路278巷19號","121.42196","25.018525","6500500","新莊區"
"242007","132-UY","2017/09/11 20:18:55","新北市新莊區福壽街94巷5號","121.458611666667","25.0500766666667","6500500","新莊區"
"242021","135-UY","2017/09/11 20:18:56","新北市新莊區和興街45號","121.446578333333","25.0405783333333","6500500","新莊區"
"242046","172-VK","2017/09/11 20:18:53","新北市新莊區中正路新生巷54號","121.417448333333","25.0232483333333","6500500","新莊區"
"242009","173-VK","2017/09/11 20:18:51","新北市新莊區昌平街11號","121.454698333333","25.0517716666667","6500500","新莊區"
"242015","175-VK","2017/09/11 20:18:46","新北市新莊區永樂街231號","121.44677","25.0443433333333","6500500","新莊區"
"242002","176-VK","2017/09/11 20:18:38","新北市新莊區中正路26號","121.465058333333","25.0419216666667","6500500","新莊區"
"242013","346-TH","2017/09/11 20:18:52","新北市新莊區中信街63巷4弄11號","121.448505","25.0500516666667","6500500","新莊區"
"242019","348-TH","2017/09/11 20:18:54","新北市新莊區復興路二段131號","121.457158333333","25.04443","6500500","新莊區"
"242056","349-TH","2017/09/11 20:18:45","新北市新莊區豐年街30號","121.44628","25.0324166666667","6500500","新莊區"
"242017","350-TH","2017/09/11 20:18:42","新北市新莊區中港一街53號","121.450456666667","25.0454583333333","6500500","新莊區"
"242011","351-TH","2017/09/11 20:18:50","新北市新莊區中信街16號","121.450958333333","25.0508233333333","6500500","新莊區"
"238021","KEA-2217","2017/09/11 20:18:42","新北市樹林區佳園路三段101巷62弄19號","121.393181666667","24.9489766666667","6500700","樹林區"
"221036","130-UY","2017/09/11 20:18:43","新北市汐止區仁愛路152巷31號","121.664886666667","25.0637766666667","6501100","汐止區"
"221015","131-UY","2017/09/11 20:18:48","新北市汐止區建成路160巷23號","121.661748333333","25.0739116666667","6501100","汐止區"
"221010","269-BY","2017/09/11 20:18:47","新北市汐止區八連路一段327號","121.639878333333","25.0874383333333","6501100","汐止區"
"221031","277-VK","2017/09/11 20:18:50","新北市汐止區原興路60巷8-1號","121.633098333333","25.0657383333333","6501100","汐止區"
"221012","278-VK","2017/09/11 20:18:44","新北市汐止區保新街158號","121.689361666667","25.06816","6501100","汐止區"
"221023","279-VK","2017/09/11 20:18:55","新北市汐止區明峰街324號","121.62497","25.0674266666667","6501100","汐止區"
"221032","280-BY","2017/09/11 20:18:47","新北市汐止區民權街二段28號","121.619418333333","25.04988","6501100","汐止區"
"221027","281-BY","2017/09/11 20:18:56","新北市汐止區中正路99巷12號","121.661126666667","25.06904","6501100","汐止區"
"221038","297-VK","2017/09/11 20:18:54","新北市汐止區忠孝東路512號","121.666925","25.0755","6501100","汐止區"
"221029","298-VK","2017/09/11 20:18:56","新北市汐止區樟樹一路99巷7弄1號","121.64125","25.0636616666667","6501100","汐止區"
"221021","299-VK","2017/09/11 20:18:57","新北市汐止區水源路一段243號","121.654148333333","25.0599766666667","6501100","汐止區"
"221008","358-BY","2017/09/11 20:18:54","新北市汐止區康寧街69號","121.619176666667","25.06648","6501100","汐止區"
"221035","622-UM","2017/09/11 20:18:40","新北市汐止區長江街79巷21號","121.657806666667","25.0729866666667","6501100","汐止區"
"221025","623-UM","2017/09/11 20:18:46","新北市汐止區水源路二段68號","121.655798333333","25.0565616666667","6501100","汐止區"
"221033","647-BX","2017/09/11 20:18:42","新北市汐止區東勢街201巷104號","121.633561666667","25.0429683333333","6501100","汐止區"
"221002","707-TV","2017/09/11 20:18:38","新北市汐止區福德二路18號","121.635143333333","25.0681033333333","6501100","汐止區"
"221018","753-BX","2017/09/11 20:18:48","新北市汐止區茄安路168號","121.675915","25.0693283333333","6501100","汐止區"
"220097","257-TC","2017/09/11 20:18:56","新北市板橋區建國街125號","121.460791666667","25.01765","6500100","板橋區"
"220101","280-UM","2017/09/11 20:18:47","新北市板橋區莊敬路47號","121.473156666667","25.0268666666667","6500100","板橋區"
"220083","286-VK","2017/09/11 20:18:44","新北市板橋區僑中二街102巷37號","121.444615","25.00846","6500100","板橋區"
"220081","287-VK","2017/09/11 20:18:58","新北市板橋區僑中一街124巷18弄1號","121.446138333333","25.0138516666667","6500100","板橋區"
"220061","295-UM","2017/09/11 20:18:41","新北市板橋區四川路一段286巷26-1號","121.457808333333","25.0012783333333","6500100","板橋區"
"242001","281-VK","2017/09/11 19:35:11","新北市新莊區環河路636-7號","121.43734","25.011345","6500500","新莊區"
"220062","305-R5","2017/09/11 20:18:48","新北市樹林區中華路1-6號","121.42563","24.9844816666667","6500100","板橋區"
"220080","461-BY","2017/09/11 20:18:40","新北市板橋區館前西路66號","121.45783","25.0071266666667","6500100","板橋區"
"220089","487-VK","2017/09/11 20:18:54","新北市板橋區四維路202號","121.464223333333","25.0272066666667","6500100","板橋區"
"220088","491-VK","2017/09/11 20:18:43","新北市三重區重新路5段221巷6弄11-1號","121.479141666667","25.050785","6500100","板橋區"
"220103","561-BX","2017/09/11 20:18:47","新北市板橋區新海路206號","121.461258333333","25.0237466666667","6500100","板橋區"
"220055","827-TW","2017/09/11 20:18:54","新北市板橋區仁愛路45號","121.459575","24.9994133333333","6500100","板橋區"
"220070","AAC-253","2017/09/11 20:18:52","新北市板橋區四川路二段245巷16-2號","121.451048333333","24.99302","6500100","板橋區"
