"lineid","car","time","location","longitude","latitude","cityid","cityname"
"248005","653-BX","2017/09/12 07:15:58","新北市五股區明德路10號","121.433446666667","25.0716616666667","6501500","五股區"
"232006","290-BY","2017/09/12 07:37:33","新北市坪林區北宜路九段7號","121.720095","24.902365","6502000","坪林區"
"232013","705-BZ","2017/09/12 07:39:33","新北市坪林區北宜路七段338號","121.69692","24.9349083333333","6502000","坪林區"
"244002","657-BX","2017/09/12 07:39:34","新北市林口區下福里13-6號","121.318723333333","25.10124","6501700","林口區"
"231007","189-VK","2017/09/12 07:39:33","新北市新店區安華路28-1號","121.519551666667","24.9611433333333","6500600","新店區"
"226005","5620-A6","2017/09/12 07:39:47","新北市平溪區嶺腳里嶺腳寮116號","121.747231666667","25.03031","6502400","平溪區"
"226002","7418-A5","2017/09/12 07:39:33","新北市平溪區平湖里大厝37-3號","121.780606666667","25.0282883333333","6502400","平溪區"
"226003","AGD-0702","2017/09/12 07:39:40","新北市平溪區嶺腳里嶺腳寮32號","121.748501666667","25.0304583333333","6502400","平溪區"
"223006","022-BY","2017/09/12 07:39:49","新北市坪林區北宜路八段558號","121.717225","24.909465","6501900","石碇區"
"223002","198-BX","2017/09/12 07:39:42","新北市石碇區北宜路六段塗潭巷10號","121.648218333333","24.9282433333333","6501900","石碇區"
"223003","205-TH","2017/09/12 07:12:36","新北市石碇區烏塗窟46號","121.655983333333","24.9724716666667","6501900","石碇區"
"223008","406-TH","2017/09/12 07:37:58","新北市石碇區靜安路一段337號","121.698768333333","25.0146066666667","6501900","石碇區"
"223001","592-UM","2017/09/12 07:29:09","新北市石碇區烏塗窟46號","121.656006666667","24.97247","6501900","石碇區"
"223004","660-BX","2017/09/12 07:39:42","新北市石碇區八分寮47號","121.642355","25.0139283333333","6501900","石碇區"
"223007","661-BX","2017/09/12 07:39:29","新北市石碇區大溪墘9-5號","121.697826666667","25.0080166666667","6501900","石碇區"
"223005","677-TV","2017/09/12 07:39:42","新北市石碇區八分寮47-1號","121.64247","25.013875","6501900","石碇區"
"227006","282-VK","2017/09/12 07:39:37","新北市雙溪區雙溪里太平路54號","121.864806666667","25.0355283333333","6502500","雙溪區"
"252004","249-BX","2017/09/12 07:39:32","新北市三芝區店子里龜子山15-1號","121.501411666667","25.2130416666667","6502100","三芝區"
"252007","AAC-283","2017/09/12 07:39:44","新北市三芝區古庄里茂興店60-1號","121.487041666667","25.2659333333333","6502100","三芝區"
"237001","159-UY","2017/09/12 07:39:40","新北市三峽區大義路9號","121.378923333333","24.9438016666667","6500900","三峽區"
"236008","165-UM","2017/09/12 07:39:34","新北市土城區延壽路11號","121.471298333333","24.9904916666667","6501300","土城區"
"236002","339-SR","2017/09/12 07:39:39","新北市土城區龍泉路87號","121.445346666667","24.9442616666667","6501300","土城區"
"220082","282-UM","2017/09/12 07:39:48","新北市板橋區國光路51號","121.45819","25.0179516666667","6500100","板橋區"
