"lineid","car","time","location","longitude","latitude","cityid","cityname"
"248005","653-BX","2017/09/12 07:40:27","新北市五股區明德路8號","121.433371666667","25.0716733333333","6501500","五股區"
"232006","290-BY","2017/09/12 07:37:33","新北市坪林區北宜路九段7號","121.720095","24.902365","6502000","坪林區"
"244002","657-BX","2017/09/12 07:49:34","新北市林口區下福里20鄰12號","121.314581666667","25.110475","6501700","林口區"
"231007","189-VK","2017/09/12 07:49:33","新北市新店區安華路28-1號","121.519506666667","24.9611433333333","6500600","新店區"
"231009","192-VK","2017/09/12 07:49:49","新北市新店區安華路28-1號","121.519386666667","24.9613016666667","6500600","新店區"
"226005","5620-A6","2017/09/12 07:46:47","新北市平溪區望古里望古坑7號","121.758346666667","25.0380616666667","6502400","平溪區"
"226002","7418-A5","2017/09/12 07:49:33","新北市平溪區南山里乾坑11號","121.782678333333","25.0471816666667","6502400","平溪區"
"226003","AGD-0702","2017/09/12 07:43:00","新北市平溪區嶺腳里嶺腳寮83-2號","121.750268333333","25.0349666666667","6502400","平溪區"
"223006","022-BY","2017/09/12 07:49:49","新北市坪林區鶯子瀨12-1號","121.713443333333","24.9141","6501900","石碇區"
"223002","198-BX","2017/09/12 07:49:42","新北市石碇區北宜路六段塗潭巷10號","121.65312","24.9252033333333","6501900","石碇區"
"223003","205-TH","2017/09/12 07:12:36","新北市石碇區烏塗窟46號","121.655983333333","24.9724716666667","6501900","石碇區"
"223008","406-TH","2017/09/12 07:37:58","新北市石碇區靜安路一段337號","121.698768333333","25.0146066666667","6501900","石碇區"
"223001","592-UM","2017/09/12 07:29:09","新北市石碇區烏塗窟46號","121.656006666667","24.97247","6501900","石碇區"
"223004","660-BX","2017/09/12 07:49:42","新北市石碇區靜安路一段14號","121.642051666667","25.0113533333333","6501900","石碇區"
"223007","661-BX","2017/09/12 07:49:29","新北市石碇區靜安路一段337號","121.698883333333","25.0145733333333","6501900","石碇區"
"223005","677-TV","2017/09/12 07:49:42","新北市石碇區靜安路一段18號","121.642151666667","25.0113983333333","6501900","石碇區"
"227006","282-VK","2017/09/12 07:49:38","新北市雙溪區雙溪里太平路54號","121.864755","25.0355266666667","6502500","雙溪區"
"252004","249-BX","2017/09/12 07:49:32","新北市三芝區興華里車埕36-1號","121.504491666667","25.1933466666667","6502100","三芝區"
"252007","AAC-283","2017/09/12 07:49:44","新北市三芝區海景四街23號","121.47335","25.24614","6502100","三芝區"
"237001","159-UY","2017/09/12 07:49:40","新北市三峽區國慶路144號","121.375621666667","24.9398466666667","6500900","三峽區"
"236008","165-UM","2017/09/12 07:49:34","新北市土城區清水路267號","121.463535","24.9850483333333","6501300","土城區"
"236002","339-SR","2017/09/12 07:49:39","新北市土城區龍泉路89號","121.44623","24.9422916666667","6501300","土城區"
"220082","282-UM","2017/09/12 07:49:48","新北市板橋區縣民大道一段297號","121.461231666667","25.0107133333333","6500100","板橋區"
