"lineid","car","time","location","longitude","latitude","cityid","cityname"
"222005","289-BY","2017/10/06 09:38:36","新北市深坑區北深路一段288號","121.62818","25.0077516666667","6501800","深坑區"
"231007","189-VK","2017/10/06 09:38:32","新北市新店區新潭路三段215巷25號","121.508175","24.904065","6500600","新店區"
"231009","192-VK","2017/10/06 09:38:27","新北市新店區平廣路一段201巷1號","121.514795","24.8892316666667","6500600","新店區"
"226001","7418-A5","2017/10/06 09:38:29","新北市平溪區石底里公園街18-3號","121.733485","25.0256983333333","6502400","平溪區"
"223002","198-BX","2017/10/06 09:36:36","新北市石碇區碇坪路一段109號","121.66391","24.98874","6501900","石碇區"
"223007","661-BX","2017/10/06 09:38:35","新北市石碇區南勢坑5號","121.698933333333","24.9809733333333","6501900","石碇區"
"227005","282-VK","2017/10/06 09:29:59","新北市雙溪區泰平里溪尾寮2-2號","121.819356666667","24.9642233333333","6502500","雙溪區"
"237001","159-UY","2017/10/06 09:38:35","新北市樹林區大義路198號","121.377903333333","24.9460166666667","6500900","三峽區"
"236006","498-BY","2017/10/06 09:38:26","新北市土城區忠承路1號","121.442306666667","24.9678933333333","6501300","土城區"
