"lineid","car","time","location","longitude","latitude","cityid","cityname"
"231007","189-VK","2017/10/06 09:58:12","新北市新店區新潭路三段215巷25號","121.508165","24.9040583333333","6500600","新店區"
"231009","192-VK","2017/10/06 09:42:11","新北市新店區平廣路一段256號","121.507873333333","24.8882916666667","6500600","新店區"
"227005","282-VK","2017/10/06 09:58:19","新北市雙溪區泰平里灣潭路36號","121.811448333333","24.9287633333333","6502500","雙溪區"
"237001","159-UY","2017/10/06 09:58:15","新北市樹林區中山路三段214號","121.380535","24.96685","6500900","三峽區"
"236006","498-BY","2017/10/06 09:58:26","新北市土城區城林路6巷80號","121.438371666667","24.9796016666667","6501300","土城區"
