"lineid","car","time","location","longitude","latitude","cityid","cityname"
"234028","847-RS","2017/10/06 11:58:02","新北市永和區福和路1號","121.526678333333","25.00986","6500400","永和區"
"231009","192-VK","2017/10/06 11:58:07","新北市新店區屈尺路216號","121.544621666667","24.9235116666667","6500600","新店區"
"235031","255-BX","2017/10/06 11:58:11","新北市中和區和城路一段271巷1號","121.48546","24.9919533333333","6500300","中和區"
"227005","282-VK","2017/10/06 11:58:18","新北市雙溪區牡丹里中正路39號","121.864755","25.0385116666667","6502500","雙溪區"
"221012","276-VK","2017/10/06 11:58:09","新北市汐止區康寧街901號","121.65105","25.07521","6501100","汐止區"
