"lineid","car","time","location","longitude","latitude","cityid","cityname"
"231030","047-UY","2017/10/06 16:09:44","新北市新店區薏仁坑路6號","121.500403333333","24.95796","6500600","新店區"
"231018","107-UY","2017/10/06 16:09:29","新北市新店區中正路700巷26號","121.535438333333","24.990955","6500600","新店區"
"231035","188-VK","2017/10/06 16:09:44","新北市新店區安康路二段320巷6號","121.504775","24.9599216666667","6500600","新店區"
"231034","268-BY","2017/10/06 16:09:31","新北市新店區富貴街20巷17號","121.493191666667","24.9476516666667","6500600","新店區"
"231046","278-BY","2017/10/06 16:09:24","新北市新店區永業路121號","121.528436666667","24.947795","6500600","新店區"
"241011","013-R5","2017/10/06 16:09:25","新北市三重區正義北路378號","121.493393333333","25.0715933333333","6500200","三重區"
"241028","022-UY","2017/10/06 16:09:37","新北市三重區正義南路107號","121.498273333333","25.05855","6500200","三重區"
"241008","059-VK","2017/10/06 16:09:33","新北市三重區力行路二段29號","121.48184","25.0728216666667","6500200","三重區"
"241015","062-VK","2017/10/06 16:09:47","新北市三重區福德南路86號","121.50252","25.0599216666667","6500200","三重區"
"241017","063-VK","2017/10/06 16:09:35","新北市三重區大同北路148巷38號","121.490906666667","25.0647266666667","6500200","三重區"
"241024","065-VK","2017/10/06 16:09:31","新北市三重區中正北路145巷7弄10號","121.485008333333","25.0676883333333","6500200","三重區"
"241002","090-VK","2017/10/06 16:09:30","新北市三重區仁義街101巷8號","121.498503333333","25.0796883333333","6500200","三重區"
"241003","091-VK","2017/10/06 16:09:42","新北市三重區自強路五段114號","121.496845","25.0836516666667","6500200","三重區"
"241026","156-TC","2017/10/06 16:09:34","新北市三重區福裕街80號","121.496776666667","25.061355","6500200","三重區"
"241005","262-UM","2017/10/06 16:09:30","新北市三重區溪尾街305號","121.487541666667","25.08368","6500200","三重區"
"241016","266-UM","2017/10/06 16:09:32","新北市三重區大仁街1號","121.491598333333","25.0636016666667","6500200","三重區"
"241022","267-UM","2017/10/06 16:09:33","新北市三重區中正北路60-2號","121.48684","25.0645133333333","6500200","三重區"
"241018","268-UM","2017/10/06 16:09:29","新北市三重區大仁街26號","121.491598333333","25.0638066666667","6500200","三重區"
"241013","270-UM","2017/10/06 16:09:46","新北市三重區三和路三段13號","121.496335","25.070745","6500200","三重區"
"241025","271-UM","2017/10/06 16:09:45","新北市三重區忠孝路三段40巷6-2號","121.481805","25.0665783333333","6500200","三重區"
"241007","398-BY","2017/10/06 16:09:31","新北市三重區慈愛街8號","121.484403333333","25.0784466666667","6500200","三重區"
"241020","413-TH","2017/10/06 16:09:37","新北市三重區車路頭街27號","121.483913333333","25.07073","6500200","三重區"
"241030","480-VK","2017/10/06 16:09:30","新北市三重區重新路四段121號","121.484843333333","25.05234","6500200","三重區"
"241014","543-UM","2017/10/06 16:09:29","新北市三重區環河南路86-7號","121.502151666667","25.0590933333333","6500200","三重區"
"241023","545-UM","2017/10/06 16:09:32","新北市三重區力行路一段60號","121.48473","25.0690083333333","6500200","三重區"
"241001","547-UM","2017/10/06 16:09:28","新北市三重區自強路三段15-1號","121.48712","25.0721283333333","6500200","三重區"
"241033","557-UM","2017/10/06 16:09:32","新北市三重區中興南街74-1號","121.471253333333","25.043685","6500200","三重區"
"241012","941-UM","2017/10/06 16:09:39","新北市三重區正義北路133號","121.496925","25.0664433333333","6500200","三重區"
"241029","942-UM","2017/10/06 16:09:26","新北市三重區同安街26-1號","121.496148333333","25.056755","6500200","三重區"
"235064","005-UY","2017/10/06 15:37:01","新北市中和區員山路36巷16-3號","121.485076666667","24.9912366666667","6500300","中和區"
"235026","800-TS","2017/10/06 16:09:45","新北市中和區建八路156號","121.489953333333","24.9985566666667","6500300","中和區"
"247009","339-TH","2017/10/06 15:20:09","新北市五股區中興路三段2巷10號","121.449438333333","25.081085","6501400","蘆洲區"
"224007","273-VK","2017/10/06 16:09:44","新北市瑞芳區大埔路128-3號","121.761985","25.1007516666667","6501200","瑞芳區"
"224005","271-BY","2017/10/06 16:09:38","新北市瑞芳區明燈路二段66號","121.80933","25.1075283333333","6501200","瑞芳區"
"227003","642-TC","2017/10/06 16:09:40","新北市雙溪區上林里內平林47號","121.833311666667","25.0304183333333","6502500","雙溪區"
"227011","400-TW","2017/10/06 16:09:39","新北市雙溪區三港里雙澳路69號","121.881021666667","25.0538433333333","6502500","雙溪區"
"251013","180-VK","2017/10/06 16:09:31","新北市淡水區淡金路二段15號","121.446558333333","25.1889016666667","6501000","淡水區"
"251008","181-VK","2017/10/06 16:09:36","新北市淡水區中正路32巷2號","121.430868333333","25.1752483333333","6501000","淡水區"
"236047","970-R7","2017/10/06 16:09:45","新北市土城區和平路28號","121.443138333333","24.9724383333333","6501300","土城區"
"221012","276-VK","2017/10/06 12:58:55","新北市汐止區汐萬路一段256巷3號","121.653448333333","25.0746166666667","6501100","汐止區"
