"lineid","car","time","location","longitude","latitude","cityid","cityname"
"249002","305-UY","2017/10/06 16:29:43","新北市八里區仁愛路10號","121.413121666667","25.1622033333333","6502300","八里區"
"231046","278-BY","2017/10/06 16:29:44","新北市新店區灣潭路3-2號","121.538273333333","24.950815","6500600","新店區"
"241011","013-R5","2017/10/06 16:29:45","新北市三重區龍濱路168號","121.501083333333","25.0725716666667","6500200","三重區"
"241028","022-UY","2017/10/06 16:29:37","新北市三重區中正南路196號","121.493943333333","25.0559766666667","6500200","三重區"
"241008","059-VK","2017/10/06 16:29:33","新北市三重區永福街122-2號","121.479116666667","25.075325","6500200","三重區"
"241009","060-VK","2017/10/06 16:29:46","新北市三重區三和路四段181巷124號","121.485203333333","25.0799716666667","6500200","三重區"
"241015","062-VK","2017/10/06 16:29:47","新北市三重區福德北路36號","121.501896666667","25.0652116666667","6500200","三重區"
"241017","063-VK","2017/10/06 16:29:41","新北市三重區重新路三段1號","121.49553","25.06186","6500200","三重區"
"241024","065-VK","2017/10/06 16:29:51","新北市三重區中正北路233號","121.476098333333","25.07066","6500200","三重區"
"241002","090-VK","2017/10/06 16:29:50","新北市三重區仁義街101巷2號","121.497781666667","25.0798116666667","6500200","三重區"
"241003","091-VK","2017/10/06 16:29:42","新北市三重區仁義街220巷12號","121.494953333333","25.0839083333333","6500200","三重區"
"241026","156-TC","2017/10/06 16:29:50","新北市三重區文化南路42號","121.5004","25.06041","6500200","三重區"
"241005","262-UM","2017/10/06 16:29:49","新北市三重區溪尾街250號","121.48751","25.0827316666667","6500200","三重區"
"241016","266-UM","2017/10/06 16:29:52","新北市三重區大智街25號","121.494295","25.06592","6500200","三重區"
"241022","267-UM","2017/10/06 16:29:34","新北市三重區新北大道一段86巷17號","121.486025","25.0621783333333","6500200","三重區"
"241018","268-UM","2017/10/06 16:29:51","新北市三重區重陽路四段75號","121.492403333333","25.0707333333333","6500200","三重區"
"241032","269-UM","2017/10/06 16:29:39","新北市三重區三陽路100巷3弄13號","121.483016666667","25.0581883333333","6500200","三重區"
"241013","270-UM","2017/10/06 16:29:46","新北市三重區仁愛街73號","121.496078333333","25.07285","6500200","三重區"
"241025","271-UM","2017/10/06 16:29:45","新北市三重區中正北路560巷100弄2號","121.472436666667","25.0682266666667","6500200","三重區"
"241007","398-BY","2017/10/06 16:29:51","新北市三重區三和路四段167巷182號","121.488006666667","25.08035","6500200","三重區"
"241031","KEA-2210","2017/10/06 16:29:35","新北市三重區重陽路一段51號","121.486803333333","25.0582483333333","6500200","三重區"
"241020","413-TH","2017/10/06 16:29:37","新北市三重區車路頭街49號","121.48404","25.0720833333333","6500200","三重區"
"241004","475-VK","2017/10/06 16:29:38","新北市三重區仁愛街377巷2號","121.49167","25.0804583333333","6500200","三重區"
"241019","478-VK","2017/10/06 16:29:38","新北市三重區重陽路三段93號","121.490128333333","25.067825","6500200","三重區"
"241030","480-VK","2017/10/06 16:29:50","新北市三重區成功路86號","121.488191666667","25.0512333333333","6500200","三重區"
"241014","543-UM","2017/10/06 16:29:48","新北市三重區河邊北街70號","121.504438333333","25.0682833333333","6500200","三重區"
"241023","545-UM","2017/10/06 16:29:52","新北市三重區忠孝路三段50巷96號","121.483268333333","25.0643183333333","6500200","三重區"
"241001","547-UM","2017/10/06 16:29:48","新北市三重區福隆路56號","121.492691666667","25.0785716666667","6500200","三重區"
"241033","557-UM","2017/10/06 16:29:32","新北市三重區重新路五段317巷3弄1號","121.47741","25.0495966666667","6500200","三重區"
"241006","887-TS","2017/10/06 16:29:48","新北市三重區力行路二段131號","121.483341666667","25.07696","6500200","三重區"
"241012","941-UM","2017/10/06 16:29:39","新北市三重區河邊北街383號","121.501733333333","25.0766316666667","6500200","三重區"
"241029","942-UM","2017/10/06 16:29:47","新北市三重區集美街126巷27號","121.49012","25.0537483333333","6500200","三重區"
"235064","005-UY","2017/10/06 15:37:01","新北市中和區員山路36巷16-3號","121.485076666667","24.9912366666667","6500300","中和區"
"235026","800-TS","2017/10/06 16:29:45","新北市中和區連城路265巷1號","121.491401666667","24.9964133333333","6500300","中和區"
"247009","339-TH","2017/10/06 16:29:51","新北市五股區中興路三段2巷10號","121.449285","25.0810783333333","6501400","蘆洲區"
"247006","056-VK","2017/10/06 16:29:45","新北市五股區中興路三段163號","121.44929","25.0805666666667","6501400","蘆洲區"
"224008","275-VK","2017/10/06 16:29:42","新北市瑞芳區民權街3-1號","121.809303333333","25.1083283333333","6501200","瑞芳區"
"224007","273-VK","2017/10/06 16:29:44","新北市瑞芳區瑞竹路130號","121.761675","25.1040133333333","6501200","瑞芳區"
"224005","271-BY","2017/10/06 16:29:29","新北市瑞芳區阿美家園12號","121.82178","25.116345","6501200","瑞芳區"
"227003","642-TC","2017/10/06 16:29:40","新北市雙溪區上林里內平林120-2號","121.82445","25.0262383333333","6502500","雙溪區"
"227011","400-TW","2017/10/06 16:29:39","新北市雙溪區三港里雙澳路37-5號","121.8725","25.0507333333333","6502500","雙溪區"
"251013","180-VK","2017/10/06 16:29:51","新北市淡水區北新路三段171-1號","121.49216","25.1916283333333","6501000","淡水區"
"251008","181-VK","2017/10/06 16:29:36","新北市淡水區民生路47-6號","121.46232","25.13807","6501000","淡水區"
"251015","182-VK","2017/10/06 16:29:35","新北市淡水區原德路25號","121.442236666667","25.1715183333333","6501000","淡水區"
"221012","276-VK","2017/10/06 12:58:55","新北市汐止區汐萬路一段256巷3號","121.653448333333","25.0746166666667","6501100","汐止區"
