"lineid","car","time","location","longitude","latitude","cityid","cityname"
"234007","207-UY","2017/10/06 18:09:38","新北市永和區福和路1號","121.526241666667","25.0097366666667","6500400","永和區"
"234026","9371-KE","2017/10/06 18:09:42","新北市永和區秀朗路一段10巷19號","121.513446666667","25.0061666666667","6500400","永和區"
"234011","9373-KE","2017/10/06 17:50:37","新北市永和區福和路1號","121.52556","25.0093933333333","6500400","永和區"
"249005","172-UM","2017/10/06 18:09:53","新北市八里區荖阡坑路15號","121.401566666667","25.1399433333333","6502300","八里區"
"249001","173-UM","2017/10/06 18:09:57","新北市八里區龍米路二段39號","121.448183333333","25.1400633333333","6502300","八里區"
"249004","303-UY","2017/10/06 18:09:44","新北市八里區龍米路二段166號","121.434938333333","25.1580966666667","6502300","八里區"
"249002","305-UY","2017/10/06 18:09:52","新北市八里區龍形一街3號","121.450721666667","25.1306716666667","6502300","八里區"
"249003","593-UM","2017/10/06 18:09:48","新北市八里區中華路二段165巷19弄6號","121.408925","25.1507783333333","6502300","八里區"
"248014","025-BX","2017/10/06 18:09:57","新北市五股區成泰路一段237-12號","121.436733333333","25.0804083333333","6501500","五股區"
"248006","077-UY","2017/10/06 18:09:43","新北市五股區中興路二段82號","121.460761666667","25.0772833333333","6501500","五股區"
"248008","095-VK","2017/10/06 18:09:51","新北市蘆洲區永安南路二段356號","121.456051666667","25.0826033333333","6501500","五股區"
"248018","225-UY","2017/10/06 18:09:47","新北市五股區新五路二段258號","121.44095","25.0821983333333","6501500","五股區"
"248010","272-BY","2017/10/06 18:09:40","新北市五股區成泰路一段231-11號","121.435406666667","25.0776383333333","6501500","五股區"
"248004","677-BX","2017/10/06 18:09:49","新北市五股區中興路三段198號","121.441233333333","25.082065","6501500","五股區"
"248002","678-BX","2017/10/06 18:09:47","新北市五股區中興路三段198號","121.441456666667","25.08199","6501500","五股區"
"232011","375-UM","2017/10/06 18:09:53","新北市坪林區坪雙路一段43號","121.711763333333","24.9424483333333","6502000","坪林區"
"244013","069-UM","2017/10/06 18:09:41","新北市林口區中山路148-1號","121.391215","25.078735","6501700","林口區"
"244007","080-UY","2017/10/06 18:09:52","新北市林口區林口路143號","121.388468333333","25.0814216666667","6501700","林口區"
"244019","403-UM","2017/10/06 18:09:53","新北市林口區忠孝路552巷15號","121.374103333333","25.0672666666667","6501700","林口區"
"244009","410-SL","2017/10/06 18:09:42","新北市林口區竹林路614號","121.386505","25.082495","6501700","林口區"
"244023","483-VK","2017/10/06 18:09:58","新北市林口區東湖路105巷27號","121.384121666667","25.0720566666667","6501700","林口區"
"244017","485-VK","2017/10/06 18:09:52","新北市林口區忠孝路506號","121.370735","25.0699916666667","6501700","林口區"
"244011","656-BX","2017/10/06 18:09:55","新北市林口區中正路89號","121.394583333333","25.07735","6501700","林口區"
"244025","837-TS","2017/10/06 18:09:47","新北市林口區惠民街41號","121.356886666667","25.0669616666667","6501700","林口區"
"244021","838-TS","2017/10/06 18:09:52","新北市林口區自強五街23號","121.40022","25.0757783333333","6501700","林口區"
"243013","AAD-798","2017/10/06 18:09:28","新北市泰山區犁頭窠16-1號","121.420943333333","25.053185","6501600","泰山區"
"222003","436-BY","2017/10/06 18:09:46","新北市深坑區阿柔洋49-3號","121.611673333333","24.9972833333333","6501800","深坑區"
"222001","628-TS","2017/10/06 18:09:48","新北市深坑區北深路二段186號","121.61408","25.00221","6501800","深坑區"
"222002","659-BX","2017/10/06 18:09:58","新北市深坑區文化街37號","121.619015","25.0014733333333","6501800","深坑區"
"231059","046-UY","2017/10/06 18:09:40","新北市新店區安華路28-1號","121.519533333333","24.9608033333333","6500600","新店區"
"231061","047-UY","2017/10/06 18:09:42","新北市新店區安華路28-1號","121.519261666667","24.9610066666667","6500600","新店區"
"231060","106-UY","2017/10/06 18:09:55","新北市新店區安華路28-1號","121.519613333333","24.960825","6500600","新店區"
"231053","187-VK","2017/10/06 18:09:40","新北市新店區安華路28-1號","121.519553333333","24.9611266666667","6500600","新店區"
"231063","268-BY","2017/10/06 18:09:43","新北市新店區安華路28-1號","121.51943","24.9605383333333","6500600","新店區"
"231046","278-BY","2017/10/06 18:09:44","新北市新店區直潭七街60號","121.532286666667","24.939925","6500600","新店區"
"231058","3712-VJ","2017/10/06 18:09:38","新北市新店區安華路28-1號","121.519293333333","24.9605766666667","6500600","新店區"
"231055","3713-VJ","2017/10/06 18:09:38","新北市新店區安華路28-1號","121.519221666667","24.9606733333333","6500600","新店區"
"231065","512-UM","2017/10/06 15:58:15","新北市新店區安華路28-1號","121.519253333333","24.9612166666667","6500600","新店區"
"231040","619-UM","2017/10/06 18:09:49","新北市新店區安華路28-1號","121.519401666667","24.9608933333333","6500600","新店區"
"231042","641-BX","2017/10/06 18:09:58","新北市新店區安華路1-1號","121.51946","24.960455","6500600","新店區"
"231049","719-UM","2017/10/06 16:23:16","新北市新店區安華路28-1號","121.519488333333","24.96125","6500600","新店區"
"231033","720-UM","2017/10/06 18:09:43","新北市新店區安華路28-1號","121.51924","24.961285","6500600","新店區"
"231044","897-TW","2017/10/06 18:09:52","新北市新店區安華路28-1號","121.519606666667","24.9607183333333","6500600","新店區"
"241024","065-VK","2017/10/06 18:09:51","新北市三重區中正北路193巷37號","121.475943333333","25.07082","6500200","三重區"
"241033","557-UM","2017/10/06 18:09:52","新北市三重區中興北街52-2號","121.468838333333","25.0505083333333","6500200","三重區"
"241012","941-UM","2017/10/06 18:09:38","新北市三重區龍濱路196號","121.500876666667","25.073445","6500200","三重區"
"235064","005-UY","2017/10/06 18:09:45","新北市中和區中正路637巷52弄1號","121.48545","24.9935033333333","6500300","中和區"
"235065","098-UM","2017/10/06 18:09:43","新北市中和區橋和路60號","121.489521666667","25.0052066666667","6500300","中和區"
"235058","151-BY","2017/10/06 18:09:46","新北市中和區圓通路367巷33弄59號","121.495588333333","24.9861433333333","6500300","中和區"
"235055","183-VK","2017/10/06 18:09:55","新北市中和區員山路36巷16-3號","121.485071666667","24.9913833333333","6500300","中和區"
"235038","185-VK","2017/10/06 18:09:49","新北市中和區景平路265號","121.508213333333","24.9929716666667","6500300","中和區"
"235067","255-BX","2017/10/06 18:09:46","新北市中和區員山路36巷16-2號","121.48534","24.9918133333333","6500300","中和區"
"235072","301-VK","2017/10/06 18:09:38","新北市中和區員山路36巷13號","121.484258333333","24.9907","6500300","中和區"
"235043","352-BY","2017/10/06 18:09:56","新北市中和區中正路589巷15號","121.48571","24.9935616666667","6500300","中和區"
"235068","375-QA","2017/10/06 18:09:47","新北市中和區員山路36巷16-3號","121.485111666667","24.99139","6500300","中和區"
"235051","376-QA","2017/10/06 18:09:58","新北市中和區錦和路350-1號","121.490638333333","24.99359","6500300","中和區"
"235061","378-QA","2017/10/06 18:09:54","新北市中和區連城路523巷13弄2號","121.481641666667","24.993655","6500300","中和區"
"235050","4979-A6","2017/10/06 18:09:43","新北市中和區錦和路350-1號","121.490105","24.9935466666667","6500300","中和區"
"235069","4980-A6","2017/10/06 18:09:52","新北市中和區景平路632-8號","121.499763333333","24.9985216666667","6500300","中和區"
"235042","551-UM","2017/10/06 18:09:43","新北市中和區景平路263-1號","121.508305","24.9929716666667","6500300","中和區"
"235070","558-UM","2017/10/06 18:02:37","新北市中和區和城路一段271巷1號","121.48571","24.9921183333333","6500300","中和區"
"235045","565-BX","2017/10/06 18:09:45","新北市中和區中正路589巷15號","121.48561","24.99352","6500300","中和區"
"235054","640-BX","2017/10/06 18:09:49","新北市中和區連城路569巷9弄22號","121.479905","24.9935883333333","6500300","中和區"
"235046","733-UM","2017/10/06 18:09:53","新北市中和區員山路36巷13號","121.484155","24.9908716666667","6500300","中和區"
"235062","800-TS","2017/10/06 18:09:39","新北市中和區橋和路81號","121.489428333333","25.0052266666667","6500300","中和區"
"235057","801-TS","2017/10/06 18:09:56","新北市中和區員山路36巷16-3號","121.485143333333","24.9914666666667","6500300","中和區"
"235052","805-TS","2017/10/06 18:09:39","新北市中和區錦和路350-1號","121.490296666667","24.9935683333333","6500300","中和區"
"235037","AAC-213","2017/10/06 18:09:53","新北市中和區中正路173號","121.497741666667","24.9936","6500300","中和區"
"235059","AAC-215","2017/10/06 18:09:28","新北市中和區員山路36巷16-3號","121.485116666667","24.9913666666667","6500300","中和區"
"247008","053-VK","2017/10/06 18:09:43","新北市八里區商港路88-1號","121.39362","25.1489266666667","6501400","蘆洲區"
"226004","205-ST","2017/10/06 18:09:52","新北市平溪區菁桐里菁桐街165號","121.722956666667","25.0231516666667","6502400","平溪區"
"228002","663-BX","2017/10/06 18:09:52","新北市貢寮區福連里馬崗街1號","121.99599","25.0161733333333","6502600","貢寮區"
"228001","670-TC","2017/10/06 18:09:55","新北市貢寮區真理里新港街26巷44號","121.927375","25.05293","6502600","貢寮區"
"228003","828-UM","2017/10/06 18:09:40","新北市貢寮區真理里美艷山街6-2號","121.928905","25.0607","6502600","貢寮區"
"224006","676-BX","2017/10/06 18:09:50","新北市瑞芳區三爪子坑路32巷94號","121.809223333333","25.1067","6501200","瑞芳區"
"224002","639-TC","2017/10/06 18:09:41","新北市瑞芳區三爪子坑路64-22號","121.809366666667","25.10542","6501200","瑞芳區"
"224009","285-BY","2017/10/06 18:09:47","新北市瑞芳區金光路117號","121.853416666667","25.1061416666667","6501200","瑞芳區"
"224008","275-VK","2017/10/06 18:09:42","新北市瑞芳區明燈路二段56號","121.809951666667","25.107615","6501200","瑞芳區"
"224007","273-VK","2017/10/06 18:09:43","新北市瑞芳區四腳亭坑路2-3號","121.776361666667","25.1091633333333","6501200","瑞芳區"
"224005","271-BY","2017/10/06 18:09:58","新北市瑞芳區深澳路1號","121.816473333333","25.1286","6501200","瑞芳區"
"227003","642-TC","2017/10/06 18:09:40","新北市雙溪區雙溪里大同街19號","121.864448333333","25.0351883333333","6502500","雙溪區"
"253005","032-BX","2017/10/06 18:09:53","新北市石門區福安街27號","121.568788333333","25.2924133333333","6502200","石門區"
"253006","295-VK","2017/10/06 18:09:52","新北市石門區老梅路52巷21號","121.546423333333","25.2885983333333","6502200","石門區"
"208002","742-BX","2017/10/06 18:09:46","新北市金山區三界壇路111巷26號","121.618246666667","25.231675","6502700","金山區"
"208001","761-BX","2017/10/06 18:09:50","新北市金山區磺港里磺港路61號","121.647576666667","25.2274033333333","6502700","金山區"
"251004","009-UM","2017/10/06 18:09:41","新北市淡水區民族路110巷36弄8號","121.461611666667","25.1354383333333","6501000","淡水區"
"251002","012-UM","2017/10/06 18:09:39","新北市淡水區中正東路一段50號","121.452693333333","25.1620166666667","6501000","淡水區"
"251013","180-VK","2017/10/06 18:09:51","新北市淡水區竹圍子12號","121.476406666667","25.1937516666667","6501000","淡水區"
"251008","181-VK","2017/10/06 18:09:56","新北市淡水區中正東路二段7號","121.45837","25.15898","6501000","淡水區"
"251015","182-VK","2017/10/06 17:56:55","新北市淡水區興福寮1-6號","121.488095","25.1640283333333","6501000","淡水區"
"251010","413-VK","2017/10/06 18:09:53","新北市淡水區中正路二段52號","121.419826666667","25.1835233333333","6501000","淡水區"
"251012","441-VK","2017/10/06 18:09:41","新北市淡水區北新路三段171號","121.491348333333","25.1913666666667","6501000","淡水區"
"251005","443-VK","2017/10/06 18:09:53","新北市淡水區水源街一段120號","121.447221666667","25.171785","6501000","淡水區"
"251001","559-UM","2017/10/06 18:09:53","新北市淡水區自立路10號","121.463096666667","25.12961","6501000","淡水區"
"251006","561-UM","2017/10/06 18:09:37","新北市淡水區新民街76巷2號","121.438835","25.17644","6501000","淡水區"
"251009","575-R6","2017/10/06 18:09:21","新北市淡水區大忠街43號","121.444475","25.1763516666667","6501000","淡水區"
"251011","650-BX","2017/10/06 18:09:52","新北市淡水區三空泉9-2號","121.474143333333","25.1635816666667","6501000","淡水區"
"251003","673-BX","2017/10/06 18:09:58","新北市淡水區北新路182巷16號","121.449123333333","25.178205","6501000","淡水區"
"207003","550-UM","2017/10/06 18:09:35","新北市萬里區野柳里港西路76號","121.685728333333","25.2051183333333","6502800","萬里區"
"207004","225-TW","2017/10/06 18:09:51","新北市萬里區中幅里中福路149號","121.675071666667","25.16678","6502800","萬里區"
"252002","178-VK","2017/10/06 18:09:47","新北市三芝區中山路二段32號","121.50293","25.2552983333333","6502100","三芝區"
"252003","249-BX","2017/10/06 18:09:42","新北市三芝區埔頭里埔頭37號","121.49844","25.2603016666667","6502100","三芝區"
"252001","292-VK","2017/10/06 18:09:40","新北市三芝區中興街二段2號","121.498368333333","25.256665","6502100","三芝區"
"208003","170-UY","2017/10/06 18:09:43","新北市金山區磺港里磺港路171-1號","121.643725","25.2236","6502700","金山區"
"237004","078-UY","2017/10/06 18:09:42","新北市三峽區圳頭51號","121.378293333333","24.8831416666667","6500900","三峽區"
"237007","153-BY","2017/10/06 18:09:41","新北市三峽區中正路二段370巷36號","121.364631666667","24.9110983333333","6500900","三峽區"
"237009","210-TH","2017/10/06 18:09:50","新北市三峽區大仁路50巷22號","121.365296666667","24.9382716666667","6500900","三峽區"
"237013","252-BX","2017/10/06 18:09:44","新北市三峽區長泰街53號","121.3774","24.93271","6500900","三峽區"
"237012","275-BY","2017/10/06 18:09:37","新北市三峽區民生街19巷7弄18號","121.37716","24.9355766666667","6500900","三峽區"
"237008","302-VK","2017/10/06 18:09:36","新北市三峽區白雞42號","121.378956666667","24.9108533333333","6500900","三峽區"
"237014","433-BY","2017/10/06 18:09:47","新北市三峽區國光街73號","121.373981666667","24.938235","6500900","三峽區"
"237006","5529-G3","2017/10/06 18:09:45","新北市三峽區溪東路34巷13號","121.400456666667","24.93462","6500900","三峽區"
"237011","572-TV","2017/10/06 18:03:35","新北市三峽區橫溪路1號","121.396055","24.9361733333333","6500900","三峽區"
"237015","649-BX","2017/10/06 18:09:51","新北市三峽區紫新路36巷1號","121.422061666667","24.9223533333333","6500900","三峽區"
"237010","706-TV","2017/10/06 18:09:50","新北市三峽區民族街126號","121.36935","24.9288383333333","6500900","三峽區"
"237005","AKY-6261","2017/10/06 18:09:46","新北市三峽區文化路65巷7號","121.371935","24.9355016666667","6500900","三峽區"
"236072","105-UM","2017/10/06 18:09:40","新北市土城區明德路一段385-1號","121.452353333333","24.9802333333333","6501300","土城區"
"236043","107-UM","2017/10/06 18:09:46","新北市土城區裕生路61號","121.447611666667","24.98604","6501300","土城區"
"236079","166-UM","2017/10/06 18:09:54","新北市土城區永寧路41號","121.430093333333","24.961905","6501300","土城區"
"236031","253-BX","2017/10/06 18:09:39","新北市土城區城林路6巷80號","121.438526666667","24.97962","6501300","土城區"
"236027","269-VK","2017/10/06 18:09:44","新北市土城區承天路65號","121.439623333333","24.9636933333333","6501300","土城區"
"236015","270-VK","2017/10/06 18:09:37","新北市土城區明德路二段135-1號","121.449163333333","24.9825233333333","6501300","土城區"
"236039","271-VK","2017/10/06 18:09:55","新北市土城區明德路一段325號","121.458781666667","24.977055","6501300","土城區"
"236022","401-BY","2017/10/06 18:09:42","新北市土城區城林路6巷80號","121.438755","24.979725","6501300","土城區"
"236059","912-UM","2017/10/06 18:09:46","新北市土城區中央路四段22號","121.420965","24.9609833333333","6501300","土城區"
"236050","913-UM","2017/10/06 18:09:54","新北市土城區學士路123號","121.446536666667","24.9758783333333","6501300","土城區"
"236063","915-UM","2017/10/06 18:09:40","新北市土城區學士路123號","121.446471666667","24.975855","6501300","土城區"
"236055","AAC-216","2017/10/06 18:09:35","新北市土城區城林路6巷80號","121.438538333333","24.9797266666667","6501300","土城區"
"242032","AAC-296","2017/10/06 18:09:53","新北市新莊區新泰路305巷31號","121.443966666667","25.040665","6500500","新莊區"
"242029","986-R7","2017/10/06 18:09:42","新北市新莊區中平路63號","121.444658333333","25.0446183333333","6500500","新莊區"
"242050","751-BX","2017/10/06 18:09:36","新北市新莊區民本街11巷2弄27號","121.429121666667","25.020095","6500500","新莊區"
"242060","705-TV","2017/10/06 18:09:36","新北市新莊區新樹路208號","121.43395","25.020535","6500500","新莊區"
"242025","615-BX","2017/10/06 18:09:54","新北市新莊區五權一路100號","121.45953","25.0676333333333","6500500","新莊區"
"242023","613-BX","2017/10/06 18:09:44","新北市新莊區幸福路829號","121.444963333333","25.0489683333333","6500500","新莊區"
"242027","612-BX","2017/10/06 18:09:42","新北市新莊區幸福路83-1號","121.456476666667","25.0492966666667","6500500","新莊區"
"242039","566-BX","2017/10/06 18:09:45","新北市新莊區民安西路38巷6號","121.42695","25.0209066666667","6500500","新莊區"
"242044","497-BY","2017/10/06 18:09:41","新北市新莊區天泉二街1號","121.415316666667","25.0246516666667","6500500","新莊區"
"242005","442-UM","2017/10/06 18:09:52","新北市新莊區自立街78號","121.454431666667","25.045335","6500500","新莊區"
"242048","441-UM","2017/10/06 18:09:43","新北市新莊區富國路154號","121.423231666667","25.02493","6500500","新莊區"
"242054","440-UM","2017/10/06 18:09:44","新北市新莊區民安西路354號","121.427276666667","25.0111666666667","6500500","新莊區"
"242034","413-TV","2017/10/06 18:09:48","新北市新莊區福海街24巷11號","121.445998333333","25.0342083333333","6500500","新莊區"
"242041","400-BY","2017/10/06 18:09:43","新北市新莊區天祥街135巷11號","121.413756666667","25.0294","6500500","新莊區"
"242058","353-BY","2017/10/06 18:09:36","新北市新莊區中山路三段510-1號","121.412495","25.0293683333333","6500500","新莊區"
"242007","132-UY","2017/10/06 18:09:51","新北市新莊區自立街79巷5號","121.454375","25.0456966666667","6500500","新莊區"
"242037","133-UY","2017/10/06 18:09:50","新北市新莊區福營路238號","121.426731666667","25.0290933333333","6500500","新莊區"
"242021","135-UY","2017/10/06 18:09:39","新北市新莊區新興街112號","121.450613333333","25.03921","6500500","新莊區"
"242046","172-VK","2017/10/06 18:09:50","新北市新莊區福營路227巷27號","121.430243333333","25.0292016666667","6500500","新莊區"
"242009","173-VK","2017/10/06 18:09:53","新北市新莊區昌平街41巷25號","121.454016666667","25.0522316666667","6500500","新莊區"
"242015","175-VK","2017/10/06 18:09:45","新北市新莊區中平路152巷45號","121.446686666667","25.0475383333333","6500500","新莊區"
"242002","176-VK","2017/10/06 18:09:50","新北市新莊區新莊路2號","121.459376666667","25.03793","6500500","新莊區"
"242019","348-TH","2017/10/06 18:09:56","新北市新莊區公園路129-11號","121.457636666667","25.0408983333333","6500500","新莊區"
"242056","349-TH","2017/10/06 18:09:52","新北市新莊區豐年街豐2巷37號","121.447806666667","25.0310516666667","6500500","新莊區"
"242017","350-TH","2017/10/06 18:09:55","新北市新莊區中華路一段230號","121.452573333333","25.0432233333333","6500500","新莊區"
"238015","755-BX","2017/10/06 18:09:38","新北市樹林區大安路409號","121.415536666667","24.9888816666667","6500700","樹林區"
"238023","601-UM","2017/10/06 18:09:40","新北市樹林區龍興街46巷23號","121.40206","25.0151533333333","6500700","樹林區"
"238019","599-UM","2017/10/06 18:09:53","新北市樹林區忠孝街101巷35號","121.425075","24.981235","6500700","樹林區"
"238021","KEA-2217","2017/10/06 18:09:53","新北市樹林區柑園街一段57號","121.402793333333","24.960355","6500700","樹林區"
"238022","KEA-2213","2017/10/06 18:09:45","新北市樹林區太平路96號","121.418593333333","24.97935","6500700","樹林區"
"238018","308-TH","2017/10/06 18:09:51","新北市樹林區中正路7-1號","121.430228333333","24.9976333333333","6500700","樹林區"
"238025","303-VK","2017/10/06 18:09:56","新北市樹林區保安街二段61號","121.41606","25.0005066666667","6500700","樹林區"
"238017","283-BY","2017/10/06 18:09:52","新北市樹林區中正路548號","121.411383333333","25.014375","6500700","樹林區"
"238014","282-BY","2017/10/06 18:09:42","新北市樹林區中正路45巷2號","121.426785","24.99943","6500700","樹林區"
"238020","268-VK","2017/10/06 18:09:51","新北市樹林區三俊街175號","121.419581666667","25.0156133333333","6500700","樹林區"
"238026","172-UY","2017/10/06 18:09:38","新北市樹林區佳園路一段50號","121.392928333333","24.9706883333333","6500700","樹林區"
"238016","169-UY","2017/10/06 18:09:55","新北市樹林區日新街168號","121.419993333333","24.98838","6500700","樹林區"
"239007","AAC-297","2017/10/06 18:09:48","新北市鶯歌區育英街53號","121.347093333333","24.95273","6500800","鶯歌區"
"239006","891-R6","2017/10/06 18:09:46","新北市鶯歌區鶯桃路365巷120號","121.330313333333","24.9622866666667","6500800","鶯歌區"
"239008","527-UM","2017/10/06 18:09:42","新北市鶯歌區朝陽街53巷17號","121.3382","24.9779233333333","6500800","鶯歌區"
"239005","526-UM","2017/10/06 18:09:56","新北市鶯歌區鶯桃路668巷61號","121.329488333333","24.9711633333333","6500800","鶯歌區"
"239001","417-VK","2017/10/06 18:09:46","新北市鶯歌區中正三路福德巷2弄26號","121.33919","24.9410016666667","6500800","鶯歌區"
"239003","360-BY","2017/10/06 18:09:38","新北市鶯歌區福安街13巷1號","121.335643333333","24.9652916666667","6500800","鶯歌區"
"239002","359-BY","2017/10/06 18:09:39","新北市鶯歌區國慶街110號","121.350458333333","24.9542683333333","6500800","鶯歌區"
"239004","193-VK","2017/10/06 18:09:38","新北市鶯歌區尖山路168巷9號","121.344931666667","24.9483883333333","6500800","鶯歌區"
"221008","489-VK","2017/10/06 18:09:42","新北市汐止區康寧街315號","121.626923333333","25.0678616666667","6501100","汐止區"
"221015","131-UY","2017/10/06 18:09:53","新北市汐止區鄉長路二段63號","121.667075","25.0837566666667","6501100","汐止區"
"221010","269-BY","2017/10/06 18:09:48","新北市汐止區汐萬路二段275巷3弄1號","121.6452","25.0887766666667","6501100","汐止區"
"221012","276-VK","2017/10/06 12:58:55","新北市汐止區汐萬路一段256巷3號","121.653448333333","25.0746166666667","6501100","汐止區"
"221012","278-VK","2017/10/06 18:09:39","新北市汐止區保長路37巷27號","121.674141666667","25.0799166666667","6501100","汐止區"
"221023","279-VK","2017/10/06 18:09:47","新北市汐止區中興路293號","121.62794","25.0700833333333","6501100","汐止區"
"221032","280-BY","2017/10/06 18:09:53","新北市汐止區橫科路10號","121.617778333333","25.051225","6501100","汐止區"
"221027","281-BY","2017/10/06 18:09:46","新北市汐止區大同路二段595號","121.6636","25.0706183333333","6501100","汐止區"
"221029","298-VK","2017/10/06 18:09:46","新北市汐止區樟樹二路134號","121.639906666667","25.0656616666667","6501100","汐止區"
"221021","299-VK","2017/10/06 18:09:43","新北市汐止區龍安路15號","121.655633333333","25.0640616666667","6501100","汐止區"
"221031","353-TW","2017/10/06 18:09:44","新北市汐止區中興路181巷24弄14號","121.62922","25.0666966666667","6501100","汐止區"
"221035","622-UM","2017/10/06 18:09:43","新北市汐止區大同路二段207號","121.652666666667","25.06455","6501100","汐止區"
"221025","623-UM","2017/10/06 18:09:51","新北市汐止區勤進路8號","121.659728333333","25.06162","6501100","汐止區"
"221038","646-BX","2017/10/06 18:09:55","新北市汐止區水源路一段242號","121.654168333333","25.0602316666667","6501100","汐止區"
"221033","647-BX","2017/10/06 18:09:44","新北市汐止區林森街9號","121.62129","25.0407466666667","6501100","汐止區"
"221002","707-TV","2017/10/06 18:09:53","新北市汐止區福德一路231號","121.634175","25.0649616666667","6501100","汐止區"
"221018","753-BX","2017/10/06 18:09:51","新北市汐止區茄苳路53號","121.666203333333","25.0708866666667","6501100","汐止區"
"242011","280-VK","2017/10/06 18:09:40","新北市新莊區中信街76號","121.447963333333","25.05295","6500500","新莊區"
