"lineid","car","time","location","longitude","latitude","cityid","cityname"
"234046","148-BY","2017/10/06 18:39:48","新北市永和區林森路46巷1號","121.524913333333","25.004765","6500400","永和區"
"234013","149-BY","2017/10/06 18:34:16","新北市永和區福和路1號","121.526565","25.0100383333333","6500400","永和區"
"234007","207-UY","2017/10/06 18:39:38","新北市永和區文化路164號","121.512183333333","25.0153883333333","6500400","永和區"
"234081","298-R6","2017/10/06 18:39:42","新北市永和區林森路66號","121.523878333333","25.0040016666667","6500400","永和區"
"234086","338-UY","2017/10/06 18:39:40","新北市中和區安平路164號","121.51267","24.9987066666667","6500400","永和區"
"234054","553-UM","2017/10/06 18:39:45","新北市永和區福和路1號","121.525923333333","25.009645","6500400","永和區"
"234017","745-BX","2017/10/06 18:39:43","新北市永和區福和路1號","121.526406666667","25.0097883333333","6500400","永和區"
"234061","AAD-866","2017/10/06 18:39:40","新北市永和區福和路1號","121.526121666667","25.0097366666667","6500400","永和區"
"234042","862-TW","2017/10/06 18:39:40","新北市永和區福和路372號","121.514345","25.0076483333333","6500400","永和區"
"234050","863-TW","2017/10/06 18:39:45","新北市永和區保安路2號","121.510866666667","25.0174816666667","6500400","永和區"
"234026","9371-KE","2017/10/06 18:39:42","新北市永和區永貞路408號","121.509065","25.0077083333333","6500400","永和區"
"234011","9373-KE","2017/10/06 18:39:41","新北市永和區文化路9巷22弄16號","121.514858333333","25.014595","6500400","永和區"
"249005","172-UM","2017/10/06 18:39:53","新北市八里區中華路三段226號","121.38863","25.1249033333333","6502300","八里區"
"249001","173-UM","2017/10/06 18:39:37","新北市八里區龍米路一段360號","121.451543333333","25.1313433333333","6502300","八里區"
"249004","303-UY","2017/10/06 18:39:44","新北市八里區忠四街3號","121.42478","25.159455","6502300","八里區"
"248014","025-BX","2017/10/06 18:39:36","新北市五股區成泰路一段137號","121.435485","25.0729166666667","6501500","五股區"
"248016","026-BX","2017/10/06 18:39:31","新北市五股區凌雲路一段149巷42號","121.44861","25.1008966666667","6501500","五股區"
"248008","095-VK","2017/10/06 18:39:31","新北市五股區中興路一段149號","121.465138333333","25.0735433333333","6501500","五股區"
"248018","225-UY","2017/10/06 18:39:47","新北市五股區民義路二段52-22號","121.409411666667","25.1053166666667","6501500","五股區"
"248010","272-BY","2017/10/06 18:39:40","新北市五股區水碓一路18號","121.432341666667","25.0728983333333","6501500","五股區"
"248004","677-BX","2017/10/06 18:39:49","新北市五股區六合街19號","121.431165","25.0885933333333","6501500","五股區"
"248002","678-BX","2017/10/06 18:39:47","新北市五股區西雲路218號","121.448118333333","25.0961066666667","6501500","五股區"
"234023","9380-KE","2017/10/06 18:39:35","新北市永和區福和路76巷5弄14號","121.522325","25.0083533333333","6500400","永和區"
"234077","969-R7","2017/10/06 18:39:30","新北市永和區中正路70號","121.51357","24.99504","6500400","永和區"
"234074","AAC-211","2017/10/06 18:39:45","新北市永和區福和路1號","121.526495","25.0098666666667","6500400","永和區"
"234003","AAC-295","2017/10/06 18:39:47","新北市永和區福和路1號","121.526505","25.00998","6500400","永和區"
"232011","375-UM","2017/10/06 18:13:44","新北市坪林區坪雙路一段43號","121.711763333333","24.942495","6502000","坪林區"
"244013","069-UM","2017/10/06 18:39:40","新北市林口區中正路453號","121.384315","25.0777383333333","6501700","林口區"
"244007","080-UY","2017/10/06 18:39:52","新北市林口區太平里10-1號","121.379033333333","25.11418","6501700","林口區"
"244019","403-UM","2017/10/06 18:39:33","新北市林口區忠孝路561巷2號","121.373131666667","25.068675","6501700","林口區"
"244009","410-SL","2017/10/06 18:39:42","新北市林口區竹林路278巷2號","121.39045","25.081685","6501700","林口區"
"244023","483-VK","2017/10/06 18:39:38","新北市林口區四維路156-2號","121.381083333333","25.07563","6501700","林口區"
"244017","485-VK","2017/10/06 18:39:32","新北市林口區文化二路一段160號","121.36845","25.071685","6501700","林口區"
"244011","656-BX","2017/10/06 18:39:35","新北市林口區中正路57巷12弄4號","121.39495","25.0766683333333","6501700","林口區"
"244025","837-TS","2017/10/06 18:39:47","新北市林口區南勢街280號","121.357526666667","25.0764166666667","6501700","林口區"
"244021","838-TS","2017/10/06 18:26:12","新北市林口區自強四街18號","121.399355","25.0765383333333","6501700","林口區"
"243013","AAD-798","2017/10/06 18:39:48","新北市泰山區明志路三段206巷3號","121.423293333333","25.03791","6501600","泰山區"
"243012","646-TV","2017/10/06 18:39:38","新北市泰山區福興三街13號","121.434406666667","25.0577716666667","6501600","泰山區"
"243016","680-BX","2017/10/06 18:39:37","新北市泰山區明志路一段195號","121.432738333333","25.06158","6501600","泰山區"
"222003","436-BY","2017/10/06 18:39:45","新北市深坑區翠谷街21巷1號","121.627023333333","25.00827","6501800","深坑區"
"222001","628-TS","2017/10/06 18:39:48","新北市深坑區北深路一段84號","121.636253333333","25.01064","6501800","深坑區"
"222002","659-BX","2017/10/06 18:39:38","新北市深坑區文山路一段62巷7號","121.622768333333","25.0008833333333","6501800","深坑區"
"231041","002-UM","2017/10/06 18:39:32","新北市新店區安華路28-1號","121.519616666667","24.9608883333333","6500600","新店區"
"231059","046-UY","2017/10/06 18:39:40","新北市新店區安華路28-1號","121.51948","24.960865","6500600","新店區"
"231061","047-UY","2017/10/06 18:39:42","新北市新店區安華路28-1號","121.519305","24.961035","6500600","新店區"
"231060","106-UY","2017/10/06 18:39:35","新北市新店區安華路28-1號","121.519605","24.96079","6500600","新店區"
"231051","107-UY","2017/10/06 18:39:48","新北市新店區安康路一段155-1號","121.527488333333","24.9622616666667","6500600","新店區"
"231053","187-VK","2017/10/06 18:39:40","新北市新店區永興路34號","121.543571666667","24.9388283333333","6500600","新店區"
"231064","188-VK","2017/10/06 18:39:36","新北市新店區安華路28-1號","121.519325","24.9612416666667","6500600","新店區"
"231050","215-TC","2017/10/06 18:39:47","新北市新店區安華路28-1號","121.51976","24.9612016666667","6500600","新店區"
"231057","256-BX","2017/10/06 18:39:34","新北市新店區永興路21號","121.544211666667","24.9387566666667","6500600","新店區"
"231063","268-BY","2017/10/06 18:39:43","新北市新店區安華路1-1號","121.519343333333","24.960535","6500600","新店區"
"231046","278-BY","2017/10/06 18:39:44","新北市新店區直潭二街1號","121.535565","24.9432216666667","6500600","新店區"
"231054","AAD-862","2017/10/06 18:39:33","新北市新店區安華路28-1號","121.519866666667","24.9612183333333","6500600","新店區"
"231058","3712-VJ","2017/10/06 18:39:38","新北市新店區新店後街24號","121.537931666667","24.953285","6500600","新店區"
"231055","3713-VJ","2017/10/06 18:39:38","新北市新店區華興街17號","121.537711666667","24.9694033333333","6500600","新店區"
"231056","4716-K9","2017/10/06 18:39:47","新北市新店區自立街62號","121.537811666667","24.9794383333333","6500600","新店區"
"231067","4772-VM","2017/10/06 18:39:41","新北市新店區安華路3號","121.519041666667","24.960475","6500600","新店區"
"231065","512-UM","2017/10/06 18:39:29","新北市新店區安康路一段355-3號","121.519603333333","24.9618166666667","6500600","新店區"
"231048","513-UM","2017/10/06 18:39:47","新北市新店區安康路一段223號","121.525706666667","24.9630633333333","6500600","新店區"
"231045","617-UM","2017/10/06 18:39:39","新北市新店區安華路28-1號","121.519331666667","24.96084","6500600","新店區"
"231040","619-UM","2017/10/06 18:39:49","新北市新店區安華路28-1號","121.519501666667","24.9608316666667","6500600","新店區"
"231042","641-BX","2017/10/06 18:39:38","新北市新店區環河路1-1號","121.537798333333","24.96153","6500600","新店區"
"231049","719-UM","2017/10/06 18:39:36","新北市新店區安康路一段77號","121.52999","24.9611866666667","6500600","新店區"
"231062","720-UM","2017/10/06 18:39:43","新北市新店區安康路一段355-3號","121.519038333333","24.961485","6500600","新店區"
"231044","897-TW","2017/10/06 18:39:52","新北市新店區光明街181號","121.539685","24.9630483333333","6500600","新店區"
"231043","899-TW","2017/10/06 18:35:53","新北市新店區安康路一段319號","121.522173333333","24.9636966666667","6500600","新店區"
"231066","AKT-0513","2017/10/06 18:39:35","新北市新店區安華路28-1號","121.519548333333","24.9605316666667","6500600","新店區"
"241012","941-UM","2017/10/06 18:39:38","新北市三重區龍濱路287號","121.500885","25.0735066666667","6500200","三重區"
"235066","003-UY","2017/10/06 18:39:36","新北市中和區水源路33號","121.504285","25.0035716666667","6500300","中和區"
"235064","005-UY","2017/10/06 18:39:45","新北市中和區圓通路122號","121.498806666667","24.99584","6500300","中和區"
"235063","006-UY","2017/10/06 18:39:44","新北市中和區連城路347巷4弄7號","121.488028333333","24.9955516666667","6500300","中和區"
"235056","096-UM","2017/10/06 18:39:38","新北市中和區員山路611巷1號","121.477876666667","25.0113033333333","6500300","中和區"
"235039","097-UM","2017/10/06 18:39:50","新北市永和區中正路97號","121.514875","24.99747","6500300","中和區"
"235065","098-UM","2017/10/06 18:39:43","新北市中和區莊敬路49巷17號","121.501413333333","25.00569","6500300","中和區"
"235040","150-BY","2017/10/06 18:39:40","新北市中和區宜安路63號","121.511308333333","24.9969416666667","6500300","中和區"
"235058","151-BY","2017/10/06 18:39:46","新北市中和區圓通路332號","121.48454","24.9862916666667","6500300","中和區"
"235055","183-VK","2017/10/06 18:39:35","新北市中和區中山路三段229巷59號","121.468998333333","25.0052283333333","6500300","中和區"
"235038","185-VK","2017/10/06 18:39:49","新北市中和區立人街14巷40弄7號","121.519005","24.995765","6500300","中和區"
"235049","186-VK","2017/10/06 18:39:42","新北市中和區景平路504巷2號","121.503978333333","24.993825","6500300","中和區"
"235067","255-BX","2017/10/06 18:39:46","新北市中和區新生街32號","121.483156666667","25.0038266666667","6500300","中和區"
"235044","293-VK","2017/10/06 18:39:50","新北市中和區復興路280巷9號","121.502256666667","24.9911833333333","6500300","中和區"
"235072","301-VK","2017/10/06 18:39:38","新北市中和區連城路137號","121.495833333333","24.9988733333333","6500300","中和區"
"235043","352-BY","2017/10/06 18:39:37","新北市中和區景平路105號","121.516981666667","24.9917566666667","6500300","中和區"
"235068","375-QA","2017/10/06 18:39:47","新北市中和區中正路131號","121.49981","24.9936016666667","6500300","中和區"
"235051","376-QA","2017/10/06 18:39:38","新北市中和區華新街230號","121.506026666667","24.9816933333333","6500300","中和區"
"235061","378-QA","2017/10/06 18:39:40","新北市中和區民享街95-3號","121.474953333333","25.0002033333333","6500300","中和區"
"235050","4979-A6","2017/10/06 18:39:43","新北市中和區景新街496巷28弄8號","121.513165","24.9859133333333","6500300","中和區"
"235069","4980-A6","2017/10/06 18:39:32","新北市中和區泰和街20號","121.499703333333","25.0007633333333","6500300","中和區"
"235042","551-UM","2017/10/06 18:39:43","新北市中和區成功路97巷3號","121.526501666667","24.9917516666667","6500300","中和區"
"235070","558-UM","2017/10/06 18:39:48","新北市中和區南華路59號","121.5043","24.9970766666667","6500300","中和區"
"235045","565-BX","2017/10/06 18:39:48","新北市中和區南山路236巷26號","121.505643333333","24.9887366666667","6500300","中和區"
"235054","640-BX","2017/10/06 18:39:49","新北市中和區民享街86巷13號","121.47384","25.0006983333333","6500300","中和區"
"235060","647-TV","2017/10/06 18:39:52","新北市中和區中山路二段499號","121.482365","25.0050033333333","6500300","中和區"
"235047","732-UM","2017/10/06 18:39:41","新北市中和區南山路320巷15號","121.507418333333","24.986295","6500300","中和區"
"235046","733-UM","2017/10/06 18:39:53","新北市中和區捷運路3號","121.509683333333","24.9894316666667","6500300","中和區"
"235062","800-TS","2017/10/06 18:39:39","新北市中和區中山路二段312巷19號","121.495603333333","25.0035783333333","6500300","中和區"
"235057","801-TS","2017/10/06 18:39:36","新北市中和區民安街42巷36號","121.47902","25.0011733333333","6500300","中和區"
"235041","802-TS","2017/10/06 18:39:35","新北市中和區景新街168-2號","121.505891666667","24.996765","6500300","中和區"
"235052","805-TS","2017/10/06 18:39:39","新北市中和區興南路三段90號","121.49092","24.9739416666667","6500300","中和區"
"235048","896-TW","2017/10/06 18:39:40","新北市中和區南山路226號","121.506431666667","24.99022","6500300","中和區"
"235053","900-TW","2017/10/06 18:39:42","新北市中和區民享街467號","121.469836666667","24.9925366666667","6500300","中和區"
"235037","AAC-213","2017/10/06 18:39:33","新北市中和區景德街60號","121.517235","24.9914933333333","6500300","中和區"
"235059","AAC-215","2017/10/06 18:39:48","新北市中和區錦和路350-1號","121.490508333333","24.9935566666667","6500300","中和區"
"220065","072-UY","2017/10/06 18:39:38","新北市板橋區華東街1-8號","121.44749","24.9950683333333","6500100","板橋區"
"220086","073-UY","2017/10/06 18:39:41","新北市板橋區南雅西路二段221號","121.45154","25.0139516666667","6500100","板橋區"
"220069","AAD-861","2017/10/06 18:39:49","新北市板橋區華東街1-10號","121.448326666667","24.995115","6500100","板橋區"
"220068","120-SR","2017/10/06 18:39:36","新北市板橋區民生路二段161巷3號","121.47024","25.0197883333333","6500100","板橋區"
"247008","053-VK","2017/10/06 18:39:43","新北市五股區成泰路三段320號","121.450665","25.0974116666667","6501400","蘆洲區"
"226004","205-ST","2017/10/06 18:39:48","新北市平溪區平溪里三坑路50號","121.734083333333","25.0298383333333","6502400","平溪區"
"228002","663-BX","2017/10/06 18:39:32","新北市貢寮區福隆里桂安街18號","121.955311666667","25.020455","6502600","貢寮區"
"228001","670-TC","2017/10/06 18:39:35","新北市貢寮區仁理村保健街73號","121.923728333333","25.051675","6502600","貢寮區"
"228003","828-UM","2017/10/06 18:39:40","新北市貢寮區和美里龍洞街46號","121.913493333333","25.11243","6502600","貢寮區"
"224006","676-BX","2017/10/06 18:39:50","新北市瑞芳區明燈路三段90號","121.805438333333","25.1083066666667","6501200","瑞芳區"
"224002","639-TC","2017/10/06 18:39:40","新北市瑞芳區靜安路四段59號","121.793835","25.10325","6501200","瑞芳區"
"224009","285-BY","2017/10/06 18:39:47","新北市瑞芳區祈堂路12號","121.85858","25.113035","6501200","瑞芳區"
"224008","275-VK","2017/10/06 18:39:42","新北市瑞芳區逢甲路223號","121.803161666667","25.11155","6501200","瑞芳區"
"224007","273-VK","2017/10/06 18:39:43","新北市瑞芳區大埔路115巷24-2號","121.762873333333","25.1015483333333","6501200","瑞芳區"
"224005","271-BY","2017/10/06 18:39:37","新北市瑞芳區瑞濱路139-1號","121.819628333333","25.1198183333333","6501200","瑞芳區"
"227003","642-TC","2017/10/06 18:39:48","新北市雙溪區魚行里坤溪3-5號","121.875896666667","25.0210833333333","6502500","雙溪區"
"227011","400-TW","2017/10/06 18:39:47","新北市雙溪區牡丹里下坑11號","121.850993333333","25.0562166666667","6502500","雙溪區"
"253005","032-BX","2017/10/06 18:39:33","新北市石門區中山路50號","121.566545","25.290335","6502200","石門區"
"253006","295-VK","2017/10/06 18:39:52","新北市石門區崁子腳18-5號","121.53491","25.28937","6502200","石門區"
"208002","742-BX","2017/10/06 18:39:46","新北市金山區忠孝一路19巷7號","121.637783333333","25.2179416666667","6502700","金山區"
"208001","761-BX","2017/10/06 18:39:50","新北市金山區文化三路7號","121.635193333333","25.2249783333333","6502700","金山區"
"251004","009-UM","2017/10/06 18:39:41","新北市淡水區八勢二街51巷2號","121.460715","25.1491683333333","6501000","淡水區"
"251002","012-UM","2017/10/06 18:39:39","新北市淡水區中正東路8-1號","121.447848333333","25.16685","6501000","淡水區"
"251013","180-VK","2017/10/06 18:39:31","新北市淡水區小坑子頭1號","121.478853333333","25.2099533333333","6501000","淡水區"
"251008","181-VK","2017/10/06 18:39:36","新北市淡水區北投子17-1號","121.453808333333","25.1833783333333","6501000","淡水區"
"251015","182-VK","2017/10/06 18:39:35","新北市淡水區興福寮66巷26號","121.486298333333","25.1622033333333","6501000","淡水區"
"251010","413-VK","2017/10/06 18:39:53","新北市淡水區沙崙路141-1號","121.423285","25.1829483333333","6501000","淡水區"
"251012","441-VK","2017/10/06 18:39:41","新北市淡水區北新路117號","121.44888","25.178655","6501000","淡水區"
"251001","559-UM","2017/10/06 18:39:33","新北市淡水區自強路415巷2號","121.465518333333","25.1342383333333","6501000","淡水區"
"251006","561-UM","2017/10/06 18:39:36","新北市淡水區崁頂57-7號","121.442741666667","25.1972933333333","6501000","淡水區"
"251011","650-BX","2017/10/06 18:39:32","新北市淡水區鄧公路20號","121.45145","25.169475","6501000","淡水區"
"251003","673-BX","2017/10/06 18:39:50","新北市淡水區北新路69巷2號","121.446188333333","25.179605","6501000","淡水區"
"207003","550-UM","2017/10/06 18:39:35","新北市萬里區大鵬里頂社2-1號","121.660351666667","25.2072283333333","6502800","萬里區"
"207004","225-TW","2017/10/06 18:39:51","新北市萬里區萬里里獅頭路12號","121.69226","25.1790683333333","6502800","萬里區"
"252002","178-VK","2017/10/06 18:39:48","新北市三芝區民生街64巷13號","121.503678333333","25.2550116666667","6502100","三芝區"
"252003","249-BX","2017/10/06 18:39:41","新北市三芝區後厝里土地公坑73-17號","121.459785","25.24707","6502100","三芝區"
"252001","292-VK","2017/10/06 18:39:40","新北市三芝區中興街二段76號","121.4999","25.2547533333333","6502100","三芝區"
"208003","170-UY","2017/10/06 18:39:45","新北市金山區中山路280號","121.634923333333","25.2243683333333","6502700","金山區"
"237004","078-UY","2017/10/06 18:39:42","新北市三峽區插角233號","121.412771666667","24.868605","6500900","三峽區"
"237007","153-BY","2017/10/06 18:39:41","新北市三峽區柑樹路2巷19號","121.361851666667","24.9046283333333","6500900","三峽區"
"237009","210-TH","2017/10/06 18:39:50","新北市三峽區弘園街38號","121.36611","24.9270133333333","6500900","三峽區"
"237013","252-BX","2017/10/06 18:39:44","新北市三峽區光明路69巷27號","121.376795","24.9292416666667","6500900","三峽區"
"237012","275-BY","2017/10/06 18:39:37","新北市三峽區三樹路322號","121.381505","24.9440966666667","6500900","三峽區"
"237008","302-VK","2017/10/06 18:39:36","新北市三峽區白雞35號","121.37578","24.9119483333333","6500900","三峽區"
"237014","433-BY","2017/10/06 18:39:47","新北市三峽區復興路480巷52號","121.361866666667","24.94126","6500900","三峽區"
"237006","5529-G3","2017/10/06 18:39:43","新北市三峽區溪東路211巷31弄11號","121.40546","24.9343","6500900","三峽區"
"237011","572-TV","2017/10/06 18:03:35","新北市三峽區橫溪路1號","121.396055","24.9361733333333","6500900","三峽區"
"237015","649-BX","2017/10/06 18:39:31","新北市三峽區成福路313號","121.429445","24.9236783333333","6500900","三峽區"
"237010","706-TV","2017/10/06 18:39:50","新北市三峽區復興路323號","121.364813333333","24.9387933333333","6500900","三峽區"
"237005","AKY-6261","2017/10/06 18:39:46","新北市三峽區復興路34號","121.374141666667","24.9362816666667","6500900","三峽區"
"236072","105-UM","2017/10/06 18:39:40","新北市土城區永豐路157巷29弄6-1號","121.468273333333","24.9815216666667","6501300","土城區"
"236043","107-UM","2017/10/06 18:39:46","新北市土城區學成路139號","121.449211666667","24.9894616666667","6501300","土城區"
"236079","166-UM","2017/10/06 18:39:38","新北市土城區中央路四段54巷3號","121.419663333333","24.9607416666667","6501300","土城區"
"236027","269-VK","2017/10/06 18:39:44","新北市土城區忠義路49號","121.440441666667","24.9691883333333","6501300","土城區"
"236015","270-VK","2017/10/06 18:39:37","新北市土城區清水路207巷11號","121.459926666667","24.9823933333333","6501300","土城區"
"236039","271-VK","2017/10/06 18:39:50","新北市土城區明德路一段313巷3弄2號","121.459626666667","24.9762866666667","6501300","土城區"
"236022","401-BY","2017/10/06 18:39:42","新北市土城區延吉街311號","121.465978333333","24.984315","6501300","土城區"
"236059","912-UM","2017/10/06 18:39:46","新北市土城區中央路四段76-3號","121.419065","24.9595066666667","6501300","土城區"
"236050","913-UM","2017/10/06 18:39:34","新北市土城區明德路一段4號","121.464773333333","24.98573","6501300","土城區"
"236063","915-UM","2017/10/06 18:39:40","新北市土城區延壽路55巷7弄4號","121.469626666667","24.9917766666667","6501300","土城區"
"236055","AAC-216","2017/10/06 18:39:15","新北市土城區中華路一段37號","121.445998333333","24.9887383333333","6501300","土城區"
"242060","705-TV","2017/10/06 18:39:36","新北市新莊區民安路188巷2弄1號","121.425126666667","25.0236183333333","6500500","新莊區"
"242054","440-UM","2017/10/06 18:39:44","新北市新莊區樹新路120巷49弄2號","121.430188333333","24.9958","6500500","新莊區"
"242058","353-BY","2017/10/06 18:39:36","新北市新莊區中正路891-46號","121.41378","25.0228133333333","6500500","新莊區"
"242046","172-VK","2017/10/06 18:39:29","新北市新莊區富國路77巷23號","121.420408333333","25.0265333333333","6500500","新莊區"
"242056","349-TH","2017/10/06 18:39:32","新北市新莊區環河路636-7號","121.437468333333","25.0117116666667","6500500","新莊區"
"238015","755-BX","2017/10/06 18:39:44","新北市樹林區備內街160巷7號","121.40685","24.98962","6500700","樹林區"
"238023","601-UM","2017/10/06 18:39:39","新北市樹林區三福街114號","121.406415","25.016295","6500700","樹林區"
"238019","599-UM","2017/10/06 18:39:34","新北市樹林區中華路190-16號","121.411735","24.980605","6500700","樹林區"
"238024","5061-A6","2017/10/06 18:39:39","新北市樹林區大安路614號","121.411513333333","24.9830333333333","6500700","樹林區"
"238022","KEA-2213","2017/10/06 18:39:45","新北市樹林區中華路190-2號","121.411076666667","24.980535","6500700","樹林區"
"238018","308-TH","2017/10/06 18:39:51","新北市樹林區樹新路34巷14號","121.427783333333","24.99436","6500700","樹林區"
"238025","303-VK","2017/10/06 18:39:36","新北市樹林區中山路三段22號","121.395588333333","24.9729716666667","6500700","樹林區"
"238017","283-BY","2017/10/06 18:39:49","新北市樹林區光榮街79號","121.412076666667","25.0029466666667","6500700","樹林區"
"238014","282-BY","2017/10/06 18:39:42","新北市樹林區大安路111巷8號","121.423145","24.9974833333333","6500700","樹林區"
"238020","268-VK","2017/10/06 18:39:45","新北市樹林區三龍街114號","121.415201666667","25.0185583333333","6500700","樹林區"
"238026","172-UY","2017/10/06 18:39:38","新北市樹林區八德街626號","121.397013333333","24.969725","6500700","樹林區"
"238016","169-UY","2017/10/06 18:39:43","新北市樹林區文化街28號","121.41932","24.9877616666667","6500700","樹林區"
"239007","AAC-297","2017/10/06 18:39:48","新北市鶯歌區中正一路建德巷38號","121.364508333333","24.9578266666667","6500800","鶯歌區"
"239006","891-R6","2017/10/06 18:39:46","新北市鶯歌區鶯桃路296巷48-1號","121.33585","24.96128","6500800","鶯歌區"
"239008","527-UM","2017/10/06 18:39:42","新北市鶯歌區國際一路179號","121.33625","24.976505","6500800","鶯歌區"
"239005","526-UM","2017/10/06 18:39:36","新北市鶯歌區鳳吉一街62號","121.326503333333","24.9741","6500800","鶯歌區"
"239001","417-VK","2017/10/06 18:39:46","新北市鶯歌區尖山埔路二段57號","121.341768333333","24.948455","6500800","鶯歌區"
"239003","360-BY","2017/10/06 18:39:38","新北市鶯歌區永和街148號","121.335568333333","24.9700166666667","6500800","鶯歌區"
"239002","359-BY","2017/10/06 18:39:39","新北市鶯歌區國華路1-1號","121.343126666667","24.95692","6500800","鶯歌區"
"239004","193-VK","2017/10/06 18:39:38","新北市鶯歌區中正三路269號","121.332821666667","24.9381766666667","6500800","鶯歌區"
"221008","489-VK","2017/10/06 18:30:37","新北市汐止區康寧街901號","121.651418333333","25.074905","6501100","汐止區"
"221015","131-UY","2017/10/06 18:39:33","新北市汐止區吉祥街3號","121.667913333333","25.0799283333333","6501100","汐止區"
"221010","269-BY","2017/10/06 18:39:47","新北市汐止區汐萬路三段199巷3弄1號","121.642076666667","25.0984366666667","6501100","汐止區"
"221012","276-VK","2017/10/06 12:58:55","新北市汐止區汐萬路一段256巷3號","121.653448333333","25.0746166666667","6501100","汐止區"
"221012","278-VK","2017/10/06 18:39:39","新北市汐止區長江街312號","121.666566666667","25.0811416666667","6501100","汐止區"
"221023","279-VK","2017/10/06 18:39:47","新北市汐止區汐萬路一段333巷15號","121.6491","25.07599","6501100","汐止區"
"221032","280-BY","2017/10/06 18:39:33","新北市汐止區民權街二段93號","121.619025","25.0475233333333","6501100","汐止區"
"221027","281-BY","2017/10/06 18:39:46","新北市汐止區汐萬路一段310號","121.650398333333","25.0747933333333","6501100","汐止區"
"221029","298-VK","2017/10/06 18:39:46","新北市汐止區樟樹一路133巷1號","121.642113333333","25.0651316666667","6501100","汐止區"
"221021","299-VK","2017/10/06 18:39:42","新北市汐止區新興路57號","121.657258333333","25.0629683333333","6501100","汐止區"
"221031","353-TW","2017/10/06 18:39:44","新北市汐止區大同路一段166號","121.634255","25.056795","6501100","汐止區"
"221035","622-UM","2017/10/06 18:39:43","新北市汐止區大同路二段101號","121.64947","25.06301","6501100","汐止區"
"221025","623-UM","2017/10/06 18:39:51","新北市汐止區福安街20巷28號","121.661686666667","25.064405","6501100","汐止區"
"221038","646-BX","2017/10/06 18:39:35","新北市汐止區汐萬路一段273號","121.65054","25.074515","6501100","汐止區"
"221033","647-BX","2017/10/06 18:39:44","台北市南港區舊莊街一段192巷1號","121.621851666667","25.0388166666667","6501100","汐止區"
"221002","707-TV","2017/10/06 18:39:52","新北市汐止區中興路25號","121.63691","25.0596183333333","6501100","汐止區"
"221018","753-BX","2017/10/06 18:39:48","新北市汐止區茄苳路291號","121.672998333333","25.0673133333333","6501100","汐止區"
"220079","145-BY","2017/10/06 18:39:38","新北市板橋區館前西路162號","121.452613333333","25.0085816666667","6500100","板橋區"
"220082","610-BX","2017/10/06 18:39:49","新北市板橋區大觀路二段435-1號","121.446338333333","24.9944483333333","6500100","板橋區"
"220056","276-BY","2017/10/06 18:39:43","新北市板橋區華東街1-10號","121.448775","24.9947816666667","6500100","板橋區"
"220072","277-BY","2017/10/06 18:39:43","新北市板橋區華東街1-8號","121.44753","24.9950366666667","6500100","板橋區"
"220064","280-UM","2017/10/06 18:39:32","新北市板橋區縣民大道一段193號","121.459366666667","25.00836","6500100","板橋區"
"220071","283-VK","2017/10/06 18:39:52","新北市板橋區華東街1-10號","121.448555","24.9949916666667","6500100","板橋區"
"220094","285-UM","2017/10/06 18:39:30","新北市板橋區民生路二段161巷3號","121.470065","25.0197683333333","6500100","板橋區"
"220083","286-VK","2017/10/06 18:39:36","新北市板橋區華東街1-9號","121.448165","24.994925","6500100","板橋區"
"220081","287-VK","2017/10/06 18:39:45","新北市板橋區華東街1-10號","121.448298333333","24.9956983333333","6500100","板橋區"
"220090","288-VK","2017/10/06 18:39:34","新北市板橋區民生路二段161巷5號","121.469985","25.0196016666667","6500100","板橋區"
"220061","293-UM","2017/10/06 18:39:48","新北市板橋區民生路二段161巷1號","121.470235","25.0198866666667","6500100","板橋區"
"220084","296-UM","2017/10/06 18:39:48","新北市板橋區板城路421號","121.448098333333","24.996305","6500100","板橋區"
"220075","297-UM","2017/10/06 18:39:43","新北市板橋區大觀路二段11-12號","121.448688333333","24.9961716666667","6500100","板橋區"
"220062","303-R5","2017/10/06 18:39:45","新北市板橋區民生路二段120號","121.470556666667","25.019655","6500100","板橋區"
"220080","461-BY","2017/10/06 18:39:47","新北市板橋區大觀路二段435-10號","121.445465","24.9946833333333","6500100","板橋區"
"220035","560-BX","2017/10/06 18:39:50","新北市板橋區南雅西路二段145巷6號","121.451615","25.011875","6500100","板橋區"
"220054","568-UM","2017/10/06 18:39:46","新北市板橋區華東街1-9號","121.448096666667","24.99481","6500100","板橋區"
"220063","609-BX","2017/10/06 15:09:02","新北市板橋區民生路二段175號","121.469803333333","25.0202116666667","6500100","板橋區"
"220057","686-BX","2017/10/06 18:39:32","新北市板橋區華東街1-9號","121.448188333333","24.9948916666667","6500100","板橋區"
"220077","687-BX","2017/10/06 18:39:51","新北市板橋區板城路407號","121.447385","24.9952116666667","6500100","板橋區"
"220067","829-TW","2017/10/06 18:39:39","新北市板橋區民生路二段120號","121.47047","25.0198166666667","6500100","板橋區"
"220102","830-TW","2017/10/06 15:34:59","新北市板橋區民生路二段161巷1號","121.47023","25.0200466666667","6500100","板橋區"
"220074","895-R6","2017/10/06 18:39:49","新北市板橋區華東街1-10號","121.44877","24.994725","6500100","板橋區"
"220073","985-R7","2017/10/06 18:39:31","新北市板橋區華東街1-10號","121.448495","24.994985","6500100","板橋區"
"220070","AAC-253","2017/10/06 18:39:38","新北市板橋區華東街1-9號","121.44822","24.994955","6500100","板橋區"
