"lineid","car","time","location","longitude","latitude","cityid","cityname"
"234046","148-BY","2017/10/06 19:29:49","新北市永和區得和路322號","121.523055","24.9995966666667","6500400","永和區"
"234013","149-BY","2017/10/06 18:34:16","新北市永和區福和路1號","121.526565","25.0100383333333","6500400","永和區"
"234007","207-UY","2017/10/06 19:29:38","新北市永和區永和路一段157-1號","121.514298333333","25.0095733333333","6500400","永和區"
"234081","298-R6","2017/10/06 19:29:49","新北市永和區福和路7巷11弄16號","121.525875","25.00786","6500400","永和區"
"234038","336-UY","2017/10/06 19:29:39","新北市永和區民樂街38號","121.527423333333","25.0006483333333","6500400","永和區"
"234064","337-UY","2017/10/06 19:29:40","新北市永和區中正路368巷1弄86號","121.52042","25.00076","6500400","永和區"
"234086","338-UY","2017/10/06 19:29:40","新北市永和區永亨路7號","121.51934","25.00566","6500400","永和區"
"234070","552-UM","2017/10/06 19:29:50","新北市永和區警光街5-1號","121.519738333333","25.0095266666667","6500400","永和區"
"234054","553-UM","2017/10/06 19:29:45","新北市永和區復興街19巷6號","121.516196666667","25.0131783333333","6500400","永和區"
"234017","745-BX","2017/10/06 19:29:43","新北市永和區環河西路一段87-1號","121.512556666667","25.0180733333333","6500400","永和區"
"234061","AAD-866","2017/10/06 19:29:40","新北市永和區中正路566號","121.51715","25.00612","6500400","永和區"
"234030","847-RS","2017/10/06 19:29:49","新北市永和區民生路57號","121.52268","24.9976016666667","6500400","永和區"
"234042","862-TW","2017/10/06 19:29:40","新北市永和區中和路603號","121.512448333333","25.004395","6500400","永和區"
"234050","863-TW","2017/10/06 19:29:45","新北市永和區信義路113號","121.512293333333","25.0147066666667","6500400","永和區"
"234026","9371-KE","2017/10/06 19:29:42","新北市中和區安平路222號","121.513901666667","25.0002183333333","6500400","永和區"
"234011","9373-KE","2017/10/06 19:29:41","新北市永和區保福路二段15巷1號","121.510761666667","25.0109433333333","6500400","永和區"
"249003","593-UM","2017/10/06 19:29:45","新北市八里區中山路二段500巷30號","121.397201666667","25.14772","6502300","八里區"
"248014","025-BX","2017/10/06 19:29:38","新北市五股區工商路207號","121.433241666667","25.0871283333333","6501500","五股區"
"248008","095-VK","2017/10/06 19:29:51","新北市五股區中興路一段95巷5號","121.46659","25.0726033333333","6501500","五股區"
"248018","225-UY","2017/10/06 19:22:47","新北市五股區壟路17-7號","121.414358333333","25.0852033333333","6501500","五股區"
"248012","247-BX","2017/10/06 19:29:34","新北市五股區成泰路二段97號","121.437996666667","25.0842883333333","6501500","五股區"
"248010","272-BY","2017/10/06 19:29:40","新北市五股區水碓一路23號","121.430563333333","25.0712783333333","6501500","五股區"
"248004","677-BX","2017/10/06 19:29:49","新北市五股區五福路96號","121.432463333333","25.0903283333333","6501500","五股區"
"248002","678-BX","2017/10/06 19:14:07","新北市五股區凌雲路一段158巷1號","121.447735","25.1030233333333","6501500","五股區"
"234023","9380-KE","2017/10/06 19:29:55","新北市永和區竹林路91巷43弄2號","121.521273333333","25.0129066666667","6500400","永和區"
"234077","969-R7","2017/10/06 19:29:51","新北市永和區民權路58巷2弄1號","121.519583333333","24.998335","6500400","永和區"
"234074","AAC-211","2017/10/06 19:29:46","新北市永和區永和路二段278號","121.51602","25.0152333333333","6500400","永和區"
"234066","AAC-212","2017/10/06 19:29:38","新北市永和區保平路50巷4號","121.511226666667","25.0072933333333","6500400","永和區"
"234003","AAC-295","2017/10/06 19:29:47","新北市永和區福和路379號","121.514488333333","25.0074766666667","6500400","永和區"
"244019","403-UM","2017/10/06 19:29:53","新北市林口區麗園二街10-6號","121.378225","25.06958","6501700","林口區"
"244023","483-VK","2017/10/06 19:29:38","新北市林口區文化三路一段555巷81號","121.368761666667","25.0768116666667","6501700","林口區"
"244011","656-BX","2017/10/06 19:27:15","新北市林口區嘉寶里45號","121.339448333333","25.109165","6501700","林口區"
"244021","838-TS","2017/10/06 18:26:12","新北市林口區自強四街18號","121.399355","25.0765383333333","6501700","林口區"
"243013","AAD-798","2017/10/06 19:29:48","新北市泰山區貴子路22號","121.425663333333","25.0419116666667","6501600","泰山區"
"243009","297-R6","2017/10/06 19:29:44","新北市泰山區半山雅3號","121.431365","25.0674416666667","6501600","泰山區"
"243015","380-SR","2017/10/06 19:29:46","新北市泰山區明志路二段136巷8號","121.427318333333","25.0512383333333","6501600","泰山區"
"243014","421-VK","2017/10/06 19:29:40","新北市泰山區仁愛路6巷16號","121.431478333333","25.0534866666667","6501600","泰山區"
"243010","KEA-2215","2017/10/06 19:29:41","新北市泰山區民權街41號","121.429211666667","25.0507883333333","6501600","泰山區"
"243011","KEA-2216","2017/10/06 19:29:35","新北市泰山區中山路二段567號","121.42956","25.0401183333333","6501600","泰山區"
"243012","646-TV","2017/10/06 19:29:42","新北市泰山區仁愛路18號","121.431226666667","25.054425","6501600","泰山區"
"243016","680-BX","2017/10/06 19:29:37","新北市泰山區明志路三段324巷2號","121.421523333333","25.0361316666667","6501600","泰山區"
"222003","436-BY","2017/10/06 19:29:45","新北市深坑區深南路51-1號","121.621145","25.0100333333333","6501800","深坑區"
"222001","628-TS","2017/10/06 19:29:48","新北市深坑區深坑街10號","121.615886666667","25.00284","6501800","深坑區"
"222002","659-BX","2017/10/06 19:29:38","新北市深坑區北深路一段177號","121.632526666667","25.0108716666667","6501800","深坑區"
"231041","002-UM","2017/10/06 19:29:32","新北市新店區中正路543-4號","121.533621666667","24.9873966666667","6500600","新店區"
"231059","046-UY","2017/10/06 19:29:40","新北市新店區安和路三段123號","121.517395","24.98517","6500600","新店區"
"231061","047-UY","2017/10/06 19:29:42","新北市新店區安民街48號","121.516086666667","24.9657316666667","6500600","新店區"
"231060","106-UY","2017/10/06 19:29:39","新北市新店區安康路二段66號","121.514811666667","24.9636266666667","6500600","新店區"
"231051","107-UY","2017/10/06 19:29:48","新北市新店區中央五街21號","121.529318333333","24.9745716666667","6500600","新店區"
"231053","187-VK","2017/10/06 19:29:40","新北市新店區屈尺路11號","121.549288333333","24.9223066666667","6500600","新店區"
"231064","188-VK","2017/10/06 19:29:36","新北市新店區安康路二段85巷10號","121.513523333333","24.962515","6500600","新店區"
"231050","215-TC","2017/10/06 19:29:47","新北市新店區秀水路19號","121.554833333333","24.9549683333333","6500600","新店區"
"231057","256-BX","2017/10/06 19:29:55","新北市新店區花園一路二段1號","121.549646666667","24.9337483333333","6500600","新店區"
"231063","268-BY","2017/10/06 19:29:43","新北市新店區達觀路14巷2號","121.503396666667","24.94186","6500600","新店區"
"231046","278-BY","2017/10/06 19:29:44","新北市新店區光明街183號","121.539718333333","24.96312","6500600","新店區"
"231054","AAD-862","2017/10/06 19:29:53","新北市新店區文中路40號","121.539726666667","24.9565166666667","6500600","新店區"
"231058","3712-VJ","2017/10/06 19:29:38","新北市新店區北新路二段228巷13號","121.543438333333","24.9771583333333","6500600","新店區"
"231067","4772-VM","2017/10/06 19:29:41","新北市新店區安德街60巷19號","121.51036","24.9631816666667","6500600","新店區"
"231065","512-UM","2017/10/06 19:29:49","新北市新店區安祥路109巷6弄33號","121.47555","24.957605","6500600","新店區"
"231048","513-UM","2017/10/06 19:29:47","新北市新店區中興路一段264號","121.544808333333","24.9672333333333","6500600","新店區"
"231045","617-UM","2017/10/06 19:29:39","新北市新店區北宜路二段209號","121.553156666667","24.95336","6500600","新店區"
"231040","619-UM","2017/10/06 19:29:49","新北市新店區北新路一段62號","121.541096666667","24.966545","6500600","新店區"
"231042","641-BX","2017/10/06 19:29:38","新北市新店區中興路一段72號","121.539498333333","24.95989","6500600","新店區"
"231049","719-UM","2017/10/06 19:29:56","新北市新店區北新路三段65巷34弄1號","121.540035","24.9812866666667","6500600","新店區"
"231062","720-UM","2017/10/06 19:29:43","新北市新店區安康路一段35號","121.531758333333","24.960705","6500600","新店區"
"231044","897-TW","2017/10/06 19:29:32","新北市新店區中興路三段223號","121.543178333333","24.9830533333333","6500600","新店區"
"231043","899-TW","2017/10/06 19:29:36","新北市新店區永華街1號","121.542915","24.9768916666667","6500600","新店區"
"231066","AKT-0513","2017/10/06 19:29:35","新北市新店區安康路三段165巷2弄8號","121.489233333333","24.9513666666667","6500600","新店區"
"241028","022-UY","2017/10/06 19:29:38","新北市三重區中寮街72號","121.493073333333","25.0582666666667","6500200","三重區"
"241008","059-VK","2017/10/06 19:29:51","新北市三重區永福街135巷29號","121.477615","25.0772116666667","6500200","三重區"
"241009","060-VK","2017/10/06 19:29:46","新北市三重區仁美街123號","121.485615","25.08139","6500200","三重區"
"241017","063-VK","2017/10/06 19:29:35","新北市三重區國隆路28號","121.492368333333","25.06428","6500200","三重區"
"241026","156-TC","2017/10/06 19:29:40","新北市三重區文化南路47巷15號","121.499676666667","25.06131","6500200","三重區"
"241022","267-UM","2017/10/06 19:29:48","新北市三重區忠孝路三段40巷59號","121.483455","25.065345","6500200","三重區"
"241032","269-UM","2017/10/06 19:29:46","新北市三重區三陽路39號","121.48528","25.0588483333333","6500200","三重區"
"241025","271-UM","2017/10/06 19:29:49","新北市三重區頂崁街210巷28弄9號","121.475811666667","25.0672033333333","6500200","三重區"
"241007","398-BY","2017/10/06 19:29:51","新北市三重區溪尾街130號","121.4894","25.0795383333333","6500200","三重區"
"241031","KEA-2210","2017/10/06 19:29:44","新北市三重區集美街100號","121.488566666667","25.054095","6500200","三重區"
"241020","413-TH","2017/10/06 19:29:41","新北市三重區三和路四段20巷11號","121.490543333333","25.0739383333333","6500200","三重區"
"241030","480-VK","2017/10/06 19:29:50","新北市三重區環河南路254巷32號","121.490043333333","25.05107","6500200","三重區"
"241035","743-BX","2017/10/06 19:29:29","新北市三重區信義西街1巷3號","121.498005","25.065045","6500200","三重區"
"241006","887-TS","2017/10/06 19:29:55","新北市三重區後竹圍街205巷61號","121.484616666667","25.0731233333333","6500200","三重區"
"241012","941-UM","2017/10/06 19:29:38","新北市三重區河邊北街264號","121.501581666667","25.0764366666667","6500200","三重區"
"241029","942-UM","2017/10/06 19:29:34","新北市三重區中正南路216號","121.493693333333","25.05503","6500200","三重區"
"235066","003-UY","2017/10/06 19:29:56","新北市中和區景新街117號","121.50558","24.997625","6500300","中和區"
"235064","005-UY","2017/10/06 19:29:45","新北市中和區中和路40巷8號","121.49965","25.0013283333333","6500300","中和區"
"235063","006-UY","2017/10/06 19:29:36","新北市中和區連城路235號","121.493895","24.9973333333333","6500300","中和區"
"235056","096-UM","2017/10/06 19:29:38","新北市中和區民富街36號","121.476698333333","25.0066316666667","6500300","中和區"
"235039","097-UM","2017/10/06 19:29:50","新北市中和區秀峰街66號","121.520551666667","24.9904516666667","6500300","中和區"
"235065","098-UM","2017/10/06 19:29:43","新北市中和區中山路二段2巷7弄1號","121.50423","25.006565","6500300","中和區"
"235040","150-BY","2017/10/06 19:29:40","新北市中和區景安路79巷37弄25號","121.507658333333","24.9965133333333","6500300","中和區"
"235058","151-BY","2017/10/06 19:29:46","新北市中和區連城路324號","121.483336666667","24.995985","6500300","中和區"
"235055","183-VK","2017/10/06 19:29:35","新北市中和區國光街102巷40號","121.471176666667","25.000625","6500300","中和區"
"235038","185-VK","2017/10/06 19:29:49","新北市中和區景平路126巷2弄11號","121.519581666667","24.9923933333333","6500300","中和區"
"235049","186-VK","2017/10/06 19:29:38","新北市中和區安和路11號","121.511365","24.99357","6500300","中和區"
"235067","255-BX","2017/10/06 19:29:46","新北市中和區連城路322號","121.483391666667","24.9960233333333","6500300","中和區"
"235044","293-VK","2017/10/06 19:29:53","新北市中和區景安路192號","121.504358333333","24.9917216666667","6500300","中和區"
"235072","301-VK","2017/10/06 19:29:38","新北市中和區連城路263號","121.491865","24.996475","6500300","中和區"
"235043","352-BY","2017/10/06 19:29:37","新北市中和區安和路159號","121.506185","24.99727","6500300","中和區"
"235068","375-QA","2017/10/06 19:29:47","新北市中和區安邦街91號","121.497271666667","24.9965083333333","6500300","中和區"
"235051","376-QA","2017/10/06 19:29:37","新北市中和區景新街168-2號","121.505908333333","24.9967316666667","6500300","中和區"
"235061","378-QA","2017/10/06 19:29:54","新北市中和區民利街39-3號","121.479748333333","24.99895","6500300","中和區"
"235071","269-TV","2017/10/06 19:29:32","新北市中和區連城路469巷21弄12號","121.48404","24.9950716666667","6500300","中和區"
"235050","4979-A6","2017/10/06 19:29:43","新北市中和區中正路523號","121.488071666667","24.993855","6500300","中和區"
"235042","551-UM","2017/10/06 19:29:43","新北市中和區安樂路143巷2弄7號","121.514153333333","24.99783","6500300","中和區"
"235070","558-UM","2017/10/06 19:29:37","新北市中和區連城路74號","121.497328333333","25.0012866666667","6500300","中和區"
"235045","565-BX","2017/10/06 19:29:45","新北市中和區景新街423巷33弄3號","121.513796666667","24.98977","6500300","中和區"
"235054","640-BX","2017/10/06 19:29:48","新北市中和區國光街114號","121.46991","25.0008166666667","6500300","中和區"
"235060","647-TV","2017/10/06 19:29:52","新北市中和區新生街114巷1號","121.483501666667","25.0024316666667","6500300","中和區"
"235047","732-UM","2017/10/06 19:29:41","新北市中和區景平路259巷38號","121.506763333333","24.9927866666667","6500300","中和區"
"235046","733-UM","2017/10/06 19:29:53","新北市中和區忠孝街37巷76號","121.511045","24.98501","6500300","中和區"
"235062","800-TS","2017/10/06 19:29:39","新北市八里區中山路三段216號","121.378483333333","25.1421766666667","6500300","中和區"
"235057","801-TS","2017/10/06 19:29:42","新北市中和區員山路423巷14弄1-1號","121.480383333333","25.0029016666667","6500300","中和區"
"235041","802-TS","2017/10/06 19:29:35","新北市中和區中和路298號","121.508671666667","24.9998066666667","6500300","中和區"
"235052","805-TS","2017/10/06 19:29:39","新北市中和區華新街143巷67弄35號","121.507541666667","24.9792933333333","6500300","中和區"
"235048","896-TW","2017/10/06 19:29:40","新北市中和區忠孝街113巷2號","121.512573333333","24.9875583333333","6500300","中和區"
"235053","900-TW","2017/10/06 19:29:39","新北市中和區華安街17巷27號","121.46738","24.998305","6500300","中和區"
"235037","AAC-213","2017/10/06 19:29:53","新北市中和區秀朗路三段10巷12弄2號","121.52562","24.996645","6500300","中和區"
"235059","AAC-215","2017/10/06 19:29:48","新北市中和區圓通路252巷5弄1號","121.493383333333","24.9914416666667","6500300","中和區"
"220065","072-UY","2017/10/06 19:29:51","新北市板橋區國泰街75巷28弄18號","121.467668333333","25.00512","6500100","板橋區"
"220086","073-UY","2017/10/06 19:29:41","新北市板橋區中正路222號","121.455821666667","25.0185716666667","6500100","板橋區"
"220106","075-UY","2017/10/06 19:29:48","新北市板橋區江寧路三段101號","121.472756666667","25.03273","6500100","板橋區"
"220069","AAD-861","2017/10/06 19:29:49","新北市板橋區貴興路41號","121.457468333333","25.0036933333333","6500100","板橋區"
"220068","120-SR","2017/10/06 19:29:36","新北市板橋區中山路二段531巷46號","121.4825","25.0227116666667","6500100","板橋區"
"247004","336-TH","2017/10/06 19:29:44","新北市蘆洲區長安街239號","121.459251666667","25.0829816666667","6501400","蘆洲區"
"247008","053-VK","2017/10/06 19:29:46","新北市五股區中興路一段118巷6弄36號","121.46652","25.0753833333333","6501400","蘆洲區"
"226004","205-ST","2017/10/06 19:29:48","新北市平溪區靜安路三段392巷3號","121.784376666667","25.0495616666667","6502400","平溪區"
"228002","663-BX","2017/10/06 19:29:52","新北市貢寮區龍門里龍門街76號","121.931351666667","25.0270433333333","6502600","貢寮區"
"228001","670-TC","2017/10/06 19:29:35","新北市貢寮區真理里延平街68號","121.925378333333","25.0574383333333","6502600","貢寮區"
"228003","828-UM","2017/10/06 19:29:40","新北市貢寮區和美里和美街19-2號","121.912785","25.0826183333333","6502600","貢寮區"
"224006","676-BX","2017/10/06 19:29:50","新北市瑞芳區靜安路四段67號","121.794701666667","25.10458","6501200","瑞芳區"
"224002","639-TC","2017/10/06 19:29:40","新北市瑞芳區三爪子坑路13巷8號","121.813993333333","25.10727","6501200","瑞芳區"
"224008","275-VK","2017/10/06 19:29:42","新北市瑞芳區一坑路181號","121.80169","25.108045","6501200","瑞芳區"
"227003","642-TC","2017/10/06 19:29:40","新北市雙溪區雙溪里光復街3號","121.865091666667","25.0354766666667","6502500","雙溪區"
"227011","400-TW","2017/10/06 19:29:47","新北市雙溪區新基里新基北街43號","121.868178333333","25.0397283333333","6502500","雙溪區"
"208002","742-BX","2017/10/06 19:29:46","新北市金山區仁愛路78巷2號","121.634646666667","25.2215366666667","6502700","金山區"
"208001","761-BX","2017/10/06 19:29:50","新北市金山區中正路134號","121.6321","25.2215133333333","6502700","金山區"
"251013","180-VK","2017/10/06 19:29:51","新北市淡水區大牛稠4號","121.469528333333","25.2201116666667","6501000","淡水區"
"251015","182-VK","2017/10/06 19:29:55","新北市淡水區北新路三段146號","121.48975","25.1904583333333","6501000","淡水區"
"251010","413-VK","2017/10/06 19:29:53","新北市淡水區中正路二段131-5號","121.422255","25.1876416666667","6501000","淡水區"
"251005","443-VK","2017/10/06 19:29:33","新北市淡水區水源街一段53巷12號","121.444143333333","25.1729666666667","6501000","淡水區"
"251001","559-UM","2017/10/06 19:29:53","新北市淡水區民權路167號","121.459973333333","25.1358916666667","6501000","淡水區"
"251006","561-UM","2017/10/06 19:29:37","新北市淡水區大義街44號","121.441948333333","25.1784183333333","6501000","淡水區"
"251009","575-R6","2017/10/06 19:29:41","新北市淡水區大忠街5巷1號","121.443185","25.1764683333333","6501000","淡水區"
"251007","577-R6","2017/10/06 19:29:35","新北市淡水區中正東路一段111巷28號","121.455511666667","25.1608633333333","6501000","淡水區"
"251011","650-BX","2017/10/06 19:29:52","新北市淡水區中正東路二段143巷2弄1號","121.460743333333","25.1473966666667","6501000","淡水區"
"251003","673-BX","2017/10/06 19:29:38","新北市淡水區中山北路二段177號","121.444271666667","25.1847233333333","6501000","淡水區"
"207003","550-UM","2017/10/06 19:29:49","新北市萬里區大鵬里萬里加投197-2號","121.644005","25.2150383333333","6502800","萬里區"
"207004","225-TW","2017/10/06 19:29:51","新北市萬里區萬里里瑪鋉路127-8號","121.688925","25.17791","6502800","萬里區"
"252002","178-VK","2017/10/06 19:29:47","新北市三芝區淡金路二段18-1號","121.502625","25.2595566666667","6502100","三芝區"
"252001","292-VK","2017/10/06 19:29:39","新北市三芝區長勤街35號","121.500785","25.255455","6502100","三芝區"
"208003","170-UY","2017/10/06 19:29:43","新北市金山區中山路263巷14號","121.63644","25.2215716666667","6502700","金山區"
"237004","078-UY","2017/10/06 19:29:42","新北市三峽區有木143號","121.438601666667","24.852335","6500900","三峽區"
"237007","153-BY","2017/10/06 19:29:41","新北市三峽區二鬮路178號","121.359133333333","24.90682","6500900","三峽區"
"237009","210-TH","2017/10/06 19:29:50","新北市三峽區民權街91號","121.369276666667","24.9327683333333","6500900","三峽區"
"237013","252-BX","2017/10/06 19:29:44","新北市三峽區介壽路一段311巷9號","121.381216666667","24.930825","6500900","三峽區"
"237012","275-BY","2017/10/06 19:29:37","新北市三峽區三樹路98巷171號","121.384585","24.9397","6500900","三峽區"
"237008","302-VK","2017/10/06 19:29:36","新北市三峽區永安街95巷2號","121.374636666667","24.928815","6500900","三峽區"
"237014","433-BY","2017/10/06 19:29:47","新北市三峽區嘉添61號","121.368711666667","24.9106083333333","6500900","三峽區"
"237006","5529-G3","2017/10/06 19:29:43","新北市三峽區中正路一段330-10號","121.369943333333","24.9245933333333","6500900","三峽區"
"237015","649-BX","2017/10/06 19:29:50","新北市三峽區建安25-3號","121.44533","24.9273033333333","6500900","三峽區"
"237005","AKY-6261","2017/10/06 19:29:46","新北市三峽區復興路367巷3號","121.363745","24.9380666666667","6500900","三峽區"
"236072","105-UM","2017/10/06 19:29:40","新北市土城區學府路一段159號","121.453143333333","24.9858733333333","6501300","土城區"
"236043","107-UM","2017/10/06 19:29:46","新北市土城區學府路一段276號","121.449885","24.9829583333333","6501300","土城區"
"236079","166-UM","2017/10/06 19:29:52","新北市土城區中州路3巷11弄2號","121.414131666667","24.95704","6501300","土城區"
"236027","269-VK","2017/10/06 19:29:44","新北市土城區中央路二段61巷22號","121.44319","24.978765","6501300","土城區"
"236022","401-BY","2017/10/06 19:29:42","新北市土城區峰廷街3號","121.469153333333","24.9873816666667","6501300","土城區"
"236059","912-UM","2017/10/06 19:29:46","新北市土城區光明街1號","121.442035","24.97483","6501300","土城區"
"236050","913-UM","2017/10/06 19:29:54","新北市土城區清水路205號","121.460136666667","24.9817733333333","6501300","土城區"
"242032","AAC-296","2017/10/06 19:29:49","新北市新莊區新泰路225巷1號","121.446318333333","25.0391766666667","6500500","新莊區"
"242056","349-TH","2017/10/06 19:29:52","新北市新莊區瓊林南路77-41號","121.437576666667","25.01256","6500500","新莊區"
"238015","755-BX","2017/10/06 19:29:49","新北市樹林區復興路196號","121.419933333333","24.990955","6500700","樹林區"
"238023","601-UM","2017/10/06 19:29:39","新北市樹林區中正路865號","121.40881","25.0181433333333","6500700","樹林區"
"238019","599-UM","2017/10/06 19:29:44","新北市樹林區大同街24巷4號","121.41792","24.98289","6500700","樹林區"
"238024","5061-A6","2017/10/06 19:29:39","新北市樹林區福德街47號","121.399555","24.9748116666667","6500700","樹林區"
"238021","KEA-2217","2017/10/06 19:29:38","新北市樹林區柑園街二段378巷1號","121.368753333333","24.9498433333333","6500700","樹林區"
"238022","KEA-2213","2017/10/06 19:29:45","新北市樹林區中華路124號","121.417703333333","24.9804933333333","6500700","樹林區"
"238018","308-TH","2017/10/06 19:29:51","新北市樹林區太元街11號","121.418105","24.9805366666667","6500700","樹林區"
"238025","303-VK","2017/10/06 19:29:36","新北市樹林區長壽街1號","121.424308333333","24.9929933333333","6500700","樹林區"
"238017","283-BY","2017/10/06 19:29:29","新北市樹林區光興街376巷2號","121.406336666667","25.0057066666667","6500700","樹林區"
"238014","282-BY","2017/10/06 19:29:42","新北市樹林區千歲街6巷19號","121.425735","24.9951516666667","6500700","樹林區"
"238020","268-VK","2017/10/06 19:29:51","新北市樹林區俊英街121巷6號","121.424255","25.0103933333333","6500700","樹林區"
"238026","172-UY","2017/10/06 19:29:38","新北市樹林區佳園路一段88號","121.393416666667","24.9694616666667","6500700","樹林區"
"238016","169-UY","2017/10/06 19:29:44","新北市樹林區復興路444號","121.413566666667","24.9841933333333","6500700","樹林區"
"239007","AAC-297","2017/10/06 19:29:47","新北市鶯歌區大湖路326巷61弄12號","121.3465","24.9693","6500800","鶯歌區"
"239006","891-R6","2017/10/06 19:29:46","新北市鶯歌區尖山埔路144號","121.343653333333","24.9497866666667","6500800","鶯歌區"
"239001","417-VK","2017/10/06 19:29:46","新北市鶯歌區鶯桃路39-2號","121.342653333333","24.951","6500800","鶯歌區"
"239003","360-BY","2017/10/06 19:29:38","新北市鶯歌區中正一路460號","121.364353333333","24.9564","6500800","鶯歌區"
"239002","359-BY","2017/10/06 19:29:39","新北市鶯歌區大湖路185巷9弄1號","121.344101666667","24.96921","6500800","鶯歌區"
"221008","489-VK","2017/10/06 19:29:47","新北市汐止區康寧街145號","121.622053333333","25.0668","6501100","汐止區"
"221036","130-UY","2017/10/06 19:29:40","新北市汐止區汐萬路一段256巷1號","121.651838333333","25.07494","6501100","汐止區"
"221015","131-UY","2017/10/06 19:29:53","新北市汐止區康寧街901號","121.651635","25.0749866666667","6501100","汐止區"
"221010","269-BY","2017/10/06 19:29:47","新北市汐止區康寧街901號","121.65131","25.0750166666667","6501100","汐止區"
"221012","276-VK","2017/10/06 12:58:55","新北市汐止區汐萬路一段256巷3號","121.653448333333","25.0746166666667","6501100","汐止區"
"221012","278-VK","2017/10/06 19:29:39","新北市汐止區保長路147巷2號","121.675686666667","25.0768816666667","6501100","汐止區"
"221023","279-VK","2017/10/06 19:29:47","新北市汐止區康寧街421號","121.630318333333","25.0680283333333","6501100","汐止區"
"221027","281-BY","2017/10/06 19:29:47","新北市汐止區水源路一段15號","121.65731","25.0668066666667","6501100","汐止區"
"221029","298-VK","2017/10/06 19:29:46","新北市汐止區康寧街901號","121.651678333333","25.074915","6501100","汐止區"
"221021","299-VK","2017/10/06 19:29:42","新北市汐止區康寧街901號","121.6513","25.075045","6501100","汐止區"
"221031","353-TW","2017/10/06 19:29:44","新北市汐止區福德一路1-1號","121.6398","25.0715916666667","6501100","汐止區"
"221025","623-UM","2017/10/06 19:29:51","新北市汐止區新台五路二段10號","121.660278333333","25.0650533333333","6501100","汐止區"
"221038","646-BX","2017/10/06 19:29:34","新北市汐止區汐萬路一段288號","121.650693333333","25.0742983333333","6501100","汐止區"
"221033","647-BX","2017/10/06 19:29:43","新北市汐止區南勢街1巷1號","121.627063333333","25.037425","6501100","汐止區"
"221002","707-TV","2017/10/06 19:29:52","新北市汐止區大同路一段337巷16弄3號","121.637716666667","25.0601283333333","6501100","汐止區"
"220079","145-BY","2017/10/06 19:29:38","新北市板橋區建國街23號","121.458073333333","25.0170433333333","6500100","板橋區"
"220082","610-BX","2017/10/06 19:29:49","新北市板橋區金門街301號","121.429983333333","24.9864833333333","6500100","板橋區"
"220101","245-BX","2017/10/06 19:29:50","新北市板橋區縣民大道三段133巷1號","121.477611666667","25.02327","6500100","板橋區"
"220096","257-TC","2017/10/06 19:29:38","新北市板橋區大同街5巷9號","121.476693333333","25.0271233333333","6500100","板橋區"
"220091","267-BY","2017/10/06 19:29:36","新北市板橋區文聖街149巷23弄1號","121.479326666667","25.0284833333333","6500100","板橋區"
"220056","276-BY","2017/10/06 19:29:43","新北市板橋區信義路1巷26弄35號","121.458905","24.99678","6500100","板橋區"
"220072","277-BY","2017/10/06 19:29:43","新北市板橋區篤行路三段3號","121.429465","24.987595","6500100","板橋區"
"220064","280-UM","2017/10/06 19:29:52","新北市板橋區中山路一段85號","121.46154","25.0100233333333","6500100","板橋區"
"220071","283-VK","2017/10/06 19:29:52","新北市板橋區忠孝路48巷9弄19號","121.462106666667","25.00043","6500100","板橋區"
"220094","285-UM","2017/10/06 19:29:50","新北市板橋區吳鳳路17巷9號","121.46768","25.0299416666667","6500100","板橋區"
"220053","285-VK","2017/10/06 19:29:50","新北市板橋區富山街53巷1弄84號","121.477866666667","25.02018","6500100","板橋區"
"220083","286-VK","2017/10/06 19:29:36","新北市板橋區龍興街73巷2號","121.443985","25.0022416666667","6500100","板橋區"
"220081","287-VK","2017/10/06 19:19:25","新北市板橋區南雅西路一段61號","121.453421666667","25.00552","6500100","板橋區"
"220090","288-VK","2017/10/06 19:29:53","新北市板橋區裕民街74號","121.460868333333","25.0284","6500100","板橋區"
"220061","293-UM","2017/10/06 19:29:49","新北市板橋區中山路二段311號","121.478848333333","25.0185316666667","6500100","板橋區"
"220084","296-UM","2017/10/06 19:29:48","新北市板橋區篤行路三段玉平巷76弄2號","121.427933333333","24.9855933333333","6500100","板橋區"
"220075","297-UM","2017/10/06 19:29:44","新北市板橋區中正路253巷70號","121.452918333333","25.0173433333333","6500100","板橋區"
"220092","299-UM","2017/10/06 19:29:40","新北市板橋區松江街72巷29號","121.4699","25.0279716666667","6500100","板橋區"
"220062","303-R5","2017/10/06 19:29:45","新北市板橋區三民路二段123巷33號","121.480693333333","25.0157516666667","6500100","板橋區"
"220098","317-R6","2017/10/06 19:29:44","新北市板橋區民生路三段263巷6號","121.463891666667","25.0293783333333","6500100","板橋區"
"220080","461-BY","2017/10/06 19:29:47","新北市板橋區大觀路二段37巷126號","121.449485","25.0021716666667","6500100","板橋區"
"220089","487-VK","2017/10/06 19:29:53","新北市板橋區文化路一段71號","121.461025","25.0139133333333","6500100","板橋區"
"220088","491-VK","2017/10/06 19:29:45","新北市板橋區雙十路二段85號","121.475683333333","25.0272583333333","6500100","板橋區"
"220035","560-BX","2017/10/06 19:29:50","新北市板橋區中正路387號","121.454308333333","25.0217316666667","6500100","板橋區"
"220103","561-BX","2017/10/06 19:29:53","新北市板橋區文化路一段216號","121.466558333333","25.0202683333333","6500100","板橋區"
"220054","568-UM","2017/10/06 19:29:47","新北市板橋區重慶路182號","121.462303333333","25.00347","6500100","板橋區"
"220063","609-BX","2017/10/06 19:29:45","新北市板橋區三民路一段31巷15號","121.47994","25.0232966666667","6500100","板橋區"
"220057","686-BX","2017/10/06 19:29:52","新北市板橋區五權街26號","121.464578333333","24.993655","6500100","板橋區"
"220077","687-BX","2017/10/06 19:29:51","新北市板橋區僑中二街104巷1號","121.445898333333","25.0077283333333","6500100","板橋區"
"220093","689-BX","2017/10/06 19:29:51","新北市板橋區新海路14號","121.46248","25.020965","6500100","板橋區"
"220055","827-TW","2017/10/06 19:29:48","新北市板橋區重慶路290巷22弄8號","121.462265","24.9992733333333","6500100","板橋區"
"220067","829-TW","2017/10/06 19:29:39","新北市板橋區長安街138巷7弄50號","121.474073333333","25.0091116666667","6500100","板橋區"
"220102","830-TW","2017/10/06 19:29:43","新北市板橋區松柏街21巷1號","121.474578333333","25.030125","6500100","板橋區"
"220074","895-R6","2017/10/06 19:29:49","新北市板橋區中正路1巷18-1號","121.455171666667","25.0116283333333","6500100","板橋區"
"220073","985-R7","2017/10/06 19:29:51","新北市板橋區中正路332-9號","121.454291666667","25.0228283333333","6500100","板橋區"
"220097","AAC-210","2017/10/06 19:29:49","新北市板橋區陽明街29巷45號","121.46308","25.022755","6500100","板橋區"
"220070","AAC-253","2017/10/06 19:29:38","新北市板橋區四川路一段133號","121.459843333333","25.0045233333333","6500100","板橋區"
