"lineid","car","time","location","longitude","latitude","cityid","cityname"
"234046","148-BY","2017/10/06 19:39:48","新北市永和區秀朗路二段243號","121.526321666667","24.99973","6500400","永和區"
"234013","149-BY","2017/10/06 18:34:16","新北市永和區福和路1號","121.526565","25.0100383333333","6500400","永和區"
"234007","207-UY","2017/10/06 19:39:38","新北市中和區中和路442號","121.511958333333","25.003605","6500400","永和區"
"234081","298-R6","2017/10/06 19:39:41","新北市永和區林森路20巷2號","121.52613","25.0054016666667","6500400","永和區"
"234038","336-UY","2017/10/06 19:39:39","新北市永和區民樂街19號","121.527668333333","25.00206","6500400","永和區"
"234064","337-UY","2017/10/06 19:39:40","新北市永和區秀朗路一段192巷6弄8號","121.519226666667","25.002445","6500400","永和區"
"234086","338-UY","2017/10/06 19:39:40","新北市永和區林森路114號","121.522673333333","25.0032483333333","6500400","永和區"
"234070","552-UM","2017/10/06 19:39:50","新北市永和區永和路二段234號","121.515791666667","25.0145116666667","6500400","永和區"
"234054","553-UM","2017/10/06 19:39:45","新北市永和區竹林路39巷8號","121.51827","25.01444","6500400","永和區"
"234017","745-BX","2017/10/06 19:39:43","新北市永和區永和路二段425巷70號","121.51346","25.0171733333333","6500400","永和區"
"234061","AAD-866","2017/10/06 19:39:40","新北市永和區永貞路184號","121.516196666667","25.004315","6500400","永和區"
"234030","847-RS","2017/10/06 19:39:49","新北市永和區民生路37巷11號","121.523871666667","24.99808","6500400","永和區"
"234042","862-TW","2017/10/06 19:39:40","新北市永和區水源街28號","121.511513333333","25.0046616666667","6500400","永和區"
"234050","863-TW","2017/10/06 19:39:45","新北市永和區保福路二段162巷2號","121.50899","25.0152816666667","6500400","永和區"
"234026","9371-KE","2017/10/06 19:39:42","新北市永和區雙和街13號","121.50952","25.0017983333333","6500400","永和區"
"234011","9373-KE","2017/10/06 19:39:41","新北市永和區保生路55號","121.504656666667","25.0106883333333","6500400","永和區"
"249002","305-UY","2017/10/06 19:39:47","新北市八里區頂寮二街35號","121.450228333333","25.1252","6502300","八里區"
"249003","593-UM","2017/10/06 19:39:45","新北市八里區中華路二段536-2號","121.399106666667","25.1453666666667","6502300","八里區"
"248014","025-BX","2017/10/06 19:39:41","新北市五股區民義路一段161號","121.432473333333","25.08762","6501500","五股區"
"248016","026-BX","2017/10/06 19:39:40","新北市五股區成泰路三段482號","121.45194","25.1016666666667","6501500","五股區"
"248008","095-VK","2017/10/06 19:39:52","新北市五股區四維路120號","121.46801","25.0746433333333","6501500","五股區"
"248018","225-UY","2017/10/06 19:23:27","新北市五股區壟路19號","121.413025","25.0850883333333","6501500","五股區"
"248012","247-BX","2017/10/06 19:39:54","新北市五股區成泰路一段241巷12號","121.436143333333","25.0810466666667","6501500","五股區"
"248010","272-BY","2017/10/06 19:39:52","新北市五股區自強路144號","121.43221","25.0707716666667","6501500","五股區"
"248004","677-BX","2017/10/06 19:39:49","新北市五股區工商路104號","121.43752","25.085375","6501500","五股區"
"248002","678-BX","2017/10/06 19:14:07","新北市五股區凌雲路一段158巷1號","121.447735","25.1030233333333","6501500","五股區"
"234023","9380-KE","2017/10/06 19:39:35","新北市永和區豫溪街57巷8弄6號","121.517648333333","25.0104283333333","6500400","永和區"
"234077","969-R7","2017/10/06 19:39:50","新北市永和區民權路3號","121.520286666667","24.998505","6500400","永和區"
"234074","AAC-211","2017/10/06 19:39:44","新北市永和區竹林路225巷9號","121.521446666667","25.0085966666667","6500400","永和區"
"234066","AAC-212","2017/10/06 19:39:38","新北市永和區保平路190號","121.510436666667","25.0064933333333","6500400","永和區"
"234003","AAC-295","2017/10/06 19:39:47","新北市永和區永和路一段36號","121.513251666667","25.0051783333333","6500400","永和區"
"244019","403-UM","2017/10/06 19:39:53","新北市林口區麗園一街19號","121.377226666667","25.068905","6501700","林口區"
"244023","483-VK","2017/10/06 19:39:38","新北市林口區民有街68號","121.37284","25.0770716666667","6501700","林口區"
"244021","838-TS","2017/10/06 18:26:12","新北市林口區自強四街18號","121.399355","25.0765383333333","6501700","林口區"
"243013","AAD-798","2017/10/06 19:35:24","新北市泰山區應化街7號","121.423876666667","25.04372","6501600","泰山區"
"243009","297-R6","2017/10/06 19:39:44","新北市泰山區美寧街76號","121.431481666667","25.0646133333333","6501600","泰山區"
"243015","380-SR","2017/10/06 19:39:46","新北市泰山區民權街85號","121.428566666667","25.0497266666667","6501600","泰山區"
"243014","421-VK","2017/10/06 19:39:40","新北市泰山區泰林路二段33-7號","121.43524","25.05652","6501600","泰山區"
"243010","KEA-2215","2017/10/06 19:39:41","新北市泰山區民生路33號","121.430733333333","25.0521933333333","6501600","泰山區"
"243011","KEA-2216","2017/10/06 19:39:36","新北市泰山區明志路三段204巷1號","121.421506666667","25.0382783333333","6501600","泰山區"
"243012","646-TV","2017/10/06 19:39:38","新北市泰山區仁武街25號","121.433473333333","25.0545166666667","6501600","泰山區"
"243016","680-BX","2017/10/06 19:39:37","新北市泰山區中山路三段114號","121.417925","25.0321616666667","6501600","泰山區"
"222003","436-BY","2017/10/06 19:30:56","新北市深坑區深南路51-1號","121.621151666667","25.01003","6501800","深坑區"
"222001","628-TS","2017/10/06 19:39:48","新北市深坑區深坑街148號","121.612998333333","25.001505","6501800","深坑區"
"222002","659-BX","2017/10/06 19:39:38","新北市深坑區北深路一段177號","121.63256","25.010885","6501800","深坑區"
"231041","002-UM","2017/10/06 19:39:32","新北市新店區中正路487號","121.533811666667","24.9820583333333","6500600","新店區"
"231059","046-UY","2017/10/06 19:39:41","新北市新店區安和路二段187號","121.518185","24.9749033333333","6500600","新店區"
"231061","047-UY","2017/10/06 19:39:42","新北市新店區安民街172號","121.516808333333","24.9708283333333","6500600","新店區"
"231060","106-UY","2017/10/06 19:39:35","新北市新店區安康路二段200號","121.510575","24.9597216666667","6500600","新店區"
"231051","107-UY","2017/10/06 19:39:48","新北市新店區中央四街38號","121.528206666667","24.9745466666667","6500600","新店區"
"231053","187-VK","2017/10/06 19:39:40","新北市新店區廣興路80號","121.538806666667","24.9127566666667","6500600","新店區"
"231064","188-VK","2017/10/06 19:39:36","新北市新店區安和路一段52巷2號","121.517583333333","24.9661316666667","6500600","新店區"
"231050","215-TC","2017/10/06 19:39:47","新北市新店區郵政路4巷17號","121.556686666667","24.9516583333333","6500600","新店區"
"231057","256-BX","2017/10/06 19:39:34","新北市新店區橘園一路11號","121.547965","24.934025","6500600","新店區"
"231063","268-BY","2017/10/06 19:39:43","新北市新店區達觀路41號","121.502791666667","24.9382416666667","6500600","新店區"
"231046","278-BY","2017/10/06 19:39:44","新北市新店區自由街15號","121.535426666667","24.97477","6500600","新店區"
"231054","AAD-862","2017/10/06 19:39:53","新北市新店區文中路29號","121.538648333333","24.9570583333333","6500600","新店區"
"231058","3712-VJ","2017/10/06 19:39:38","新北市新店區寶橋路25-1號","121.543991666667","24.97413","6500600","新店區"
"231067","4772-VM","2017/10/06 19:39:41","新北市新店區太平路57號","121.532735","24.9590066666667","6500600","新店區"
"231065","512-UM","2017/10/06 19:39:49","新北市新店區安祥路109巷90弄89號","121.475945","24.9577266666667","6500600","新店區"
"231048","513-UM","2017/10/06 19:39:47","新北市新店區五峰路63巷30號","121.546603333333","24.9694683333333","6500600","新店區"
"231045","617-UM","2017/10/06 19:39:53","新北市新店區北宜路二段419-2號","121.560361666667","24.9545566666667","6500600","新店區"
"231040","619-UM","2017/10/06 19:39:49","新北市新店區中正路75巷71號","121.543078333333","24.9688833333333","6500600","新店區"
"231042","641-BX","2017/10/06 19:39:38","新北市新店區中興路一段216號","121.543858333333","24.96581","6500600","新店區"
"231049","719-UM","2017/10/06 19:39:36","新北市新店區大豐路66號","121.53935","24.9796283333333","6500600","新店區"
"231062","720-UM","2017/10/06 19:39:43","新北市新店區碧潭路63號","121.53423","24.9566366666667","6500600","新店區"
"231044","897-TW","2017/10/06 19:39:52","新北市新店區北新路二段268號","121.542826666667","24.97867","6500600","新店區"
"231043","899-TW","2017/10/06 19:39:45","新北市新店區中正路135號","121.541778333333","24.9713916666667","6500600","新店區"
"231066","AKT-0513","2017/10/06 19:39:35","新北市新店區安康路二段341巷1號","121.496841666667","24.9551166666667","6500600","新店區"
"241011","013-R5","2017/10/06 19:39:50","新北市三重區秀江街227號","121.497135","25.07164","6500200","三重區"
"241028","022-UY","2017/10/06 19:39:38","新北市三重區中正南路190號","121.49387","25.0560583333333","6500200","三重區"
"241008","059-VK","2017/10/06 19:39:51","新北市三重區永福街133號","121.478905","25.076795","6500200","三重區"
"241009","060-VK","2017/10/06 19:39:49","新北市三重區三和路四段400巷21號","121.480286666667","25.0792466666667","6500200","三重區"
"241015","062-VK","2017/10/06 19:39:40","新北市三重區福德北路36號","121.501981666667","25.0652583333333","6500200","三重區"
"241017","063-VK","2017/10/06 19:39:35","新北市三重區大同北路223號","121.491348333333","25.0662016666667","6500200","三重區"
"241026","156-TC","2017/10/06 19:39:40","新北市三重區文化南路65巷21號","121.499408333333","25.060825","6500200","三重區"
"241022","267-UM","2017/10/06 19:39:46","新北市三重區中正北路109號","121.485055","25.0657283333333","6500200","三重區"
"241032","269-UM","2017/10/06 19:39:36","新北市三重區重陽路一段60巷67號","121.484376666667","25.0582916666667","6500200","三重區"
"241013","270-UM","2017/10/06 19:39:46","新北市三重區仁賢街12號","121.49593","25.074705","6500200","三重區"
"241025","271-UM","2017/10/06 19:39:49","新北市三重區忠孝路三段99巷4號","121.4802","25.0642733333333","6500200","三重區"
"241007","398-BY","2017/10/06 19:39:50","新北市三重區三和路四段135巷51號","121.48765","25.078815","6500200","三重區"
"241031","KEA-2210","2017/10/06 19:39:44","新北市三重區重新路四段240號","121.486065","25.05368","6500200","三重區"
"241020","413-TH","2017/10/06 19:39:37","新北市三重區自強路三段75號","121.48685","25.0739466666667","6500200","三重區"
"241019","478-VK","2017/10/06 19:39:38","新北市三重區六張街194巷1弄11號","121.48815","25.0682116666667","6500200","三重區"
"241030","480-VK","2017/10/06 19:39:50","新北市三重區新興路7號","121.492695","25.05323","6500200","三重區"
"241014","543-UM","2017/10/06 19:39:48","新北市三重區河邊北街72-6號","121.50435","25.0685466666667","6500200","三重區"
"241023","545-UM","2017/10/06 19:39:51","新北市三重區忠孝路三段99巷4號","121.480005","25.0641666666667","6500200","三重區"
"241001","547-UM","2017/10/06 19:39:42","新北市三重區仁愛街315巷14號","121.493201666667","25.0796483333333","6500200","三重區"
"241033","557-UM","2017/10/06 19:39:38","新北市三重區五谷王南街46巷7號","121.474755","25.0449716666667","6500200","三重區"
"241035","743-BX","2017/10/06 19:39:50","新北市三重區信義西街28號","121.498498333333","25.0648083333333","6500200","三重區"
"241006","887-TS","2017/10/06 19:39:35","新北市三重區聯華街81號","121.485756666667","25.075395","6500200","三重區"
"241012","941-UM","2017/10/06 19:39:38","新北市三重區河邊北街262號","121.501605","25.0763066666667","6500200","三重區"
"241029","942-UM","2017/10/06 19:39:34","新北市三重區重安街102號","121.493008333333","25.0559733333333","6500200","三重區"
"235066","003-UY","2017/10/06 19:39:36","新北市中和區南工路22巷2號","121.505486666667","25.0005966666667","6500300","中和區"
"235064","005-UY","2017/10/06 19:39:45","新北市中和區南山路81巷19號","121.502446666667","24.9980916666667","6500300","中和區"
"235063","006-UY","2017/10/06 19:39:36","新北市中和區連城路145號","121.495603333333","24.9985933333333","6500300","中和區"
"235056","096-UM","2017/10/06 19:39:38","新北市中和區員山路581巷2弄34號","121.477403333333","25.0102266666667","6500300","中和區"
"235039","097-UM","2017/10/06 19:39:49","新北市中和區秀峰街103巷8弄2號","121.520201666667","24.9895483333333","6500300","中和區"
"235065","098-UM","2017/10/06 19:39:43","新北市中和區永和路64號","121.498826666667","25.0045133333333","6500300","中和區"
"235040","150-BY","2017/10/06 19:39:40","新北市中和區安平路38號","121.509945","24.9950283333333","6500300","中和區"
"235058","151-BY","2017/10/06 19:39:46","新北市中和區員山路132巷16號","121.482061666667","24.9962716666667","6500300","中和區"
"235055","183-VK","2017/10/06 19:39:35","新北市中和區中山路三段181巷10號","121.472873333333","25.0057583333333","6500300","中和區"
"235038","185-VK","2017/10/06 19:39:49","新北市中和區自立路127號","121.521933333333","24.99413","6500300","中和區"
"235049","186-VK","2017/10/06 19:39:33","新北市中和區安平路17號","121.50919","24.9941783333333","6500300","中和區"
"235067","255-BX","2017/10/06 19:39:46","新北市中和區新生街215號","121.483845","24.999575","6500300","中和區"
"235044","293-VK","2017/10/06 19:39:50","新北市中和區捷運路8號","121.509786666667","24.9896616666667","6500300","中和區"
"235072","301-VK","2017/10/06 19:39:38","新北市中和區連城路263巷8弄7號","121.491788333333","24.9952033333333","6500300","中和區"
"235043","352-BY","2017/10/06 19:39:36","新北市中和區興南路一段17號","121.511386666667","24.9909983333333","6500300","中和區"
"235068","375-QA","2017/10/06 19:39:47","新北市中和區景平路493巷2-4號","121.499753333333","24.997715","6500300","中和區"
"235051","376-QA","2017/10/06 19:39:37","新北市中和區板南路100號","121.503861666667","24.9925716666667","6500300","中和區"
"235061","378-QA","2017/10/06 19:39:34","新北市中和區民安街2巷19號","121.48024","25.0014183333333","6500300","中和區"
"235071","269-TV","2017/10/06 19:39:52","新北市中和區新生街114巷1號","121.48346","25.0024483333333","6500300","中和區"
"235050","4979-A6","2017/10/06 19:39:43","新北市中和區錦和路350-1號","121.490143333333","24.9935883333333","6500300","中和區"
"235042","551-UM","2017/10/06 19:39:43","新北市中和區中和路350巷8弄40號","121.50976","24.999895","6500300","中和區"
"235070","558-UM","2017/10/06 19:39:18","新北市中和區中和路69號","121.500761666667","25.0011366666667","6500300","中和區"
"235045","565-BX","2017/10/06 19:39:45","新北市中和區景新街383巷56號","121.514595","24.9906483333333","6500300","中和區"
"235054","640-BX","2017/10/06 19:39:48","新北市中和區國光街102巷11弄9號","121.47061","25.00109","6500300","中和區"
"235060","647-TV","2017/10/06 19:39:52","新北市中和區員山路314巷7弄4號","121.482155","25.00305","6500300","中和區"
"235047","732-UM","2017/10/06 19:39:41","新北市中和區景平路353號","121.504823333333","24.993425","6500300","中和區"
"235046","733-UM","2017/10/06 19:39:53","新北市中和區景新街496巷26弄1號","121.513338333333","24.98608","6500300","中和區"
"235062","800-TS","2017/10/06 19:39:39","新北市林口區太平里180號","121.368315","25.134225","6500300","中和區"
"235057","801-TS","2017/10/06 19:39:36","新北市中和區員山路437號","121.480821666667","25.0038366666667","6500300","中和區"
"235041","802-TS","2017/10/06 19:39:35","新北市中和區中和路350巷10號","121.510738333333","25.00046","6500300","中和區"
"235052","805-TS","2017/10/06 19:39:39","新北市中和區華新街206巷1號","121.506461666667","24.982085","6500300","中和區"
"235048","896-TW","2017/10/06 19:39:40","新北市中和區忠孝街5巷9號","121.509228333333","24.9831283333333","6500300","中和區"
"235053","900-TW","2017/10/06 19:39:39","新北市中和區華順街30巷5號","121.467153333333","24.99908","6500300","中和區"
"235037","AAC-213","2017/10/06 19:39:33","新北市中和區秀朗路三段10巷37弄13號","121.524126666667","24.9957733333333","6500300","中和區"
"235059","AAC-215","2017/10/06 19:39:48","新北市中和區圓通路337號","121.49174","24.99058","6500300","中和區"
"220065","072-UY","2017/10/06 19:39:38","新北市板橋區民族路222巷13號","121.468768333333","25.00683","6500100","板橋區"
"220086","073-UY","2017/10/06 19:39:41","新北市板橋區漢生西路89巷5弄7號","121.460733333333","25.0196616666667","6500100","板橋區"
"220106","075-UY","2017/10/06 19:39:42","新北市板橋區民治街26巷16號","121.477348333333","25.0336616666667","6500100","板橋區"
"220069","AAD-861","2017/10/06 19:39:49","新北市板橋區稚暉街46巷1號","121.456421666667","25.0043133333333","6500100","板橋區"
"220068","120-SR","2017/10/06 19:39:36","新北市板橋區中山路二段412巷29弄33號","121.484891666667","25.0200333333333","6500100","板橋區"
"247004","336-TH","2017/10/06 19:39:40","新北市蘆洲區中華街6巷12號","121.463073333333","25.08199","6501400","蘆洲區"
"247008","053-VK","2017/10/06 19:39:46","新北市蘆洲區中山一路176號","121.474111666667","25.08117","6501400","蘆洲區"
"226004","205-ST","2017/10/06 19:39:48","新北市平溪區十分里十分街67號","121.776105","25.0419216666667","6502400","平溪區"
"228001","670-TC","2017/10/06 19:39:35","新北市貢寮區真理里大澳街3號","121.924713333333","25.0557116666667","6502600","貢寮區"
"228003","828-UM","2017/10/06 19:39:40","新北市貢寮區真理里美艷山街15-3號","121.923703333333","25.06803","6502600","貢寮區"
"224010","AGQ-8101","2017/10/06 19:39:44","新北市瑞芳區汽車路18-1號","121.84519","25.10985","6501200","瑞芳區"
"224002","639-TC","2017/10/06 19:39:43","新北市瑞芳區民享新村3號","121.817381666667","25.1055083333333","6501200","瑞芳區"
"227003","642-TC","2017/10/06 19:39:52","新北市雙溪區雙溪里太平路15號","121.864323333333","25.0352316666667","6502500","雙溪區"
"227011","400-TW","2017/10/06 19:39:47","新北市雙溪區新基里新基南街6號","121.86702","25.0376016666667","6502500","雙溪區"
"208002","742-BX","2017/10/06 19:39:46","新北市金山區三民街9號","121.63468","25.2225766666667","6502700","金山區"
"208001","761-BX","2017/10/06 19:39:50","新北市金山區重和里六股林口24號","121.603401666667","25.219305","6502700","金山區"
"251013","180-VK","2017/10/06 19:39:31","新北市淡水區頂田寮路143號","121.46107","25.2172183333333","6501000","淡水區"
"251008","181-VK","2017/10/06 19:39:36","新北市淡水區中正路382號","121.428711666667","25.17572","6501000","淡水區"
"251015","182-VK","2017/10/06 19:39:35","新北市淡水區北新路三段180號","121.492843333333","25.19289","6501000","淡水區"
"251010","413-VK","2017/10/06 19:39:53","新北市淡水區崁頂三路135號","121.431431666667","25.2010133333333","6501000","淡水區"
"251012","441-VK","2017/10/06 19:39:41","新北市淡水區中山北路三段158號","121.4456","25.1961633333333","6501000","淡水區"
"251005","443-VK","2017/10/06 19:39:46","新北市淡水區原德路123號","121.443161666667","25.1734016666667","6501000","淡水區"
"251001","559-UM","2017/10/06 19:39:33","新北市淡水區民權路77號","121.459826666667","25.13859","6501000","淡水區"
"251006","561-UM","2017/10/06 19:39:36","新北市淡水區中山北路一段207巷26號","121.443403333333","25.1792316666667","6501000","淡水區"
"251009","575-R6","2017/10/06 19:39:41","新北市淡水區中山北路一段52號","121.441943333333","25.1756233333333","6501000","淡水區"
"251007","577-R6","2017/10/06 19:39:50","新北市淡水區中正東路一段39-1號","121.452086666667","25.1663866666667","6501000","淡水區"
"251011","650-BX","2017/10/06 19:39:52","新北市淡水區八勢一街32巷17號","121.461058333333","25.1556683333333","6501000","淡水區"
"207003","550-UM","2017/10/06 19:39:35","新北市萬里區大鵬里下社35號","121.649378333333","25.2169816666667","6502800","萬里區"
"207004","225-TW","2017/10/06 19:39:31","新北市萬里區萬里里瑪鋉路5-3號","121.68693","25.1753033333333","6502800","萬里區"
"252002","178-VK","2017/10/06 19:39:47","新北市三芝區中正路一段18巷56號","121.504335","25.2587016666667","6502100","三芝區"
"252001","292-VK","2017/10/06 19:39:39","新北市三芝區公正街66號","121.499785","25.2574633333333","6502100","三芝區"
"208003","170-UY","2017/10/06 19:39:43","新北市金山區仁愛路9號","121.637923333333","25.2196266666667","6502700","金山區"
"237004","078-UY","2017/10/06 19:39:42","新北市三峽區有木17號","121.425461666667","24.863225","6500900","三峽區"
"237007","153-BY","2017/10/06 19:39:41","新北市三峽區二鬮路136巷2弄37號","121.359471666667","24.9091816666667","6500900","三峽區"
"237009","210-TH","2017/10/06 19:39:50","新北市三峽區中園街88-3號","121.367463333333","24.9238916666667","6500900","三峽區"
"237013","252-BX","2017/10/06 19:39:44","新北市三峽區橫溪路15號","121.396241666667","24.9359083333333","6500900","三峽區"
"237012","275-BY","2017/10/06 19:39:37","新北市三峽區民生街3號","121.37462","24.9353983333333","6500900","三峽區"
"237008","302-VK","2017/10/06 19:39:36","新北市三峽區永安街183號","121.373166666667","24.9269133333333","6500900","三峽區"
"237014","433-BY","2017/10/06 19:39:47","新北市三峽區添福107號","121.373456666667","24.9026633333333","6500900","三峽區"
"237006","5529-G3","2017/10/06 19:39:43","新北市三峽區中正路一段330-10號","121.369923333333","24.9245733333333","6500900","三峽區"
"237015","649-BX","2017/10/06 19:39:50","新北市三峽區成福路217號","121.423483333333","24.92853","6500900","三峽區"
"237005","AKY-6261","2017/10/06 19:39:45","新北市三峽區中山路219巷17弄7號","121.363538333333","24.93627","6500900","三峽區"
"236072","105-UM","2017/10/06 19:39:40","新北市土城區清水路25巷13號","121.453416666667","24.9808533333333","6501300","土城區"
"236043","107-UM","2017/10/06 19:39:46","新北市土城區學士路12巷2號","121.453631666667","24.9830916666667","6501300","土城區"
"236079","166-UM","2017/10/06 19:39:52","新北市土城區中州路27巷34-1號","121.413116666667","24.95708","6501300","土城區"
"236031","253-BX","2017/10/06 19:39:41","新北市土城區福祥街56號","121.44144","24.9813433333333","6501300","土城區"
"236027","269-VK","2017/10/06 19:39:44","新北市土城區中央路二段61巷22號","121.443236666667","24.978825","6501300","土城區"
"236039","271-VK","2017/10/06 19:39:35","新北市土城區清水路98巷3弄45號","121.458506666667","24.9809016666667","6501300","土城區"
"236022","401-BY","2017/10/06 19:39:42","新北市土城區峰廷街3號","121.469235","24.98738","6501300","土城區"
"236050","913-UM","2017/10/06 19:39:54","新北市土城區延吉街331號","121.465236666667","24.98405","6501300","土城區"
"236063","915-UM","2017/10/06 19:39:40","新北市土城區延平街38號","121.468076666667","24.9919983333333","6501300","土城區"
"236055","AAC-216","2017/10/06 19:39:35","新北市土城區學府路一段202號","121.452588333333","24.9855483333333","6501300","土城區"
"242032","AAC-296","2017/10/06 19:39:49","新北市新莊區新泰路213巷50號","121.445155","25.03855","6500500","新莊區"
"242027","612-BX","2017/10/06 19:39:38","新北市新莊區新泰路357巷3弄57號","121.442213333333","25.0393566666667","6500500","新莊區"
"242044","497-BY","2017/10/06 19:39:40","新北市泰山區新北大道五段489號","121.430465","25.0415133333333","6500500","新莊區"
"242005","442-UM","2017/10/06 19:39:32","新北市新莊區化成路25-7號","121.464111666667","25.0434783333333","6500500","新莊區"
"242009","173-VK","2017/10/06 19:39:49","新北市新莊區新泰路255巷83號","121.442043333333","25.0388816666667","6500500","新莊區"
"242013","346-TH","2017/10/06 19:39:38","新北市新莊區中誠街123號","121.449368333333","25.0475916666667","6500500","新莊區"
"242019","348-TH","2017/10/06 19:39:42","新北市新莊區三和路12-19號","121.442313333333","25.0377516666667","6500500","新莊區"
"242056","349-TH","2017/10/06 19:39:32","新北市新莊區瓊林路59-20號","121.440828333333","25.02172","6500500","新莊區"
"238015","755-BX","2017/10/06 19:39:49","新北市樹林區日新街93號","121.42154","24.9901716666667","6500700","樹林區"
"238023","601-UM","2017/10/06 19:39:39","新北市樹林區三福街114號","121.406463333333","25.0163166666667","6500700","樹林區"
"238024","5061-A6","2017/10/06 19:39:39","新北市樹林區山佳街41號","121.393273333333","24.9727","6500700","樹林區"
"238021","KEA-2217","2017/10/06 19:39:38","新北市樹林區學林路1號","121.377045","24.9486033333333","6500700","樹林區"
"238022","KEA-2213","2017/10/06 19:39:45","新北市樹林區太元街51號","121.418726666667","24.9791266666667","6500700","樹林區"
"238018","308-TH","2017/10/06 19:39:51","新北市樹林區中華路16號","121.42108","24.982215","6500700","樹林區"
"238025","303-VK","2017/10/06 19:39:36","新北市樹林區中山路一段338號","121.419535","24.9861766666667","6500700","樹林區"
"238017","283-BY","2017/10/06 19:39:49","新北市樹林區光興街78-1號","121.407773333333","25.00249","6500700","樹林區"
"238014","282-BY","2017/10/06 19:39:42","新北市樹林區保安二街75號","121.424471666667","24.9950633333333","6500700","樹林區"
"238020","268-VK","2017/10/06 19:39:42","新北市樹林區俊英街102號","121.427513333333","25.005185","6500700","樹林區"
"238026","172-UY","2017/10/06 19:39:38","新北市樹林區佳園路二段74-1號","121.390498333333","24.9592566666667","6500700","樹林區"
"239006","891-R6","2017/10/06 19:39:46","新北市鶯歌區重慶街29號","121.35153","24.9523233333333","6500800","鶯歌區"
"239002","359-BY","2017/10/06 19:39:39","新北市鶯歌區中正一路436-1號","121.361938333333","24.9570283333333","6500800","鶯歌區"
"221008","489-VK","2017/10/06 19:39:47","新北市汐止區康寧街83巷113號","121.620351666667","25.0671583333333","6501100","汐止區"
"221036","130-UY","2017/10/06 19:39:40","新北市汐止區汐萬路一段256巷1號","121.65176","25.0748416666667","6501100","汐止區"
"221015","131-UY","2017/10/06 19:39:33","新北市汐止區康寧街901號","121.651636666667","25.07499","6501100","汐止區"
"221010","269-BY","2017/10/06 19:39:47","新北市汐止區汐萬路二段59號","121.649395","25.0821166666667","6501100","汐止區"
"221012","276-VK","2017/10/06 12:58:55","新北市汐止區汐萬路一段256巷3號","121.653448333333","25.0746166666667","6501100","汐止區"
"221012","278-VK","2017/10/06 19:39:39","新北市汐止區大同路三段330號","121.679353333333","25.0709166666667","6501100","汐止區"
"221023","279-VK","2017/10/06 19:39:47","新北市汐止區民族六街10巷2號","121.630156666667","25.0694816666667","6501100","汐止區"
"221027","281-BY","2017/10/06 19:39:47","新北市汐止區忠孝東路9號","121.65826","25.0660066666667","6501100","汐止區"
"221029","298-VK","2017/10/06 19:39:46","新北市汐止區康寧街901號","121.651705","25.0749233333333","6501100","汐止區"
"221021","299-VK","2017/10/06 19:39:42","新北市汐止區南興路8號","121.651935","25.0627483333333","6501100","汐止區"
"221031","353-TW","2017/10/06 19:39:44","新北市汐止區福德三路127號","121.63362","25.067645","6501100","汐止區"
"221025","623-UM","2017/10/06 19:39:51","新北市汐止區福安街20巷16號","121.662116666667","25.0646916666667","6501100","汐止區"
"221038","646-BX","2017/10/06 19:39:48","新北市汐止區忠孝東路227號","121.662471666667","25.0670383333333","6501100","汐止區"
"221033","647-BX","2017/10/06 19:39:46","台北市南港區舊莊街二段9號","121.625013333333","25.037635","6501100","汐止區"
"220079","145-BY","2017/10/06 19:39:47","新北市板橋區建國街56號","121.458855","25.01693","6500100","板橋區"
"220082","610-BX","2017/10/06 19:39:49","新北市板橋區篤行路一段30號","121.43187","24.9940183333333","6500100","板橋區"
"220101","245-BX","2017/10/06 19:39:51","新北市板橋區莊敬路168號","121.47177","25.0226366666667","6500100","板橋區"
"220096","257-TC","2017/10/06 19:39:38","新北市板橋區民生路二段226巷8弄1號","121.470421666667","25.021755","6500100","板橋區"
"220091","267-BY","2017/10/06 19:39:45","新北市板橋區懷德街139巷20弄8號","121.480086666667","25.030575","6500100","板橋區"
"220056","276-BY","2017/10/06 19:39:43","新北市板橋區四川路二段47巷3弄2號","121.454191666667","24.994665","6500100","板橋區"
"220072","277-BY","2017/10/06 19:39:50","新北市板橋區金門街253巷17弄3號","121.433216666667","24.98885","6500100","板橋區"
"220064","280-UM","2017/10/06 19:39:32","新北市板橋區中山路一段24號","121.460321666667","25.0082083333333","6500100","板橋區"
"220071","283-VK","2017/10/06 19:39:52","新北市板橋區四川路一段325巷3弄3號","121.45945","25.0004283333333","6500100","板橋區"
"220094","285-UM","2017/10/06 19:39:50","新北市板橋區銘傳街58號","121.468756666667","25.030825","6500100","板橋區"
"220053","285-VK","2017/10/06 19:39:38","新北市板橋區民享街91號","121.477031666667","25.015915","6500100","板橋區"
"220083","286-VK","2017/10/06 19:39:36","新北市板橋區龍興街71巷38號","121.442205","25.002525","6500100","板橋區"
"220081","287-VK","2017/10/06 19:19:25","新北市板橋區南雅西路一段61號","121.453421666667","25.00552","6500100","板橋區"
"220090","288-VK","2017/10/06 19:39:53","新北市板橋區裕民街114號","121.4594","25.0278016666667","6500100","板橋區"
"220061","293-UM","2017/10/06 19:39:48","新北市板橋區中山路二段157號","121.475646666667","25.0166833333333","6500100","板橋區"
"220084","296-UM","2017/10/06 19:39:48","新北市板橋區滿平二街43-4號","121.42508","24.9879666666667","6500100","板橋區"
"220075","297-UM","2017/10/06 19:39:43","新北市板橋區大勇街3號","121.45574","25.0176916666667","6500100","板橋區"
"220092","299-UM","2017/10/06 19:39:36","新北市板橋區文化路二段80號","121.469548333333","25.025575","6500100","板橋區"
"220062","303-R5","2017/10/06 19:39:45","新北市板橋區三民路二段29巷15號","121.481996666667","25.0181233333333","6500100","板橋區"
"220098","317-R6","2017/10/06 19:39:44","新北市板橋區四維路269巷46-2號","121.461311666667","25.0275333333333","6500100","板橋區"
"220080","461-BY","2017/10/06 19:39:50","新北市板橋區大觀路二段153巷46弄16號","121.449045","24.99979","6500100","板橋區"
"220089","487-VK","2017/10/06 19:39:41","新北市板橋區英士路76號","121.460188333333","25.0242483333333","6500100","板橋區"
"242011","280-VK","2017/10/06 19:39:44","新北市新莊區幸福路914號","121.44243","25.0486383333333","6500500","新莊區"
"220088","491-VK","2017/10/06 19:39:45","新北市板橋區文化路二段568號","121.476446666667","25.0344333333333","6500100","板橋區"
"220035","560-BX","2017/10/06 19:39:50","新北市板橋區新生街88巷7號","121.458351666667","25.0215116666667","6500100","板橋區"
"220103","561-BX","2017/10/06 19:39:33","新北市板橋區文化路一段286巷13號","121.468131666667","25.0215466666667","6500100","板橋區"
"220054","568-UM","2017/10/06 19:39:45","新北市板橋區光明街15號","121.460496666667","25.0026133333333","6500100","板橋區"
"220063","609-BX","2017/10/06 19:39:45","新北市板橋區林森街3巷1弄6號","121.482665","25.0236466666667","6500100","板橋區"
"220057","686-BX","2017/10/06 19:39:48","新北市板橋區國慶路124號","121.46054","24.9959233333333","6500100","板橋區"
"220077","687-BX","2017/10/06 19:39:51","新北市板橋區僑中三街11號","121.446378333333","25.00423","6500100","板橋區"
"220093","689-BX","2017/10/06 19:39:51","新北市板橋區新海路436號","121.458018333333","25.0276933333333","6500100","板橋區"
"220055","827-TW","2017/10/06 19:39:44","新北市板橋區國慶路149巷13弄13號","121.46045","24.9970366666667","6500100","板橋區"
"220067","829-TW","2017/10/06 19:39:39","新北市板橋區漢生東路279巷10弄9號","121.472145","25.0087516666667","6500100","板橋區"
"220102","830-TW","2017/10/06 19:39:43","新北市板橋區雙十路二段70巷33號","121.475966666667","25.0286866666667","6500100","板橋區"
"220074","895-R6","2017/10/06 19:39:49","新北市板橋區文化路一段11號","121.457848333333","25.0100283333333","6500100","板橋區"
"220073","985-R7","2017/10/06 19:39:30","新北市板橋區國光路67巷14號","121.458978333333","25.0187533333333","6500100","板橋區"
"220097","AAC-210","2017/10/06 19:39:49","新北市板橋區幸福路31-2號","121.461635","25.0202133333333","6500100","板橋區"
"220070","AAC-253","2017/10/06 19:39:53","新北市板橋區民族路254號","121.469301666667","25.0072166666667","6500100","板橋區"
