"lineid","car","time","location","longitude","latitude","cityid","cityname"
"234046","148-BY","2017/10/06 19:49:48","新北市永和區永元路95巷2號","121.52241","25.0020183333333","6500400","永和區"
"234013","149-BY","2017/10/06 18:34:16","新北市永和區福和路1號","121.526565","25.0100383333333","6500400","永和區"
"234007","207-UY","2017/10/06 19:49:38","新北市中和區中和路236號","121.506898333333","24.9995766666667","6500400","永和區"
"234081","298-R6","2017/10/06 19:49:41","新北市永和區永利路81巷21號","121.522293333333","25.0038533333333","6500400","永和區"
"234038","336-UY","2017/10/06 19:49:39","新北市永和區民樂街70號","121.527438333333","24.9983166666667","6500400","永和區"
"234064","337-UY","2017/10/06 19:49:40","新北市永和區中正路368巷29號","121.518635","25.000815","6500400","永和區"
"234086","338-UY","2017/10/06 19:49:40","新北市永和區林森路41巷31號","121.526193333333","25.0042566666667","6500400","永和區"
"234070","552-UM","2017/10/06 19:49:50","新北市永和區竹林路88號","121.519356666667","25.0125683333333","6500400","永和區"
"234054","553-UM","2017/10/06 19:49:45","新北市永和區竹林路75巷25弄3號","121.520171666667","25.0141133333333","6500400","永和區"
"234017","745-BX","2017/10/06 19:49:43","新北市永和區永和路二段299號","121.516098333333","25.016155","6500400","永和區"
"234061","AAD-866","2017/10/06 19:49:40","新北市永和區中正路151巷1-1號","121.516243333333","24.9981083333333","6500400","永和區"
"234030","847-RS","2017/10/06 19:49:49","新北市永和區民生路67巷41號","121.524911666667","24.997465","6500400","永和區"
"234042","862-TW","2017/10/06 19:49:40","新北市永和區中和路305巷10弄2號","121.506886666667","25.000695","6500400","永和區"
"234050","863-TW","2017/10/06 19:49:45","新北市永和區環河西路一段107號","121.510956666667","25.017565","6500400","永和區"
"234026","9371-KE","2017/10/06 19:49:44","新北市永和區雙和街60號","121.509013333333","25.0033516666667","6500400","永和區"
"234011","9373-KE","2017/10/06 19:49:41","新北市永和區仁愛路310號","121.502991666667","25.0075","6500400","永和區"
"249001","173-UM","2017/10/06 19:49:33","新北市八里區中華路二段252號","121.405386666667","25.1496966666667","6502300","八里區"
"249004","303-UY","2017/10/06 19:47:52","新北市八里區仁愛路39號","121.413291666667","25.1606133333333","6502300","八里區"
"249002","305-UY","2017/10/06 19:49:47","新北市八里區頂寮二街35號","121.450283333333","25.125155","6502300","八里區"
"249003","593-UM","2017/10/06 19:49:45","新北市八里區華峰三街35號","121.398415","25.1453583333333","6502300","八里區"
"248014","025-BX","2017/10/06 19:49:38","新北市五股區五福路52巷11弄4號","121.43397","25.0900366666667","6501500","五股區"
"248016","026-BX","2017/10/06 19:49:33","新北市五股區成泰路四段18-1號","121.453618333333","25.1065916666667","6501500","五股區"
"248008","095-VK","2017/10/06 19:49:51","新北市五股區四維路185巷1號","121.468323333333","25.07589","6501500","五股區"
"248018","225-UY","2017/10/06 19:23:27","新北市五股區壟路19號","121.413025","25.0850883333333","6501500","五股區"
"248012","247-BX","2017/10/06 19:49:35","新北市五股區蓬萊路24號","121.434241666667","25.0797483333333","6501500","五股區"
"248010","272-BY","2017/10/06 19:49:42","新北市五股區登林路76-9號","121.429895","25.0693583333333","6501500","五股區"
"248004","677-BX","2017/10/06 19:49:49","新北市五股區成泰路一段197號","121.43514","25.076745","6501500","五股區"
"248002","678-BX","2017/10/06 19:45:49","新北市五股區成泰路三段599號","121.45252","25.1031066666667","6501500","五股區"
"234023","9380-KE","2017/10/06 19:49:51","新北市永和區豫溪街57巷4弄1號","121.51735","25.0102333333333","6500400","永和區"
"234077","969-R7","2017/10/06 19:49:51","新北市永和區智光街53號","121.517165","24.9979566666667","6500400","永和區"
"234074","AAC-211","2017/10/06 19:49:44","新北市永和區竹林路215號","121.52099","25.0088483333333","6500400","永和區"
"234066","AAC-212","2017/10/06 19:49:38","新北市永和區中山路一段191巷7弄2號","121.509501666667","25.00829","6500400","永和區"
"234003","AAC-295","2017/10/06 19:49:47","新北市永和區福和路320號","121.515668333333","25.0073016666667","6500400","永和區"
"244019","403-UM","2017/10/06 19:49:33","新北市林口區四維路114號","121.377313333333","25.0782766666667","6501700","林口區"
"244023","483-VK","2017/10/06 19:49:37","新北市林口區文林六街2-1號","121.370415","25.0799083333333","6501700","林口區"
"244021","838-TS","2017/10/06 18:26:12","新北市林口區自強四街18號","121.399355","25.0765383333333","6501700","林口區"
"243013","AAD-798","2017/10/06 19:49:27","新北市泰山區應化街7號","121.423893333333","25.04373","6501600","泰山區"
"243009","297-R6","2017/10/06 19:49:44","新北市泰山區美寧街76號","121.431508333333","25.0646266666667","6501600","泰山區"
"243015","380-SR","2017/10/06 19:49:46","新北市泰山區明志路二段214巷5號","121.426975","25.0488833333333","6501600","泰山區"
"243014","421-VK","2017/10/06 19:49:40","新北市泰山區泰林路二段33-8號","121.435208333333","25.0565916666667","6501600","泰山區"
"243010","KEA-2215","2017/10/06 19:49:41","新北市泰山區民生路33號","121.430583333333","25.0522133333333","6501600","泰山區"
"243011","KEA-2216","2017/10/06 19:49:36","新北市泰山區明志路三段196巷44號","121.422006666667","25.0397183333333","6501600","泰山區"
"243012","646-TV","2017/10/06 19:49:38","新北市泰山區全興路13號","121.432363333333","25.05896","6501600","泰山區"
"243016","680-BX","2017/10/06 19:49:37","新北市泰山區新北大道六段379號","121.422045","25.03263","6501600","泰山區"
"222003","436-BY","2017/10/06 19:30:56","新北市深坑區深南路51-1號","121.621151666667","25.01003","6501800","深坑區"
"222001","628-TS","2017/10/06 19:49:51","新北市深坑區北深路三段47號","121.607866666667","25.0012666666667","6501800","深坑區"
"222002","659-BX","2017/10/06 19:49:38","新北市深坑區北深路二段16號","121.621068333333","25.004515","6501800","深坑區"
"231041","002-UM","2017/10/06 19:49:32","新北市新店區中央路226號","121.529646666667","24.9727633333333","6500600","新店區"
"231059","046-UY","2017/10/06 19:49:40","新北市新店區安和路一段13號","121.516758333333","24.9640916666667","6500600","新店區"
"231061","047-UY","2017/10/06 19:49:42","新北市新店區安民街318號","121.517541666667","24.9742783333333","6500600","新店區"
"231060","106-UY","2017/10/06 19:49:35","新北市新店區安康路二段163號","121.510025","24.95932","6500600","新店區"
"231051","107-UY","2017/10/06 19:49:48","新北市新店區中央三街59號","121.52705","24.974915","6500600","新店區"
"231053","187-VK","2017/10/06 19:49:40","新北市新店區新烏路二段370號","121.550968333333","24.9098266666667","6500600","新店區"
"231064","188-VK","2017/10/06 19:49:36","新北市新店區安和路一段55號","121.517561666667","24.96612","6500600","新店區"
"231050","215-TC","2017/10/06 19:49:47","新北市新店區北宜路二段335號","121.557468333333","24.953955","6500600","新店區"
"231057","256-BX","2017/10/06 19:49:51","新北市新店區梅崗三路1號","121.558096666667","24.9311833333333","6500600","新店區"
"231063","268-BY","2017/10/06 19:49:42","新北市新店區黎明路3號","121.503555","24.952445","6500600","新店區"
"231046","278-BY","2017/10/06 19:49:44","新北市新店區三民路159巷19弄44號","121.53219","24.97327","6500600","新店區"
"231054","AAD-862","2017/10/06 19:49:33","新北市新店區光明街89號","121.539045","24.96092","6500600","新店區"
"231058","3712-VJ","2017/10/06 19:49:38","新北市新店區中正路102巷4號","121.543331666667","24.9708266666667","6500600","新店區"
"231055","3713-VJ","2017/10/06 19:49:38","新北市新店區新生街1號","121.540388333333","24.965665","6500600","新店區"
"231056","4716-K9","2017/10/06 19:49:47","新北市新店區中央路22-1號","121.533316666667","24.9784166666667","6500600","新店區"
"231067","4772-VM","2017/10/06 19:49:41","新北市新店區秀山路11巷8號","121.531913333333","24.9593783333333","6500600","新店區"
"231065","512-UM","2017/10/06 19:49:49","新北市新店區安祥路109巷151弄10號","121.478156666667","24.95893","6500600","新店區"
"231048","513-UM","2017/10/06 19:49:47","新北市新店區寶興路63巷2號","121.550881666667","24.97175","6500600","新店區"
"231045","617-UM","2017/10/06 19:49:39","新北市新店區北宜路二段360-1號","121.564625","24.9526766666667","6500600","新店區"
"231040","619-UM","2017/10/06 19:49:49","新北市新店區中正路75巷71號","121.54309","24.9688416666667","6500600","新店區"
"231042","641-BX","2017/10/06 19:49:38","新北市新店區中興路一段273號","121.545116666667","24.968155","6500600","新店區"
"231049","719-UM","2017/10/06 19:49:36","新北市新店區民權路127巷7號","121.535466666667","24.981845","6500600","新店區"
"231062","720-UM","2017/10/06 19:49:43","新北市新店區永業路81巷1弄1-1號","121.529301666667","24.9491783333333","6500600","新店區"
"231044","897-TW","2017/10/06 19:49:32","新北市新店區順安街69號","121.540711666667","24.98666","6500600","新店區"
"231043","899-TW","2017/10/06 19:49:36","新北市新店區中正路263-3號","121.538355","24.9737933333333","6500600","新店區"
"231066","AKT-0513","2017/10/06 19:49:35","新北市新店區安德街60巷5號","121.510096666667","24.962885","6500600","新店區"
"241011","013-R5","2017/10/06 19:49:50","新北市三重區三和路二段173巷43號","121.499265","25.0702283333333","6500200","三重區"
"241028","022-UY","2017/10/06 19:49:38","新北市三重區中正南路163號","121.493698333333","25.0560683333333","6500200","三重區"
"241008","059-VK","2017/10/06 19:49:51","新北市三重區永福街96號","121.478811666667","25.07592","6500200","三重區"
"241009","060-VK","2017/10/06 19:49:46","新北市三重區三和路四段396巷43號","121.479621666667","25.0788333333333","6500200","三重區"
"241015","062-VK","2017/10/06 19:49:40","新北市三重區三和路一段2號","121.503853333333","25.0643333333333","6500200","三重區"
"241017","063-VK","2017/10/06 19:49:35","新北市三重區重陽路三段5巷10號","121.48939","25.0661466666667","6500200","三重區"
"241003","091-VK","2017/10/06 19:49:52","新北市三重區五華街93巷55號","121.493085","25.0844233333333","6500200","三重區"
"241026","156-TC","2017/10/06 19:49:40","新北市三重區文化南路67號","121.500248333333","25.0608033333333","6500200","三重區"
"241016","266-UM","2017/10/06 19:49:44","新北市三重區正德街53號","121.4957","25.063025","6500200","三重區"
"241022","267-UM","2017/10/06 19:49:46","新北市三重區新北大道一段7號","121.489888333333","25.06152","6500200","三重區"
"241018","268-UM","2017/10/06 19:49:49","新北市三重區雙園街57巷3號","121.4949","25.06761","6500200","三重區"
"241032","269-UM","2017/10/06 19:49:36","新北市三重區重陽路一段44巷5號","121.48613","25.057755","6500200","三重區"
"241013","270-UM","2017/10/06 19:49:46","新北市三重區仁愛街112巷14號","121.494718333333","25.0739583333333","6500200","三重區"
"241025","271-UM","2017/10/06 19:49:49","新北市三重區大有街1-1號","121.477711666667","25.0654883333333","6500200","三重區"
"241007","398-BY","2017/10/06 19:49:50","新北市三重區三和路四段137號","121.484586666667","25.07803","6500200","三重區"
"241031","KEA-2210","2017/10/06 19:49:44","新北市三重區重新路四段101-6號","121.485705","25.054035","6500200","三重區"
"241020","413-TH","2017/10/06 19:49:37","新北市三重區三和路四段20巷26號","121.489961666667","25.073275","6500200","三重區"
"241004","475-VK","2017/10/06 19:49:36","新北市三重區五華街74號","121.493503333333","25.0819583333333","6500200","三重區"
"241019","478-VK","2017/10/06 19:49:38","新北市三重區三張街106號","121.48774","25.0697683333333","6500200","三重區"
"241030","480-VK","2017/10/06 19:49:50","新北市三重區集成路6號","121.4884","25.05196","6500200","三重區"
"241014","543-UM","2017/10/06 19:49:48","新北市三重區長安街82號","121.501486666667","25.0676566666667","6500200","三重區"
"241023","545-UM","2017/10/06 19:49:31","新北市三重區頂崁街172號","121.477583333333","25.065935","6500200","三重區"
"241001","547-UM","2017/10/06 19:49:42","新北市三重區仁愛街327巷26號","121.492915","25.07993","6500200","三重區"
"241033","557-UM","2017/10/06 19:49:19","新北市三重區中興南街64號","121.470643333333","25.0441016666667","6500200","三重區"
"241035","743-BX","2017/10/06 19:49:30","新北市三重區大榮街34號","121.498646666667","25.06347","6500200","三重區"
"241006","887-TS","2017/10/06 19:49:35","新北市三重區永福街192號","121.48168","25.074265","6500200","三重區"
"241012","941-UM","2017/10/06 19:49:38","新北市三重區仁興街28巷41號","121.498161666667","25.0751033333333","6500200","三重區"
"241029","942-UM","2017/10/06 19:49:34","新北市三重區光明路13巷11號","121.490711666667","25.0585583333333","6500200","三重區"
"235066","003-UY","2017/10/06 19:49:35","新北市中和區中山路二段60號","121.504051666667","25.0046766666667","6500300","中和區"
"235064","005-UY","2017/10/06 19:49:45","新北市中和區南山路127巷21號","121.503146666667","24.9973816666667","6500300","中和區"
"235063","006-UY","2017/10/06 19:49:40","新北市中和區連城路263巷7弄1號","121.49216","24.9959433333333","6500300","中和區"
"235056","096-UM","2017/10/06 19:49:38","新北市中和區中山路三段114巷46號","121.475793333333","25.007345","6500300","中和區"
"235039","097-UM","2017/10/06 19:49:49","新北市中和區大勇街27巷1號","121.517255","24.9934183333333","6500300","中和區"
"235065","098-UM","2017/10/06 19:49:43","新北市中和區莊敬路1-5號","121.499573333333","25.004415","6500300","中和區"
"235040","150-BY","2017/10/06 19:49:40","新北市中和區安平路59號","121.50967","24.99496","6500300","中和區"
"235058","151-BY","2017/10/06 19:49:46","新北市中和區員山路187號","121.481221666667","24.99712","6500300","中和區"
"235055","183-VK","2017/10/06 19:49:36","新北市中和區德光路14號","121.47126","25.004515","6500300","中和區"
"235038","185-VK","2017/10/06 19:49:49","新北市中和區自立路141巷3號","121.522451666667","24.9936233333333","6500300","中和區"
"235049","186-VK","2017/10/06 19:49:36","新北市中和區中興街37號","121.500718333333","24.9944066666667","6500300","中和區"
"235067","255-BX","2017/10/06 19:49:46","新北市中和區新生街186巷4號","121.483378333333","24.99973","6500300","中和區"
"235044","293-VK","2017/10/06 19:49:50","新北市中和區南山路399巷7號","121.506853333333","24.99027","6500300","中和區"
"235072","301-VK","2017/10/06 19:49:38","新北市中和區中正路432巷36號","121.490785","24.995805","6500300","中和區"
"235043","352-BY","2017/10/06 19:49:36","新北市中和區華新街228號","121.506105","24.9817633333333","6500300","中和區"
"235068","375-QA","2017/10/06 19:49:47","新北市中和區永和路56號","121.49925","25.0040966666667","6500300","中和區"
"235051","376-QA","2017/10/06 19:49:37","新北市中和區中興街127號","121.500056666667","24.9917133333333","6500300","中和區"
"235061","378-QA","2017/10/06 19:49:52","新北市中和區員山路226巷3弄16號","121.481951666667","25.0012483333333","6500300","中和區"
"235071","269-TV","2017/10/06 19:49:52","新北市中和區永和路335-1號","121.48491","25.01147","6500300","中和區"
"235050","4979-A6","2017/10/06 19:49:43","新北市中和區景平路241巷82弄34號","121.506468333333","24.9925233333333","6500300","中和區"
"235069","4980-A6","2017/10/06 19:49:52","新北市中和區圓通路128號","121.498511666667","24.9958583333333","6500300","中和區"
"235042","551-UM","2017/10/06 19:49:43","新北市中和區景安路79巷37弄1號","121.507571666667","24.9964216666667","6500300","中和區"
"235070","558-UM","2017/10/06 19:46:17","新北市中和區景平路634-3號","121.499666666667","24.9991433333333","6500300","中和區"
"235045","565-BX","2017/10/06 19:49:45","新北市中和區安樂路17號","121.51165","24.9921733333333","6500300","中和區"
"235054","640-BX","2017/10/06 19:49:48","新北市中和區民德路132號","121.46874","25.0007016666667","6500300","中和區"
"235060","647-TV","2017/10/06 19:49:32","新北市中和區新生街16巷4號","121.482806666667","25.00435","6500300","中和區"
"235047","732-UM","2017/10/06 19:48:21","新北市中和區興南路一段57-1號","121.510495","24.9898466666667","6500300","中和區"
"235046","733-UM","2017/10/06 19:49:33","新北市中和區仁愛街41號","121.51103","24.98848","6500300","中和區"
"235062","800-TS","2017/10/06 19:49:39","新北市八里區中山路三段106號","121.393416666667","25.1438083333333","6500300","中和區"
"235057","801-TS","2017/10/06 19:49:36","新北市中和區員山路150-5號","121.481326666667","24.99745","6500300","中和區"
"235041","802-TS","2017/10/06 19:49:35","新北市中和區中和路458巷8號","121.512396666667","25.0036433333333","6500300","中和區"
"235052","805-TS","2017/10/06 19:49:39","新北市中和區華新街30巷15號","121.507076666667","24.9842316666667","6500300","中和區"
"235048","896-TW","2017/10/06 19:49:49","新北市中和區興南路一段147號","121.50872","24.9873733333333","6500300","中和區"
"235053","900-TW","2017/10/06 19:49:39","新北市中和區國光街213號","121.466443333333","25.0017483333333","6500300","中和區"
"235037","AAC-213","2017/10/06 19:49:33","新北市中和區秀朗路三段141號","121.524973333333","24.9924416666667","6500300","中和區"
"235059","AAC-215","2017/10/06 19:49:48","新北市中和區圓通路305巷18號","121.494991666667","24.9890133333333","6500300","中和區"
"220065","072-UY","2017/10/06 19:49:38","新北市板橋區民族路276巷1弄1號","121.46989","25.0066283333333","6500100","板橋區"
"220086","073-UY","2017/10/06 19:49:41","新北市板橋區中正路1巷4號","121.455686666667","25.011905","6500100","板橋區"
"220106","075-UY","2017/10/06 19:49:42","新北市板橋區民治街57巷26號","121.480088333333","25.033955","6500100","板橋區"
"220069","AAD-861","2017/10/06 19:49:49","新北市板橋區稚暉街2巷46號","121.455173333333","25.0029","6500100","板橋區"
"220068","120-SR","2017/10/06 19:49:53","新北市板橋區光復街136號","121.484213333333","25.0191216666667","6500100","板橋區"
"247002","337-TH","2017/10/06 19:49:38","新北市蘆洲區永樂街38巷40號","121.458453333333","25.0900683333333","6501400","蘆洲區"
"247004","336-TH","2017/10/06 19:49:39","新北市蘆洲區中原路57號","121.459003333333","25.0822083333333","6501400","蘆洲區"
"247006","056-VK","2017/10/06 19:49:47","新北市蘆洲區永安南路二段38-1號","121.466841666667","25.07733","6501400","蘆洲區"
"247008","053-VK","2017/10/06 19:49:46","新北市蘆洲區信義路121號","121.478616666667","25.0801633333333","6501400","蘆洲區"
"247014","007-UY","2017/10/06 19:49:43","新北市蘆洲區復興路11號","121.472031666667","25.085345","6501400","蘆洲區"
"226004","205-ST","2017/10/06 19:49:48","新北市平溪區十分里十分街312號","121.77502","25.0434766666667","6502400","平溪區"
"228001","670-TC","2017/10/06 19:49:35","新北市貢寮區真理里新港街95號","121.926763333333","25.0567883333333","6502600","貢寮區"
"228003","828-UM","2017/10/06 19:49:49","新北市貢寮區真理里延平街151號","121.925066666667","25.0579733333333","6502600","貢寮區"
"224010","AGQ-8101","2017/10/06 19:49:44","新北市瑞芳區基山街177號","121.843355","25.1078516666667","6501200","瑞芳區"
"227003","642-TC","2017/10/06 19:49:40","新北市雙溪區雙溪里內挖路36號","121.863176666667","25.0368","6502500","雙溪區"
"227011","400-TW","2017/10/06 19:49:47","新北市雙溪區新基里新基南街25號","121.866223333333","25.0380983333333","6502500","雙溪區"
"208002","742-BX","2017/10/06 19:49:46","新北市金山區中華路360號","121.633053333333","25.2242733333333","6502700","金山區"
"208001","761-BX","2017/10/06 19:49:40","新北市金山區重和里茅埔頭2號","121.60458","25.21727","6502700","金山區"
"251004","009-UM","2017/10/06 19:45:01","新北市淡水區民權路187巷17號","121.460305","25.1336283333333","6501000","淡水區"
"251013","180-VK","2017/10/06 19:49:33","新北市淡水區頂田寮2-1號","121.46023","25.213325","6501000","淡水區"
"251008","181-VK","2017/10/06 19:49:36","新北市淡水區中正路一段24巷7號","121.426715","25.17698","6501000","淡水區"
"251015","182-VK","2017/10/06 19:49:35","新北市淡水區北新路三段40號","121.484403333333","25.187395","6501000","淡水區"
"251012","441-VK","2017/10/06 19:49:41","新北市淡水區中山北路三段164號","121.445991666667","25.1967533333333","6501000","淡水區"
"251005","443-VK","2017/10/06 19:49:33","新北市淡水區中正東路63號","121.446666666667","25.1673983333333","6501000","淡水區"
"251001","559-UM","2017/10/06 19:49:53","新北市淡水區中正東路二段87-1號","121.459585","25.1529133333333","6501000","淡水區"
"251006","561-UM","2017/10/06 19:49:36","新北市淡水區水碓街15號","121.443526666667","25.1769833333333","6501000","淡水區"
"251009","575-R6","2017/10/06 19:49:41","新北市淡水區中正路38-1號","121.443723333333","25.1693516666667","6501000","淡水區"
"251011","650-BX","2017/10/06 19:49:32","新北市淡水區水源街二段189-4號","121.456228333333","25.176935","6501000","淡水區"
"207003","550-UM","2017/10/06 19:49:35","新北市萬里區磺潭里公館崙5號","121.641955","25.2143083333333","6502800","萬里區"
"207004","225-TW","2017/10/06 19:49:44","新北市萬里區萬里里瑪鋉路224號","121.689243333333","25.1803166666667","6502800","萬里區"
"252002","178-VK","2017/10/06 19:49:47","新北市三芝區三民街33-1號","121.504615","25.2585616666667","6502100","三芝區"
"252001","292-VK","2017/10/06 19:49:39","新北市三芝區公正街66號","121.49978","25.2574683333333","6502100","三芝區"
"208003","170-UY","2017/10/06 19:49:43","新北市金山區清泉里清水路36號","121.629886666667","25.2310366666667","6502700","金山區"
"237004","078-UY","2017/10/06 19:49:41","新北市三峽區金敏5號","121.384413333333","24.875125","6500900","三峽區"
"237007","153-BY","2017/10/06 19:49:41","新北市三峽區二鬮路136巷20弄77號","121.357971666667","24.90927","6500900","三峽區"
"237009","210-TH","2017/10/06 19:49:50","新北市三峽區民權街203號","121.367745","24.92843","6500900","三峽區"
"237013","252-BX","2017/10/06 19:49:44","新北市三峽區介壽路二段165號","121.394125","24.935995","6500900","三峽區"
"237012","275-BY","2017/10/06 19:49:37","新北市三峽區中華路13號","121.373816666667","24.932275","6500900","三峽區"
"237008","302-VK","2017/10/06 19:49:36","新北市三峽區中華路138號","121.370676666667","24.9270916666667","6500900","三峽區"
"237014","433-BY","2017/10/06 19:49:47","新北市三峽區中正路一段270號","121.371805","24.92653","6500900","三峽區"
"237006","5529-G3","2017/10/06 19:49:43","新北市三峽區中正路一段330-3號","121.370543333333","24.9248933333333","6500900","三峽區"
"237015","649-BX","2017/10/06 19:49:51","新北市三峽區溪東路218巷2-2號","121.407423333333","24.9319116666667","6500900","三峽區"
"237005","AKY-6261","2017/10/06 19:49:45","新北市三峽區復興路1號","121.374293333333","24.9357666666667","6500900","三峽區"
"236072","105-UM","2017/10/06 19:49:39","新北市土城區水源街33號","121.44091","24.9754983333333","6501300","土城區"
"236043","107-UM","2017/10/06 19:49:46","新北市土城區裕民路270號","121.454855","24.982655","6501300","土城區"
"236079","166-UM","2017/10/06 19:49:52","新北市土城區溪頭路65號","121.411561666667","24.9545483333333","6501300","土城區"
"236031","253-BX","2017/10/06 19:49:39","新北市土城區中央路一段294號","121.443293333333","24.9823816666667","6501300","土城區"
"236027","269-VK","2017/10/06 19:49:48","新北市土城區中央路二段61巷28號","121.443456666667","24.9787266666667","6501300","土城區"
"236039","271-VK","2017/10/06 19:49:35","新北市土城區國際路158巷54號","121.467955","24.9748583333333","6501300","土城區"
"236022","401-BY","2017/10/06 19:49:42","新北市土城區峰廷街3號","121.469185","24.9874066666667","6501300","土城區"
"236059","912-UM","2017/10/06 19:49:46","新北市土城區中央路二段1號","121.44305","24.9808383333333","6501300","土城區"
"236050","913-UM","2017/10/06 19:49:51","新北市土城區青雲路224號","121.458945","24.98108","6501300","土城區"
"236063","915-UM","2017/10/06 19:49:40","新北市土城區延和路105巷3弄1號","121.467355","24.990735","6501300","土城區"
"236055","AAC-216","2017/10/06 19:49:46","新北市土城區延和路63號","121.4668","24.98981","6501300","土城區"
"242032","AAC-296","2017/10/06 19:49:49","新北市新莊區忠孝街68號","121.44396","25.0363233333333","6500500","新莊區"
"242023","613-BX","2017/10/06 19:49:40","新北市新莊區化成路182號","121.465561666667","25.04582","6500500","新莊區"
"242027","612-BX","2017/10/06 19:49:38","新北市新莊區立信五街6號","121.444465","25.0515633333333","6500500","新莊區"
"242005","442-UM","2017/10/06 19:49:45","新北市新莊區化成路63巷17號","121.464433333333","25.0457466666667","6500500","新莊區"
"242048","441-UM","2017/10/06 19:49:43","新北市新莊區建安街76巷5弄13號","121.425705","25.0250566666667","6500500","新莊區"
"242034","413-TV","2017/10/06 19:49:49","新北市新莊區仁愛街73號","121.44406","25.037785","6500500","新莊區"
"242058","353-BY","2017/10/06 19:49:36","新北市新莊區民安西路1號","121.426698333333","25.0220266666667","6500500","新莊區"
"242037","133-UY","2017/10/06 19:49:29","新北市新莊區建安街89號","121.42709","25.0245466666667","6500500","新莊區"
"242009","173-VK","2017/10/06 19:49:49","新北市新莊區新泰路255巷83號","121.442125","25.0388466666667","6500500","新莊區"
"242013","346-TH","2017/10/06 19:49:48","新北市新莊區中泰街38巷3號","121.45078","25.04713","6500500","新莊區"
"242019","348-TH","2017/10/06 19:49:49","新北市新莊區中華路一段136巷34號","121.45389","25.04135","6500500","新莊區"
"242017","350-TH","2017/10/06 19:49:39","新北市新莊區中華路一段101號","121.45269","25.0437266666667","6500500","新莊區"
"238015","755-BX","2017/10/06 19:49:49","新北市樹林區中山路二段10號","121.417666666667","24.98508","6500700","樹林區"
"238023","601-UM","2017/10/06 19:49:39","新北市樹林區三福街114號","121.406561666667","25.016345","6500700","樹林區"
"238024","5061-A6","2017/10/06 19:49:39","新北市樹林區八德街1018號","121.391235","24.9684983333333","6500700","樹林區"
"238021","KEA-2217","2017/10/06 19:49:38","新北市樹林區佳園路三段175號","121.385781666667","24.9479916666667","6500700","樹林區"
"238022","KEA-2213","2017/10/06 19:49:45","新北市樹林區名園街51巷6弄44號","121.421023333333","24.97812","6500700","樹林區"
"238025","303-VK","2017/10/06 19:49:36","新北市樹林區大安路592號","121.411495","24.9831333333333","6500700","樹林區"
"238017","283-BY","2017/10/06 19:49:52","新北市樹林區保安街二段197巷8號","121.413931666667","25.0030933333333","6500700","樹林區"
"238014","282-BY","2017/10/06 19:49:43","新北市樹林區千歲街70巷2弄2號","121.426205","24.9968916666667","6500700","樹林區"
"238020","268-VK","2017/10/06 19:49:51","新北市板橋區大觀路三段54號","121.43337","24.9955183333333","6500700","樹林區"
"238026","172-UY","2017/10/06 19:49:38","新北市樹林區佳園路三段71號","121.387693333333","24.952775","6500700","樹林區"
"239006","891-R6","2017/10/06 19:49:46","新北市鶯歌區文化路115巷23號","121.357795","24.9551033333333","6500800","鶯歌區"
"221008","489-VK","2017/10/06 19:49:47","新北市汐止區康寧街39號","121.618636666667","25.0668416666667","6501100","汐止區"
"221036","130-UY","2017/10/06 19:49:40","新北市汐止區汐萬路一段187號","121.65251","25.0715533333333","6501100","汐止區"
"221015","131-UY","2017/10/06 19:49:33","新北市汐止區茄苳路43號","121.66591","25.07087","6501100","汐止區"
"221010","269-BY","2017/10/06 19:49:47","新北市汐止區汐萬路一段418巷3號","121.649701666667","25.0784666666667","6501100","汐止區"
"221012","276-VK","2017/10/06 12:58:55","新北市汐止區汐萬路一段256巷3號","121.653448333333","25.0746166666667","6501100","汐止區"
"221012","278-VK","2017/10/06 19:49:39","新北市汐止區保長路271巷2號","121.681026666667","25.07419","6501100","汐止區"
"221023","279-VK","2017/10/06 19:49:47","新北市汐止區明峰街166號","121.629066666667","25.0703716666667","6501100","汐止區"
"221032","280-BY","2017/10/06 19:49:53","新北市汐止區光復街8巷1號","121.639091666667","25.057875","6501100","汐止區"
"221027","281-BY","2017/10/06 19:49:47","新北市汐止區秀峰路6巷10號","121.659133333333","25.0662916666667","6501100","汐止區"
"221029","298-VK","2017/10/06 19:49:46","新北市汐止區康寧街901號","121.651406666667","25.0749933333333","6501100","汐止區"
"221021","299-VK","2017/10/06 19:49:42","新北市汐止區莊敬街29巷5號","121.657136666667","25.0608816666667","6501100","汐止區"
"221031","353-TW","2017/10/06 19:49:44","新北市汐止區福德三路127號","121.63361","25.067645","6501100","汐止區"
"221035","622-UM","2017/10/06 19:49:50","新北市汐止區長江街13巷4號","121.654748333333","25.0713966666667","6501100","汐止區"
"221025","623-UM","2017/10/06 19:49:31","新北市汐止區秀峰路81巷40號","121.661433333333","25.0647016666667","6501100","汐止區"
"221038","646-BX","2017/10/06 19:49:34","新北市汐止區忠孝東路419號","121.665896666667","25.0714766666667","6501100","汐止區"
"221033","647-BX","2017/10/06 19:49:43","新北市汐止區東勢街76巷100-1號","121.63645","25.039","6501100","汐止區"
"221018","753-BX","2017/10/06 19:49:48","新北市汐止區大同路二段330號","121.656366666667","25.0669683333333","6501100","汐止區"
"220079","145-BY","2017/10/06 19:49:38","新北市板橋區中正路135巷12-2號","121.455875","25.0155816666667","6500100","板橋區"
"220082","610-BX","2017/10/06 19:49:49","新北市板橋區篤行路一段46號","121.431898333333","24.99372","6500100","板橋區"
"220101","245-BX","2017/10/06 19:49:43","新北市板橋區縣民大道三段97巷2號","121.475921666667","25.0221583333333","6500100","板橋區"
"220096","257-TC","2017/10/06 19:49:38","新北市板橋區民生路二段226巷31弄1號","121.471105","25.0220716666667","6500100","板橋區"
"220091","267-BY","2017/10/06 19:49:36","新北市板橋區懷德街127巷23弄31號","121.480326666667","25.0321866666667","6500100","板橋區"
"220072","277-BY","2017/10/06 19:49:43","新北市板橋區金門街151巷40弄15號","121.43345","24.98959","6500100","板橋區"
"220064","280-UM","2017/10/06 19:49:32","新北市板橋區中山路一段72號","121.461633333333","25.0100116666667","6500100","板橋區"
"220071","283-VK","2017/10/06 19:49:52","新北市板橋區信義路46號","121.457001666667","24.99445","6500100","板橋區"
"220094","285-UM","2017/10/06 19:49:30","新北市板橋區吳鳳路83號","121.466753333333","25.0315416666667","6500100","板橋區"
"220053","285-VK","2017/10/06 19:49:38","新北市板橋區中山路二段90巷10號","121.475278333333","25.01588","6500100","板橋區"
"220083","286-VK","2017/10/06 19:49:37","新北市板橋區龍興街63巷40號","121.442166666667","25.00171","6500100","板橋區"
"220081","287-VK","2017/10/06 19:19:25","新北市板橋區南雅西路一段61號","121.453421666667","25.00552","6500100","板橋區"
"220090","288-VK","2017/10/06 19:49:34","新北市板橋區龍泉街54巷8弄2號","121.457041666667","25.0267233333333","6500100","板橋區"
"220061","293-UM","2017/10/06 19:49:48","新北市板橋區中山路一段265巷13號","121.468691666667","25.014745","6500100","板橋區"
"220084","296-UM","2017/10/06 19:49:48","新北市板橋區滿平街43號","121.427018333333","24.98964","6500100","板橋區"
"220075","297-UM","2017/10/06 19:49:43","新北市板橋區金華街10巷48弄23號","121.457845","25.0200583333333","6500100","板橋區"
"220092","299-UM","2017/10/06 19:49:45","新北市板橋區文化路一段387巷6號","121.466776666667","25.0220016666667","6500100","板橋區"
"220062","303-R5","2017/10/06 19:49:46","新北市板橋區光復街33巷33號","121.482498333333","25.0189966666667","6500100","板橋區"
"220098","317-R6","2017/10/06 19:49:44","新北市板橋區裕民街145號","121.458711666667","25.027235","6500100","板橋區"
"220080","461-BY","2017/10/06 19:49:47","新北市板橋區大觀路二段69巷1號","121.446756666667","25.0023383333333","6500100","板橋區"
"220089","487-VK","2017/10/06 19:49:41","新北市板橋區綠堤街41-1號","121.45527","25.0259466666667","6500100","板橋區"
"242011","280-VK","2017/10/06 19:49:44","新北市新莊區中榮街84號","121.44798","25.0528233333333","6500500","新莊區"
"220088","491-VK","2017/10/06 19:49:45","新北市板橋區文聖街64號","121.476798333333","25.03094","6500100","板橋區"
"220035","560-BX","2017/10/06 19:49:50","新北市板橋區金華街21巷17號","121.455976666667","25.0206966666667","6500100","板橋區"
"220103","561-BX","2017/10/06 19:49:33","新北市板橋區陽明街27巷12號","121.465385","25.0212166666667","6500100","板橋區"
"220054","568-UM","2017/10/06 19:49:46","新北市板橋區忠孝路300號","121.466258333333","25.0028416666667","6500100","板橋區"
"220063","609-BX","2017/10/06 19:49:45","新北市板橋區中山路二段383號","121.48012","25.01928","6500100","板橋區"
"220057","686-BX","2017/10/06 19:49:52","新北市板橋區廣和街79號","121.462671666667","24.9921666666667","6500100","板橋區"
"220077","687-BX","2017/10/06 19:49:41","新北市板橋區僑中一街146號","121.445101666667","25.0118933333333","6500100","板橋區"
"220093","689-BX","2017/10/06 19:49:51","新北市板橋區長江路二段245號","121.469021666667","25.0327316666667","6500100","板橋區"
"220055","827-TW","2017/10/06 19:49:44","新北市板橋區國慶路167巷29-4號","121.461718333333","24.99787","6500100","板橋區"
"220067","829-TW","2017/10/06 19:49:39","新北市板橋區長安街253號","121.472785","25.010195","6500100","板橋區"
"220102","830-TW","2017/10/06 19:49:43","新北市板橋區仁化街67號","121.475631666667","25.0318483333333","6500100","板橋區"
"220074","895-R6","2017/10/06 19:49:49","新北市板橋區館前西路132號","121.45637","25.0079633333333","6500100","板橋區"
"220073","985-R7","2017/10/06 19:49:31","新北市板橋區大仁街40號","121.455195","25.01675","6500100","板橋區"
"220097","AAC-210","2017/10/06 19:49:49","新北市板橋區文化路一段285巷1弄2號","121.46429","25.018725","6500100","板橋區"
"220070","AAC-253","2017/10/06 19:41:05","新北市板橋區民族路282號","121.470135","25.0069233333333","6500100","板橋區"
