"lineid","car","time","location","longitude","latitude","cityid","cityname"
"234013","149-BY","2017/10/06 18:34:16","新北市永和區福和路1號","121.526565","25.0100383333333","6500400","永和區"
"234064","337-UY","2017/10/06 20:39:40","新北市永和區環河西路二段179號","121.50419","25.0128483333333","6500400","永和區"
"234061","AAD-866","2017/10/06 20:39:40","新北市永和區秀安街21號","121.516243333333","25.0038183333333","6500400","永和區"
"234042","862-TW","2017/10/06 20:39:40","新北市永和區福和路192號","121.520118333333","25.0077183333333","6500400","永和區"
"234050","863-TW","2017/10/06 20:39:45","新北市永和區保安路144號","121.50852","25.0148883333333","6500400","永和區"
"249001","173-UM","2017/10/06 20:39:33","新北市八里區中山路三段390號","121.368443333333","25.1356616666667","6502300","八里區"
"249004","303-UY","2017/10/06 20:38:52","新北市八里區中山路一段157巷31號","121.413056666667","25.15817","6502300","八里區"
"234023","9380-KE","2017/10/06 20:39:35","新北市永和區竹林路30號","121.517133333333","25.0147216666667","6500400","永和區"
"234074","AAC-211","2017/10/06 20:39:44","新北市永和區竹林路119巷21號","121.521055","25.01148","6500400","永和區"
"244021","838-TS","2017/10/06 18:26:12","新北市林口區自強四街18號","121.399355","25.0765383333333","6501700","林口區"
"243013","AAD-798","2017/10/06 20:39:32","新北市泰山區泰林路二段608號","121.42116","25.0638566666667","6501600","泰山區"
"243014","421-VK","2017/10/06 20:39:40","新北市泰山區泰林路三段745巷145號","121.40554","25.0676966666667","6501600","泰山區"
"243010","KEA-2215","2017/10/06 20:39:43","新北市泰山區明志路二段255巷3弄1號","121.427978333333","25.0475483333333","6501600","泰山區"
"243011","KEA-2216","2017/10/06 20:39:16","新北市泰山區公園路65號","121.427218333333","25.05509","6501600","泰山區"
"243016","680-BX","2017/10/06 20:39:37","新北市泰山區泰林路三段745巷145號","121.406205","25.0694166666667","6501600","泰山區"
"222003","436-BY","2017/10/06 20:39:45","新北市深坑區文山路二段30巷31號","121.615065","24.9985766666667","6501800","深坑區"
"222001","628-TS","2017/10/06 20:39:48","新北市深坑區北深路三段211號","121.600596666667","25.00393","6501800","深坑區"
"222002","659-BX","2017/10/06 20:39:38","新北市深坑區萬福路43號","121.599338333333","25.0068266666667","6501800","深坑區"
"231041","002-UM","2017/10/06 20:39:52","新北市新店區中正路543-4號","121.533723333333","24.9875466666667","6500600","新店區"
"231059","046-UY","2017/10/06 20:39:40","新北市新店區僑愛三路25號","121.49931","24.94463","6500600","新店區"
"231061","047-UY","2017/10/06 20:39:43","新北市新店區新和街43號","121.519335","24.98528","6500600","新店區"
"231060","106-UY","2017/10/06 20:39:48","新北市新店區安康路三段712號","121.474046666667","24.9422383333333","6500600","新店區"
"231051","107-UY","2017/10/06 20:39:48","新北市新店區中央八街86號","121.52701","24.97737","6500600","新店區"
"231053","187-VK","2017/10/06 20:39:40","新北市新店區松林路2號","121.54662","24.9107516666667","6500600","新店區"
"231064","188-VK","2017/10/06 20:39:50","新北市新店區安和路三段120巷14號","121.517668333333","24.9858116666667","6500600","新店區"
"231050","215-TC","2017/10/06 20:39:47","新北市新店區建安街17號","121.539693333333","24.975395","6500600","新店區"
"231057","256-BX","2017/10/06 20:39:34","新北市新店區花園六路二段1-2號","121.55381","24.932895","6500600","新店區"
"231063","268-BY","2017/10/06 20:39:42","新北市新店區玫瑰路4-1號","121.493581666667","24.9514233333333","6500600","新店區"
"231054","AAD-862","2017/10/06 20:39:33","新北市新店區北新路一段64巷39弄2號","121.54245","24.9658716666667","6500600","新店區"
"231058","3712-VJ","2017/10/06 20:39:38","新北市新店區自由街43-1號","121.53453","24.97367","6500600","新店區"
"231056","4716-K9","2017/10/06 20:39:47","新北市新店區中央路45號","121.532823333333","24.9775983333333","6500600","新店區"
"231065","512-UM","2017/10/06 20:39:49","新北市新店區安祥路104巷57號","121.48296","24.9637916666667","6500600","新店區"
"231048","513-UM","2017/10/06 20:39:47","新北市新店區寶慶街76號","121.541606666667","24.986705","6500600","新店區"
"231045","617-UM","2017/10/06 20:39:39","新北市新店區長春路557-1號","121.554026666667","24.9610983333333","6500600","新店區"
"231040","619-UM","2017/10/06 20:39:49","新北市新店區中正路247巷4弄10號","121.538493333333","24.973425","6500600","新店區"
"231042","641-BX","2017/10/06 20:39:38","新北市新店區寶高路116號","121.554548333333","24.97603","6500600","新店區"
"231068","718-UY","2017/10/06 20:39:45","新北市新店區寶慶街35巷1弄2號","121.54315","24.98632","6500600","新店區"
"231049","719-UM","2017/10/06 20:39:36","新北市新店區永業路81巷5弄33號","121.53109","24.9499683333333","6500600","新店區"
"231062","720-UM","2017/10/06 20:39:43","新北市新店區安康路三段277-1號","121.485845","24.9515266666667","6500600","新店區"
"231044","897-TW","2017/10/06 20:39:32","新北市新店區建國路293巷1號","121.536633333333","24.986185","6500600","新店區"
"231043","899-TW","2017/10/06 20:39:36","新北市新店區建國路8-1號","121.53996","24.97355","6500600","新店區"
"231066","AKT-0513","2017/10/06 20:39:35","新北市新店區安興路105-1號","121.514555","24.9776883333333","6500600","新店區"
"241011","013-R5","2017/10/06 20:39:50","新北市三重區龍濱路188號","121.50125","25.0731233333333","6500200","三重區"
"241028","022-UY","2017/10/06 20:39:38","新北市三重區光興街91號","121.497378333333","25.0599216666667","6500200","三重區"
"241008","059-VK","2017/10/06 20:39:31","新北市三重區下竹圍街91號","121.481086666667","25.0748233333333","6500200","三重區"
"241009","060-VK","2017/10/06 20:39:46","新北市三重區碧華街1號","121.483605","25.0809383333333","6500200","三重區"
"241015","062-VK","2017/10/06 20:39:40","新北市三重區文化北路200弄1號","121.497963333333","25.0681483333333","6500200","三重區"
"241017","063-VK","2017/10/06 20:39:34","新北市三重區大同北路237號","121.491013333333","25.066755","6500200","三重區"
"241024","065-VK","2017/10/06 20:39:51","新北市三重區後竹圍街295號","121.478736666667","25.0697933333333","6500200","三重區"
"241002","090-VK","2017/10/06 20:39:50","新北市三重區仁義街167巷24號","121.497908333333","25.0820466666667","6500200","三重區"
"241003","091-VK","2017/10/06 20:39:32","新北市三重區集賢路87-1號","121.493773333333","25.086975","6500200","三重區"
"241026","156-TC","2017/10/06 20:39:40","新北市三重區文化南路7號","121.50005","25.0623366666667","6500200","三重區"
"241016","266-UM","2017/10/06 20:39:32","新北市三重區長壽西街143-3號","121.494248333333","25.0666083333333","6500200","三重區"
"241022","267-UM","2017/10/06 20:39:46","新北市三重區中正北路20巷12號","121.488018333333","25.0624383333333","6500200","三重區"
"241018","268-UM","2017/10/06 20:39:49","新北市三重區重陽路四段10號","121.490775","25.0688516666667","6500200","三重區"
"241032","269-UM","2017/10/06 20:39:36","新北市三重區重陽路一段120巷35號","121.485213333333","25.060195","6500200","三重區"
"241013","270-UM","2017/10/06 20:39:46","新北市三重區仁賢街6號","121.495656666667","25.07482","6500200","三重區"
"241025","271-UM","2017/10/06 20:39:49","新北市三重區頂崁街210巷23弄1號","121.475826666667","25.0681466666667","6500200","三重區"
"241007","398-BY","2017/10/06 20:39:50","新北市三重區自強路四段4號","121.488321666667","25.076085","6500200","三重區"
"241031","KEA-2210","2017/10/06 20:39:44","新北市三重區重陽路一段43巷30號","121.488215","25.0586533333333","6500200","三重區"
"241020","413-TH","2017/10/06 20:39:47","新北市三重區忠孝路一段87號","121.489818333333","25.0721116666667","6500200","三重區"
"241004","475-VK","2017/10/06 20:39:41","新北市三重區仁愛街409號","121.49082","25.0811","6500200","三重區"
"241019","478-VK","2017/10/06 20:39:38","新北市三重區三張街30號","121.491758333333","25.0710883333333","6500200","三重區"
"241030","480-VK","2017/10/06 20:39:50","新北市三重區成功路73巷22號","121.489413333333","25.052075","6500200","三重區"
"241014","543-UM","2017/10/06 20:39:48","新北市三重區萬壽街10號","121.499216666667","25.0694033333333","6500200","三重區"
"241023","545-UM","2017/10/06 20:39:51","新北市三重區自由街39巷14號","121.478281666667","25.0669866666667","6500200","三重區"
"241001","547-UM","2017/10/06 20:39:42","新北市三重區自強路三段110巷21號","121.486091666667","25.0744616666667","6500200","三重區"
"241033","557-UM","2017/10/06 20:39:38","新北市三重區光復路二段1號","121.472405","25.0533666666667","6500200","三重區"
"241035","743-BX","2017/10/06 20:39:50","新北市三重區正義北路275-1號","121.495206666667","25.0701483333333","6500200","三重區"
"241012","941-UM","2017/10/06 20:39:38","新北市三重區秀江街31號","121.502138333333","25.07301","6500200","三重區"
"241029","942-UM","2017/10/06 20:39:34","新北市三重區集美街126巷26號","121.490006666667","25.0538933333333","6500200","三重區"
"235072","301-VK","2017/10/06 20:39:38","新北市土城區中央路四段321巷34弄1號","121.41388","24.950685","6500300","中和區"
"235069","4980-A6","2017/10/06 20:39:43","新北市中和區民樂路62號","121.48396","25.00121","6500300","中和區"
"235026","800-TS","2017/10/06 20:30:00","新北市中和區員山路36巷16-3號","121.484836666667","24.991805","6500300","中和區"
"247022","893-R6","2017/10/06 20:39:34","新北市蘆洲區中正路243巷18弄5號","121.46702","25.0865433333333","6501400","蘆洲區"
"247012","546-UM","2017/10/06 20:39:50","新北市蘆洲區民族路236巷38弄2號","121.481173333333","25.0887433333333","6501400","蘆洲區"
"247020","500-BY","2017/10/06 20:39:46","新北市蘆洲區民族路424號","121.473853333333","25.0917466666667","6501400","蘆洲區"
"247010","339-TH","2017/10/06 20:39:43","新北市蘆洲區中山一路70號","121.478953333333","25.081","6501400","蘆洲區"
"247002","337-TH","2017/10/06 20:39:38","新北市蘆洲區長安街375巷23號","121.456138333333","25.0878083333333","6501400","蘆洲區"
"247004","336-TH","2017/10/06 20:39:39","新北市蘆洲區長安街295號","121.458118333333","25.0848183333333","6501400","蘆洲區"
"247016","057-VK","2017/10/06 20:39:45","新北市蘆洲區中山二路309號","121.468996666667","25.0770166666667","6501400","蘆洲區"
"247006","056-VK","2017/10/06 20:39:33","新北市蘆洲區和平路121巷8弄4號","121.466943333333","25.0799333333333","6501400","蘆洲區"
"247008","053-VK","2017/10/06 20:39:46","新北市蘆洲區永安北路二段8巷16號","121.480415","25.0809133333333","6501400","蘆洲區"
"247014","007-UY","2017/10/06 20:39:43","新北市蘆洲區得勝街62號","121.473081666667","25.084185","6501400","蘆洲區"
"247024","002-UY","2017/10/06 20:39:43","新北市蘆洲區長樂路66號","121.462711666667","25.0867483333333","6501400","蘆洲區"
"251002","012-UM","2017/10/06 20:39:39","新北市淡水區中正路38-1號","121.44373","25.1693266666667","6501000","淡水區"
"251013","180-VK","2017/10/06 20:39:51","新北市淡水區下圭柔山28巷10號","121.457468333333","25.2040916666667","6501000","淡水區"
"251015","182-VK","2017/10/06 20:39:35","新北市淡水區淡金路四段542巷17號","121.452638333333","25.22711","6501000","淡水區"
"251010","413-VK","2017/10/06 20:39:33","新北市淡水區沙崙路181巷15號","121.42398","25.184355","6501000","淡水區"
"251012","441-VK","2017/10/06 20:39:47","新北市淡水區興仁路101巷8號","121.451258333333","25.2180783333333","6501000","淡水區"
"251001","559-UM","2017/10/06 20:39:33","新北市淡水區忠愛街12號","121.457381666667","25.1749583333333","6501000","淡水區"
"251006","561-UM","2017/10/06 20:39:36","新北市淡水區商工路196巷5號","121.451415","25.186915","6501000","淡水區"
"251011","650-BX","2017/10/06 20:39:32","新北市淡水區新市一路一段361號","121.436201666667","25.186235","6501000","淡水區"
"251003","673-BX","2017/10/06 20:39:49","新北市淡水區新民街120巷1號","121.4379","25.1778066666667","6501000","淡水區"
"252002","178-VK","2017/10/06 20:39:46","新北市三芝區淡金路二段47-2號","121.50372","25.2605333333333","6502100","三芝區"
"252001","292-VK","2017/10/06 20:39:39","新北市三芝區長安街34號","121.50162","25.25619","6502100","三芝區"
"237004","078-UY","2017/10/06 20:39:42","新北市樹林區柑園街二段276巷12弄15號","121.374198333333","24.953835","6500900","三峽區"
"242032","AAC-296","2017/10/06 20:39:49","新北市新莊區新莊路664號","121.442396666667","25.03288","6500500","新莊區"
"242029","986-R7","2017/10/06 20:39:48","新北市新莊區昌隆街26號","121.453983333333","25.05087","6500500","新莊區"
"242050","751-BX","2017/10/06 20:39:39","新北市新莊區民安西路173巷5號","121.426666666667","25.01606","6500500","新莊區"
"242060","705-TV","2017/10/06 20:39:36","新北市新莊區新樹路262號","121.432583333333","25.0148883333333","6500500","新莊區"
"242025","615-BX","2017/10/06 20:39:35","新北市三重區中興北街295號","121.469178333333","25.0634333333333","6500500","新莊區"
"242023","613-BX","2017/10/06 20:39:39","新北市新莊區化成路228號","121.465585","25.0469333333333","6500500","新莊區"
"242027","612-BX","2017/10/06 20:39:38","新北市新莊區思源路65號","121.459866666667","25.0404683333333","6500500","新莊區"
"242039","566-BX","2017/10/06 20:39:49","新北市新莊區民安路309號","121.429825","25.0225783333333","6500500","新莊區"
"242044","497-BY","2017/10/06 20:39:39","新北市新莊區龍安路74號","121.416991666667","25.02107","6500500","新莊區"
"242005","442-UM","2017/10/06 20:39:32","新北市新莊區化成路746巷32號","121.46702","25.058045","6500500","新莊區"
"242048","441-UM","2017/10/06 20:39:42","新北市新莊區中正路863號","121.418836666667","25.0277616666667","6500500","新莊區"
"242054","440-UM","2017/10/06 20:39:35","新北市新莊區西盛街324巷37號","121.42676","25.0146583333333","6500500","新莊區"
"242034","413-TV","2017/10/06 20:39:53","新北市新莊區中正路423-2號","121.444281666667","25.034315","6500500","新莊區"
"242041","400-BY","2017/10/06 20:39:47","新北市新莊區天祥街19巷7號","121.416838333333","25.0278133333333","6500500","新莊區"
"242058","353-BY","2017/10/06 20:39:35","新北市新莊區四維路149號","121.422583333333","25.0221183333333","6500500","新莊區"
"242007","132-UY","2017/10/06 20:39:36","新北市新莊區思源路131號","121.459843333333","25.0431383333333","6500500","新莊區"
"242037","133-UY","2017/10/06 20:39:49","新北市新莊區後港一路94巷4號","121.427678333333","25.02633","6500500","新莊區"
"242021","135-UY","2017/10/06 20:39:34","新北市新莊區中華路一段118號","121.452338333333","25.0406166666667","6500500","新莊區"
"242046","172-VK","2017/10/06 20:39:49","新北市新莊區富國路87號","121.420448333333","25.025995","6500500","新莊區"
"242009","173-VK","2017/10/06 20:39:49","新北市新莊區昌隆街118號","121.457341666667","25.0509216666667","6500500","新莊區"
"242015","175-VK","2017/10/06 20:39:44","新北市新莊區中和街60巷1號","121.448005","25.044855","6500500","新莊區"
"242002","176-VK","2017/10/06 20:39:50","新北市新莊區中港路3號","121.454931666667","25.03691","6500500","新莊區"
"242013","346-TH","2017/10/06 20:39:38","新北市新莊區中和街175巷13號","121.44709","25.0505983333333","6500500","新莊區"
"242019","348-TH","2017/10/06 20:39:42","新北市新莊區銘德街138號","121.454733333333","25.0428816666667","6500500","新莊區"
"242056","349-TH","2017/10/06 20:39:52","新北市新莊區瓊林路72-1號","121.445031666667","25.028725","6500500","新莊區"
"242017","350-TH","2017/10/06 20:39:39","新北市新莊區中和街24號","121.448245","25.0437166666667","6500500","新莊區"
"221008","489-VK","2017/10/06 20:39:47","新北市汐止區翠峰街21巷3弄14號","121.643976666667","25.075715","6501100","汐止區"
"221036","130-UY","2017/10/06 20:39:40","新北市汐止區新昌路18號","121.662105","25.067435","6501100","汐止區"
"221015","131-UY","2017/10/06 20:39:33","新北市汐止區建成路52號","121.663746666667","25.0728316666667","6501100","汐止區"
"221010","269-BY","2017/10/06 20:39:47","新北市汐止區汐萬路一段39號","121.655053333333","25.0689633333333","6501100","汐止區"
"221012","276-VK","2017/10/06 12:58:55","新北市汐止區汐萬路一段256巷3號","121.653448333333","25.0746166666667","6501100","汐止區"
"221012","278-VK","2017/10/06 20:39:39","新北市汐止區汐萬路一段39-3號","121.654896666667","25.0692233333333","6501100","汐止區"
"221023","279-VK","2017/10/06 20:39:47","新北市汐止區翠峰街21巷3弄16號","121.644221666667","25.07576","6501100","汐止區"
"221032","280-BY","2017/10/06 20:39:53","新北市汐止區橫科路221巷19-1號","121.621518333333","25.04954","6501100","汐止區"
"221027","281-BY","2017/10/06 20:39:47","新北市汐止區大同路二段475號","121.660431666667","25.0682833333333","6501100","汐止區"
"221029","298-VK","2017/10/06 20:39:46","新北市汐止區大同路一段501號","121.644955","25.06209","6501100","汐止區"
"221021","299-VK","2017/10/06 20:39:42","新北市汐止區水源路一段282巷6號","121.653926666667","25.05832","6501100","汐止區"
"221031","353-TW","2017/10/06 20:39:53","新北市汐止區中興路27巷4號","121.635058333333","25.0612583333333","6501100","汐止區"
"221035","622-UM","2017/10/06 20:39:43","新北市汐止區長江街101-5號","121.658736666667","25.0731816666667","6501100","汐止區"
"221025","623-UM","2017/10/06 20:39:31","新北市汐止區水源路二段236號","121.658706666667","25.0512316666667","6501100","汐止區"
"221038","646-BX","2017/10/06 20:39:34","新北市汐止區大同路二段196號","121.652885","25.0644716666667","6501100","汐止區"
"221033","647-BX","2017/10/06 20:39:43","新北市汐止區合順街18巷8弄5號","121.620288333333","25.0419616666667","6501100","汐止區"
"221002","707-TV","2017/10/06 20:39:32","新北市汐止區福德二路167號","121.630856666667","25.0651866666667","6501100","汐止區"
"221018","753-BX","2017/10/06 20:39:48","新北市汐止區中華街71號","121.668071666667","25.0710466666667","6501100","汐止區"
"220101","245-BX","2017/10/06 20:39:43","新北市八里區商港路88-1號","121.393805","25.1487833333333","6500100","板橋區"
"220083","286-VK","2017/10/06 20:39:36","新北市板橋區僑中二街108巷9號","121.445341666667","25.0073683333333","6500100","板橋區"
"220062","303-R5","2017/10/06 20:39:25","新北市八里區荖阡坑路34-1號","121.400995","25.1305366666667","6500100","板橋區"
"220080","461-BY","2017/10/06 20:39:47","新北市林口區汕頭32號","121.366866666667","25.1350783333333","6500100","板橋區"
"242011","280-VK","2017/10/06 20:39:44","新北市新莊區中榮街122巷1號","121.446573333333","25.0530533333333","6500500","新莊區"
"220035","560-BX","2017/10/06 20:39:50","新北市林口區汕頭32號","121.366356666667","25.13467","6500100","板橋區"
"220103","561-BX","2017/10/06 20:39:35","新北市板橋區漢生東路33巷8號","121.46563","25.0172133333333","6500100","板橋區"
"220070","AAC-253","2017/10/06 19:41:05","新北市板橋區民族路282號","121.470135","25.0069233333333","6500100","板橋區"
