"lineid","car","time","location","longitude","latitude","cityid","cityname"
"241031","800-TS","2017/08/09 16:59:21","新北市中和區興南路三段35號","121.49711","24.978005","6500200","三重區"
"251013","180-VK","2017/08/09 17:09:53","新北市淡水區桂花樹6-1號","121.483093333333","25.197195","6501000","淡水區"
"251015","182-VK","2017/08/09 17:09:47","新北市淡水區鄧公路30巷2弄15號","121.452955","25.1692333333333","6501000","淡水區"
"241031","259-TC","2017/08/09 17:07:37","新北市板橋區華東街1-10號","121.448606666667","24.9948716666667","6500200","三重區"
"241031","489-QN","2017/08/09 16:45:28","新北市板橋區民生路二段89-6號","121.470496666667","25.0193633333333","6500200","三重區"
