"lineid","car","time","location","longitude","latitude","cityid","cityname"
"241031","800-TS","2017/08/09 16:59:21","新北市中和區興南路三段35號","121.49711","24.978005","6500200","三重區"
"251013","180-VK","2017/08/09 17:29:53","新北市淡水區大竹圍5號","121.466588333333","25.195245","6501000","淡水區"
"251015","182-VK","2017/08/09 17:29:47","新北市淡水區三空泉16-10號","121.47271","25.1642866666667","6501000","淡水區"
"241031","259-TC","2017/08/09 17:07:37","新北市板橋區華東街1-10號","121.448606666667","24.9948716666667","6500200","三重區"
"241031","489-QN","2017/08/09 17:27:59","新北市板橋區民生路二段120號","121.470553333333","25.019585","6500200","三重區"
