"lineid","car","time","location","longitude","latitude","cityid","cityname"
"241031","800-TS","2017/08/09 16:59:21","新北市中和區興南路三段35號","121.49711","24.978005","6500200","三重區"
"224011","AGQ-8101","2017/08/09 18:58:58","新北市瑞芳區基山街3號","121.845188333333","25.1098183333333","6501200","瑞芳區"
"251013","180-VK","2017/08/09 18:59:46","新北市淡水區頂田寮路951號","121.48522","25.2134466666667","6501000","淡水區"
"251015","182-VK","2017/08/09 18:59:47","新北市淡水區糞箕湖60號","121.485205","25.1722716666667","6501000","淡水區"
"241031","259-TC","2017/08/09 18:38:09","新北市板橋區華東街1-10號","121.44856","24.9948116666667","6500200","三重區"
"241031","489-QN","2017/08/09 18:47:07","新北市板橋區民生路二段89-6號","121.470476666667","25.01923","6500200","三重區"
