"lineid","car","time","location","longitude","latitude","cityid","cityname"
"241031","800-TS","2017/08/09 19:09:40","新北市中和區興南路三段35號","121.496893333333","24.9780083333333","6500200","三重區"
"224011","AGQ-8101","2017/08/09 19:09:38","新北市瑞芳區基山街91號","121.844783333333","25.10841","6501200","瑞芳區"
"251013","180-VK","2017/08/09 19:09:33","新北市淡水區安子內12號","121.481575","25.21909","6501000","淡水區"
"251015","182-VK","2017/08/09 19:09:47","新北市淡水區南勢埔27-2號","121.483596666667","25.1805233333333","6501000","淡水區"
"241031","269-VK","2017/08/09 19:07:07","新北市樹林區中正路161號","121.423988333333","25.0020916666667","6500200","三重區"
"241031","259-TC","2017/08/09 19:09:39","新北市板橋區華東街1-10號","121.448593333333","24.994815","6500200","三重區"
"241031","489-QN","2017/08/09 18:47:07","新北市板橋區民生路二段89-6號","121.470476666667","25.01923","6500200","三重區"
