"lineid","car","time","location","longitude","latitude","cityid","cityname"
"224011","AGQ-8101","2017/08/09 19:36:38","新北市瑞芳區基山街4-3號","121.845163333333","25.109605","6501200","瑞芳區"
"251013","180-VK","2017/08/09 19:39:33","新北市淡水區店子後9號","121.459925","25.218775","6501000","淡水區"
"251015","182-VK","2017/08/09 19:39:34","新北市淡水區大埤頭1號","121.49275","25.1946783333333","6501000","淡水區"
"241031","269-VK","2017/08/09 19:36:45","新北市樹林區中正路163號","121.423911666667","25.0022233333333","6500200","三重區"
"241031","259-TC","2017/08/09 19:39:39","新北市板橋區華東街1-10號","121.448583333333","24.99482","6500200","三重區"
"241031","489-QN","2017/08/09 19:35:50","新北市板橋區民生路二段89-6號","121.47045","25.0191816666667","6500200","三重區"
