"lineid","car","time","location","longitude","latitude","cityid","cityname"
"251013","180-VK","2017/08/09 20:09:33","新北市淡水區奎柔山路492號","121.464911666667","25.2048983333333","6501000","淡水區"
"251015","182-VK","2017/08/09 20:09:27","新北市淡水區埤島79號","121.449508333333","25.1899316666667","6501000","淡水區"
"241031","269-VK","2017/08/09 19:36:45","新北市樹林區中正路163號","121.423911666667","25.0022233333333","6500200","三重區"
"241031","567-BX","2017/08/09 03:13:43","新北市汐止區汐萬路一段256巷3號","121.652468333333","25.07461","6500200","三重區"
"241031","259-TC","2017/08/09 19:48:46","新北市板橋區華東街1-10號","121.44864","24.9948883333333","6500200","三重區"
"241031","489-QN","2017/08/09 20:09:33","新北市板橋區民生路二段89-6號","121.470455","25.019335","6500200","三重區"
"241031","806-UM","2017/08/09 19:56:02","新北市板橋區華東街1-10號","121.448615","24.9947533333333","6500200","三重區"
