"lineid","car","time","location","longitude","latitude","cityid","cityname"
"241031","098-UM","2017/08/09 21:29:19","新北市中和區員山路36巷16-3號","121.48505","24.99116","6500200","三重區"
"241031","420-VK","2017/08/09 21:29:14","新北市瑞芳區明燈路三段38號","121.807603333333","25.1078","6500200","三重區"
"251013","180-VK","2017/08/09 21:29:13","新北市淡水區埤島60-1號","121.459288333333","25.1953416666667","6501000","淡水區"
"241031","269-VK","2017/08/09 19:36:45","新北市樹林區中正路163號","121.423911666667","25.0022233333333","6500200","三重區"
"241031","567-BX","2017/08/09 03:13:43","新北市汐止區汐萬路一段256巷3號","121.652468333333","25.07461","6500200","三重區"
"241031","259-TC","2017/08/09 21:23:27","新北市板橋區華東街1-10號","121.448805","24.9948466666667","6500200","三重區"
"241031","489-QN","2017/08/09 21:12:28","新北市板橋區民生路二段89-6號","121.470413333333","25.019255","6500200","三重區"
"241031","806-UM","2017/08/09 21:24:47","新北市板橋區華東街1-10號","121.448571666667","24.994845","6500200","三重區"
