"lineid","car","time","location","longitude","latitude","cityid","cityname"
"241031","209-UY","2017/08/10 06:36:38","新北市永和區保生路55號","121.504588333333","25.0107483333333","6500200","三重區"
"241031","395-TH","2017/08/10 07:19:26","新北市永和區光復街33巷5號","121.516043333333","25.017945","6500200","三重區"
"241031","693-BX","2017/08/10 07:19:29","新北市永和區光復街11號","121.516351666667","25.0170566666667","6500200","三重區"
"241031","695-BX","2017/08/10 07:19:25","新北市永和區福和路1號","121.525406666667","25.00925","6500200","三重區"
"241031","840-RS","2017/08/10 07:19:26","新北市永和區中正路560號","121.517113333333","25.00593","6500200","三重區"
"241031","841-RS","2017/08/10 07:19:19","新北市永和區永貞路377號","121.508268333333","25.00839","6500200","三重區"
"241031","845-RS","2017/08/10 07:19:32","新北市永和區新生路273巷1-1號","121.50505","25.0127566666667","6500200","三重區"
"241031","077-UY","2017/08/10 02:35:58","新北市五股區中興路二段83巷26-6號","121.460033333333","25.0750133333333","6500200","三重區"
"241031","247-BX","2017/08/10 00:19:18","新北市五股區中興路二段83巷26-6號","121.460071666667","25.0751866666667","6500200","三重區"
"241031","653-BX","2017/08/10 07:19:17","新北市五股區明德路12巷1號","121.433258333333","25.071615","6500200","三重區"
"232007","290-BY","2017/08/10 07:19:36","新北市坪林區魚堀43號","121.701173333333","24.9322516666667","6502000","坪林區"
"232001","291-BY","2017/08/10 07:19:23","新北市坪林區上坑子口4號","121.698395","24.9583466666667","6502000","坪林區"
"232010","375-UM","2017/08/10 07:19:26","新北市坪林區水聳淒坑7-1號","121.724878333333","24.9272533333333","6502000","坪林區"
"232014","705-BZ","2017/08/10 07:19:39","新北市坪林區金瓜寮23-1號","121.67921","24.9113866666667","6502000","坪林區"
"232018","758-BX","2017/08/10 07:19:23","新北市坪林區樟空子4號","121.726681666667","24.9679833333333","6502000","坪林區"
"244003","248-BX","2017/08/10 07:19:23","新北市林口區南勢里71-32號","121.356628333333","25.0781083333333","6501700","林口區"
"241031","402-UM","2017/08/10 07:05:16","新北市林口區粉寮69號","121.405083333333","25.0909983333333","6500200","三重區"
"241031","838-TS","2017/08/10 04:07:55","新北市林口區粉寮69號","121.404825","25.090795","6500200","三重區"
"222006","289-BY","2017/08/10 07:19:21","新北市深坑區萬福路91號","121.603778333333","25.0121183333333","6501800","深坑區"
"241031","189-VK","2017/08/08 03:24:53","新北市新店區安華路28-1號","121.519805","24.9611233333333","6500200","三重區"
"241031","192-VK","2017/08/10 06:58:51","新北市新店區安康路一段359-27號","121.518928333333","24.9613683333333","6500200","三重區"
"241031","897-TW","2017/08/10 02:04:53","新北市中和區興南路三段47巷32-6號","121.49703","24.97786","6500200","三重區"
"241031","186-VK","2017/08/10 00:55:18","新北市中和區員山路36巷13號","121.484043333333","24.9908433333333","6500200","三重區"
"241031","911-UM","2017/08/10 07:19:29","新北市中和區廟美街5號","121.500826666667","25.0014783333333","6500200","三重區"
"226005","5620-A6","2017/08/10 07:19:20","新北市平溪區菁桐里二坑路18號","121.721271666667","25.0245216666667","6502400","平溪區"
"241031","7418-A5","2017/08/10 07:19:20","新北市平溪區望古里望古坑26號","121.76329","25.034395","6500200","三重區"
"241031","AGD-0702","2017/08/10 07:19:30","新北市平溪區靜安路二段196號","121.723288333333","25.021905","6500200","三重區"
"223006","022-BY","2017/08/10 07:19:27","新北市石碇區新興坑31號","121.649018333333","25.0140716666667","6501900","石碇區"
"223002","198-BX","2017/08/10 07:19:35","新北市石碇區半路店1-1號","121.64838","24.9698666666667","6501900","石碇區"
"223008","406-TH","2017/08/10 07:19:26","新北市石碇區番子坑22-5號","121.677086666667","24.9999916666667","6501900","石碇區"
"223001","437-BY","2017/08/10 07:19:21","新北市石碇區烏塗窟8-1號","121.655383333333","24.9758533333333","6501900","石碇區"
"223004","660-BX","2017/08/10 07:19:40","新北市石碇區新興坑31號","121.649283333333","25.013975","6501900","石碇區"
"223007","661-BX","2017/08/10 07:19:30","新北市石碇區番子坑24號","121.678745","25.0012016666667","6501900","石碇區"
"241031","AGQ-8101","2017/08/10 03:26:15","新北市瑞芳區明燈路二段89號","121.80967","25.10835","6500200","三重區"
"227007","282-VK","2017/08/10 07:19:24","新北市雙溪區新基里自強路7號","121.866283333333","25.0390416666667","6502500","雙溪區"
"241031","440-VK","2017/08/10 00:48:49","新北市八里區博物館路10-1號","121.415273333333","25.164245","6500200","三重區"
"241031","550-UM","2017/08/10 06:58:25","新北市萬里區萬里里獅頭路23號","121.69375","25.17831","6500200","三重區"
"252004","702-TV","2017/08/10 07:19:22","新北市三芝區福德里大湖8-5號","121.50065","25.2278","6502100","三芝區"
"252007","AAC-283","2017/08/10 07:19:26","新北市三芝區錫板里海尾14-8號","121.477443333333","25.2586616666667","6502100","三芝區"
"241031","361-BY","2017/08/10 07:01:01","新北市三峽區中山路459巷137號","121.349416666667","24.933535","6500200","三重區"
"241031","159-UY","2017/08/10 07:19:23","新北市三峽區中山路459巷163-1號","121.349321666667","24.933415","6500200","三重區"
"241031","572-TV","2017/08/10 01:36:04","新北市三峽區中山路459巷163-3號","121.348786666667","24.9328383333333","6500200","三重區"
"241031","682-BX","2017/08/10 07:19:22","新北市三峽區中山路459巷163-3號","121.348898333333","24.9332383333333","6500200","三重區"
"241031","756-BX","2017/08/10 07:19:25","新北市三峽區中山路459巷151-1號","121.349126666667","24.93163","6500200","三重區"
"241031","760-BX","2017/08/10 07:19:38","新北市三峽區中園街122號","121.367168333333","24.922355","6500200","三重區"
"241031","138-TH","2017/08/10 07:19:22","新北市土城區龍泉路10號","121.409426666667","24.9492816666667","6500200","三重區"
"236009","165-UM","2017/08/10 07:19:35","新北市土城區中華路1段48巷18-1號","121.445391666667","24.990185","6501300","土城區"
"241031","270-VK","2017/08/10 06:47:15","新北市土城區城林路6巷80號","121.438451666667","24.979865","6500200","三重區"
"236003","339-SR","2017/08/10 07:19:22","新北市土城區和平路93-12號","121.449368333333","24.9697016666667","6501300","土城區"
"241031","370-SL","2017/08/10 07:16:57","新北市土城區青雲路18號","121.460091666667","24.9888283333333","6500200","三重區"
"241031","371-SL","2017/08/10 07:19:21","新北市土城區永寧路32巷42弄9號","121.428156666667","24.9615516666667","6500200","三重區"
"241031","498-BY","2017/08/10 07:19:15","新北市土城區永平街51號","121.427773333333","24.9590166666667","6500200","三重區"
"241031","913-UM","2017/08/10 06:48:53","新北市土城區城林路6巷80號","121.438475","24.9796916666667","6500200","三重區"
"242047","751-BX","2017/08/10 07:19:20","新北市新莊區新泰路357巷3弄57號","121.441953333333","25.0390333333333","6500500","新莊區"
"242024","615-BX","2017/08/10 04:41:28","新北市新莊區新泰路255巷83號","121.442143333333","25.0388233333333","6500500","新莊區"
"242022","613-BX","2017/08/10 05:31:33","新北市新莊區新泰路357巷3弄57號","121.442166666667","25.0391333333333","6500500","新莊區"
"241031","612-BX","2017/08/10 00:55:24","新北市新莊區新泰路255巷83號","121.442466666667","25.0392866666667","6500200","三重區"
"241031","442-UM","2017/08/10 07:19:28","新北市新莊區新泰路255巷83號","121.442431666667","25.0391133333333","6500200","三重區"
"242045","441-UM","2017/08/10 07:19:33","新北市新莊區三和路12-21號","121.442105","25.0382083333333","6500500","新莊區"
"241031","440-UM","2017/08/10 07:19:25","新北市新莊區新泰路357巷3弄57號","121.442211666667","25.0392166666667","6500200","三重區"
"241031","415-TV","2017/08/10 07:19:33","新北市新莊區新泰路357巷3弄57號","121.442118333333","25.0393366666667","6500200","三重區"
"241031","413-TV","2017/08/10 07:19:22","新北市新莊區新泰路357巷3弄57號","121.441913333333","25.03928","6500200","三重區"
"241031","400-BY","2017/08/10 07:19:29","新北市新莊區新泰路357巷3弄57號","121.442233333333","25.039565","6500200","三重區"
"242059","362-BY","2017/08/10 05:02:08","新北市新莊區三和路12-21號","121.44203","25.0387033333333","6500500","新莊區"
"241031","353-BY","2017/08/10 07:19:34","新北市新莊區新泰路255巷83號","121.442278333333","25.0387883333333","6500200","三重區"
"241031","135-UY","2017/08/10 07:19:27","新北市新莊區三和路12-21號","121.441893333333","25.03868","6500200","三重區"
"242043","172-VK","2017/08/10 04:53:29","新北市新莊區三和路12-21號","121.441983333333","25.0387616666667","6500500","新莊區"
"241031","173-VK","2017/08/10 00:50:21","新北市新莊區三和路12-21號","121.441951666667","25.0387733333333","6500200","三重區"
"241031","233-RS","2017/08/10 07:19:30","新北市新莊區中華路二段2號","121.45299","25.0445033333333","6500200","三重區"
"241031","346-TH","2017/08/10 04:55:28","新北市新莊區三和路12-16號","121.441921666667","25.037485","6500200","三重區"
"242033","347-TH","2017/08/10 01:01:31","新北市新莊區三和路12-16號","121.44186","25.0374433333333","6500500","新莊區"
"241031","348-TH","2017/08/10 07:19:38","新北市新莊區新泰路357巷3弄57號","121.442021666667","25.0394733333333","6500200","三重區"
"241031","349-TH","2017/08/10 07:19:36","新北市新莊區三和路12-16號","121.441928333333","25.0374366666667","6500200","三重區"
"241031","350-TH","2017/08/10 07:19:34","新北市新莊區三和路12-21號","121.441975","25.0388","6500200","三重區"
"242008","351-TH","2017/08/10 05:13:28","新北市新莊區新泰路357巷3弄57號","121.442185","25.0394483333333","6500500","新莊區"
"241031","277-VK","2017/08/10 00:14:18","新北市汐止區汐萬路一段256巷3號","121.652515","25.0746133333333","6500200","三重區"
"241031","489-QN","2017/08/10 06:53:46","新北市板橋區民生路二段161巷9號","121.47032","25.0194583333333","6500200","三重區"
"241031","806-UM","2017/08/10 06:47:54","新北市板橋區華東街1-10號","121.448545","24.9948266666667","6500200","三重區"
