"lineid","car","time","location","longitude","latitude","cityid","cityname"
"232001","290-BY","2017/12/14 06:39:47","新北市坪林區北宜路八段558號","121.717951666667","24.90967","6502000","坪林區"
"232014","291-BY","2017/12/14 06:39:57","新北市坪林區北宜路八段558號","121.718166666667","24.9092916666667","6502000","坪林區"
"232018","705-BZ","2017/12/14 02:49:24","新北市坪林區北宜路八段558號","121.71784","24.909385","6502000","坪林區"
"235044","293-VK","2017/12/14 06:39:55","新北市中和區景平路566號","121.501941666667","24.995325","6500300","中和區"
"223006","022-BY","2017/12/14 06:39:52","新北市石碇區楓子林55-5號","121.642893333333","25.0081016666667","6501900","石碇區"
"223002","198-BX","2017/12/14 06:39:35","新北市石碇區摸乳巷5號","121.659296666667","24.9861983333333","6501900","石碇區"
"223008","406-TH","2017/12/14 06:39:53","新北市石碇區碇坪路一段149號","121.676071666667","24.97841","6501900","石碇區"
"223001","437-BY","2017/12/14 06:39:46","新北市石碇區湳窟30號","121.663441666667","24.9922733333333","6501900","石碇區"
"223007","661-BX","2017/12/14 06:39:41","新北市石碇區石崁1號","121.652215","24.999945","6501900","石碇區"
"227007","282-VK","2017/12/14 06:39:53","新北市雙溪區牡丹里中正路56號","121.86558","25.0403616666667","6502500","雙溪區"
"236009","165-UM","2017/12/14 06:39:54","新北市土城區永平街51號","121.428001666667","24.9591833333333","6501300","土城區"
"242001","233-RS","2017/12/14 06:39:37","新北市新莊區中港路301號","121.452933333333","25.0445233333333","6500500","新莊區"
