"lineid","car","time","location","longitude","latitude","cityid","cityname"
"235026","800-TS","2017/11/22 15:35:45","新北市中和區員山路36巷16-3號","121.484931666667","24.9916683333333","6500300","中和區"
"224011","AGQ-8101","2017/11/22 18:59:44","新北市瑞芳區街頂巷89-1號","121.844165","25.1083883333333","6501200","瑞芳區"
"251013","180-VK","2017/11/22 18:59:54","新北市淡水區頂田寮路1111號","121.4917","25.21235","6501000","淡水區"
"251015","182-VK","2017/11/22 18:59:51","新北市淡水區糞箕湖60號","121.485123333333","25.1723233333333","6501000","淡水區"
"221012","276-VK","2017/11/22 13:10:24","新北市汐止區汐萬路一段256巷3號","121.653456666667","25.0746616666667","6501100","汐止區"
