"lineid","car","time","location","longitude","latitude","cityid","cityname"
"247001","402-BY","2017/08/27 15:45:37","新北市五股區中興路三段3-6號","121.449468333333","25.0787683333333","6501400","蘆洲區"
"251013","179-VK","2017/08/27 16:58:50","新北市淡水區泉洲厝32號","121.489291666667","25.1925966666667","6501000","淡水區"
"251014","180-VK","2017/08/27 16:59:02","新北市淡水區淡金路四段476號","121.4524","25.2239","6501000","淡水區"
"251015","182-VK","2017/08/27 16:58:50","新北市淡水區忠愛街2-5號","121.456816666667","25.171875","6501000","淡水區"
"251016","442-VK","2017/08/27 16:58:53","新北市淡水區瓦坑3號","121.47758","25.1807666666667","6501000","淡水區"
