"lineid","car","time","location","longitude","latitude","cityid","cityname"
"247001","402-BY","2017/08/27 15:45:37","新北市五股區中興路三段3-6號","121.449468333333","25.0787683333333","6501400","蘆洲區"
"224011","AGQ-8101","2017/08/27 18:16:40","新北市瑞芳區烏勢巷145號","121.847648333333","25.10891","6501200","瑞芳區"
"251013","179-VK","2017/08/27 18:29:30","新北市淡水區椿子林19-5號","121.481153333333","25.2031583333333","6501000","淡水區"
"251014","180-VK","2017/08/27 18:29:42","新北市淡水區南平19-2號","121.493105","25.216155","6501000","淡水區"
"251015","182-VK","2017/08/27 18:29:30","新北市淡水區興福寮88巷228號","121.486136666667","25.1664933333333","6501000","淡水區"
"251016","442-VK","2017/08/27 18:29:33","新北市淡水區下圭柔山102號","121.44224","25.2077716666667","6501000","淡水區"
