"lineid","car","time","location","longitude","latitude","cityid","cityname"
"247001","402-BY","2017/08/27 20:09:15","新北市蘆洲區中正路157號","121.469066666667","25.085035","6501400","蘆洲區"
"251013","179-VK","2017/08/27 20:09:10","新北市淡水區奎柔山路431號","121.464711666667","25.2048666666667","6501000","淡水區"
"251014","180-VK","2017/08/27 20:09:02","新北市淡水區石頭厝1號","121.458741666667","25.2355516666667","6501000","淡水區"
"251015","182-VK","2017/08/27 20:09:10","新北市淡水區埤島77-4號","121.450033333333","25.1910766666667","6501000","淡水區"
"251016","442-VK","2017/08/27 20:09:13","新北市淡水區番子田20-2號","121.457765","25.2281683333333","6501000","淡水區"
