"lineid","car","time","location","longitude","latitude","cityid","cityname"
"247001","402-BY","2017/08/27 20:19:15","新北市五股區新五路二段372巷20號","121.451783333333","25.0859183333333","6501400","蘆洲區"
"251013","179-VK","2017/08/27 20:19:10","新北市淡水區相公山1-6號","121.473861666667","25.2070483333333","6501000","淡水區"
"251014","180-VK","2017/08/27 20:19:02","新北市淡水區石頭厝1號","121.458741666667","25.2355466666667","6501000","淡水區"
"251015","182-VK","2017/08/27 20:19:10","新北市淡水區埤島3-20號","121.447023333333","25.1915733333333","6501000","淡水區"
"251016","442-VK","2017/08/27 20:19:12","新北市淡水區新埔子11-7號","121.447433333333","25.228495","6501000","淡水區"
