"lineid","car","time","location","longitude","latitude","cityid","cityname"
"247001","402-BY","2017/08/27 20:32:37","新北市五股區中興路三段3-6號","121.449538333333","25.0787616666667","6501400","蘆洲區"
"251013","179-VK","2017/08/27 20:38:50","新北市淡水區下圭柔山28巷6號","121.45726","25.2041","6501000","淡水區"
"251014","180-VK","2017/08/27 20:39:02","新北市淡水區桂竹圍9號","121.471431666667","25.2320366666667","6501000","淡水區"
"251015","182-VK","2017/08/27 20:38:49","新北市淡水區淡金路四段180號","121.451703333333","25.221515","6501000","淡水區"
"251016","442-VK","2017/08/27 20:38:53","新北市淡水區後洲子8-2號","121.449568333333","25.2240433333333","6501000","淡水區"
