"lineid","car","time","location","longitude","latitude","cityid","cityname"
"247001","402-BY","2017/08/27 20:32:37","新北市五股區中興路三段3-6號","121.449538333333","25.0787616666667","6501400","蘆洲區"
"251013","179-VK","2017/08/27 20:48:50","新北市淡水區行忠路167號","121.45706","25.20088","6501000","淡水區"
"251014","180-VK","2017/08/27 20:49:02","新北市淡水區公埔子36號","121.461838333333","25.2323783333333","6501000","淡水區"
"251015","182-VK","2017/08/27 20:48:49","新北市淡水區淡金路四段542巷17號","121.452651666667","25.227105","6501000","淡水區"
"251016","442-VK","2017/08/27 20:48:53","新北市淡水區淡金路四段469號","121.45175","25.2238583333333","6501000","淡水區"
