"lineid","car","time","location","longitude","latitude","cityid","cityname"
"248005","653-BX","2017/08/28 07:49:01","新北市五股區明德路8號","121.433376666667","25.0715633333333","6501500","五股區"
"232005","290-BY","2017/08/28 07:49:15","新北市坪林區鶯子瀨1-2號","121.708185","24.9181133333333","6502000","坪林區"
"232001","291-BY","2017/08/28 07:49:00","新北市坪林區下坑子口7號","121.71165","24.9434483333333","6502000","坪林區"
"232010","375-UM","2017/08/28 07:48:56","新北市坪林區磨壁潭10-1號","121.723533333333","24.938095","6502000","坪林區"
"232012","705-BZ","2017/08/28 07:48:04","新北市坪林區金瓜寮34-1號","121.676893333333","24.9039216666667","6502000","坪林區"
"232017","758-BX","2017/08/28 07:48:27","新北市坪林區乾溪6號","121.745031666667","24.968895","6502000","坪林區"
"244001","248-BX","2017/08/28 07:49:00","新北市林口區頂福22號","121.35235","25.09504","6501700","林口區"
"244024","837-TS","2017/08/28 07:49:00","新北市林口區粉寮路二段160巷28號","121.405173333333","25.0907516666667","6501700","林口區"
"222005","289-BY","2017/08/28 07:49:17","新北市深坑區萬福路36-1號","121.605505","25.012305","6501800","深坑區"
"231007","189-VK","2017/08/28 07:49:07","新北市新店區安華路28-1號","121.519495","24.9612233333333","6500600","新店區"
"231008","192-VK","2017/08/28 07:49:02","新北市新店區安華路28-1號","121.519148333333","24.9613116666667","6500600","新店區"
"226005","5620-A6","2017/08/28 07:49:14","新北市平溪區嶺腳里嶺腳寮74-1號","121.747676666667","25.0325266666667","6502400","平溪區"
"226001","8452-VL","2017/08/28 07:49:17","新北市平溪區南山里乾坑11號","121.783165","25.04697","6502400","平溪區"
"226003","AGD-0702","2017/08/28 07:49:04","新北市平溪區嶺腳里嶺腳寮96號","121.744703333333","25.0396216666667","6502400","平溪區"
"223002","198-BX","2017/08/28 07:46:37","新北市石碇區北宜路五段土巷8號","121.629483333333","24.9464066666667","6501900","石碇區"
"223003","205-TH","2017/08/28 07:49:05","新北市石碇區四分子3號","121.664035","24.9641383333333","6501900","石碇區"
"223008","406-TH","2017/08/28 07:43:49","新北市石碇區靜安路一段337號","121.698845","25.014565","6501900","石碇區"
"223001","437-BY","2017/08/28 07:48:57","新北市石碇區樟空子2號","121.664465","24.9626366666667","6501900","石碇區"
"223004","660-BX","2017/08/28 07:49:03","新北市石碇區靜安路一段26號","121.642318333333","25.0115316666667","6501900","石碇區"
"223007","661-BX","2017/08/28 07:49:12","新北市石碇區大溪墘9-1號","121.697996666667","25.008365","6501900","石碇區"
"223005","677-TV","2017/08/28 07:49:15","新北市石碇區靜安路一段33號","121.64267","25.0118","6501900","石碇區"
"227005","282-VK","2017/08/28 07:49:03","新北市雙溪區雙溪里太平路43號","121.864765","25.0355733333333","6502500","雙溪區"
"252006","073-UM","2017/08/28 07:48:57","新北市三芝區古庄里四棧橋48-1號","121.482725","25.26417","6502100","三芝區"
"252004","249-BX","2017/08/28 07:49:13","新北市三芝區店子里店子72-2號","121.508065","25.2037916666667","6502100","三芝區"
"237001","159-UY","2017/08/28 07:48:55","新北市三峽區國慶路156-2號","121.37505","24.9401483333333","6500900","三峽區"
"236007","165-UM","2017/08/28 07:49:05","新北市土城區延吉街282號","121.465038333333","24.9841933333333","6501300","土城區"
"236001","339-SR","2017/08/28 07:49:18","新北市土城區龍泉路153號","121.450856666667","24.9459583333333","6501300","土城區"
"242020","AAC-296","2017/08/28 07:49:18","新北市新莊區中港路306號","121.452636666667","25.045025","6500500","新莊區"
"242028","986-R7","2017/08/28 07:49:01","新北市新莊區中平路82巷36-2號","121.446371666667","25.0449216666667","6500500","新莊區"
"242047","751-BX","2017/08/28 07:49:14","新北市新莊區龍安路249巷1號","121.419028333333","25.0205983333333","6500500","新莊區"
"242024","615-BX","2017/08/28 07:49:06","新北市新莊區中平路82巷22號","121.445711666667","25.0448316666667","6500500","新莊區"
"242022","613-BX","2017/08/28 07:49:05","新北市新莊區中平路82巷26號","121.445946666667","25.0448416666667","6500500","新莊區"
"242026","612-BX","2017/08/28 07:48:59","新北市新莊區中港一街142號","121.446666666667","25.0448733333333","6500500","新莊區"
"242035","566-BX","2017/08/28 07:49:09","新北市新莊區新樹路115號","121.437251666667","25.02657","6500500","新莊區"
"242040","497-BY","2017/08/28 07:49:14","新北市新莊區中正路491號","121.441008333333","25.0334066666667","6500500","新莊區"
"242052","442-UM","2017/08/28 07:49:11","新北市新莊區新泰路357巷3弄57號","121.441895","25.0394516666667","6500500","新莊區"
"242045","441-UM","2017/08/28 07:49:09","新北市新莊區新樹路67巷32號","121.440298333333","25.0302783333333","6500500","新莊區"
"242049","440-UM","2017/08/28 07:49:16","新北市新莊區瓊林路59-14號","121.441438333333","25.02383","6500500","新莊區"
"242030","415-TV","2017/08/28 07:49:11","新北市新莊區新泰路464號","121.443373333333","25.0449883333333","6500500","新莊區"
"242001","413-TV","2017/08/28 07:49:13","新北市新莊區中正路473-1號","121.441976666667","25.0331033333333","6500500","新莊區"
"242038","400-BY","2017/08/28 07:49:19","新北市新莊區新樹路52號","121.437325","25.0266683333333","6500500","新莊區"
"242059","362-BY","2017/08/28 07:49:06","新北市新莊區三和路12-21號","121.442213333333","25.0384466666667","6500500","新莊區"
"242057","353-BY","2017/08/28 07:49:11","新北市新莊區新泰路357巷3弄57號","121.442296666667","25.0396366666667","6500500","新莊區"
"242003","132-UY","2017/08/28 07:49:13","新北市新莊區復興路一段207號","121.452306666667","25.0436116666667","6500500","新莊區"
"242033","133-UY","2017/08/28 07:49:11","新北市新莊區瓊林路118號","121.442333333333","25.0257","6500500","新莊區"
"242018","135-UY","2017/08/28 07:49:08","新北市新莊區中港路319號","121.452618333333","25.0448933333333","6500500","新莊區"
"242006","173-VK","2017/08/28 07:48:17","新北市新莊區三和路12-11號","121.442218333333","25.036965","6500500","新莊區"
"242012","175-VK","2017/08/28 07:49:14","新北市新莊區新泰路357巷3弄57號","121.442361666667","25.0395916666667","6500500","新莊區"
"242055","176-VK","2017/08/28 07:49:10","新北市泰山區磚雅厝3號","121.442178333333","25.04163","6500500","新莊區"
"242010","346-TH","2017/08/28 07:49:14","新北市新莊區中港路439號","121.452376666667","25.0481383333333","6500500","新莊區"
"242043","347-TH","2017/08/28 07:49:04","新北市新莊區富國路100號","121.421378333333","25.0254766666667","6500500","新莊區"
"242016","348-TH","2017/08/28 07:49:12","新北市新莊區中港路306號","121.452628333333","25.0450033333333","6500500","新莊區"
"242014","350-TH","2017/08/28 07:48:57","新北市新莊區公園一路125號","121.44548","25.03808","6500500","新莊區"
"242008","351-TH","2017/08/28 07:49:15","新北市新莊區立信一街35號","121.442398333333","25.0491416666667","6500500","新莊區"
