"lineid","car","time","location","longitude","latitude","cityid","cityname"
"244025","742-UY","2017/12/25 09:31:22","新北市林口區粉寮路二段160巷28號","121.405191666667","25.0907416666667","6501700","林口區"
"243008","680-BX","2017/12/25 09:33:07","新北市泰山區黎明路25號","121.422058333333","25.0607566666667","6501600","泰山區"
"231008","192-VK","2017/12/25 12:09:37","新北市新店區新烏路一段171號","121.545046666667","24.9343983333333","6500600","新店區"
"231023","AAD-862","2017/12/25 08:35:26","新北市新店區安華路28-1號","121.519903333333","24.9611183333333","6500600","新店區"
"235031","255-BX","2017/12/25 11:36:33","新北市中和區和城路一段271巷1號","121.485538333333","24.9918433333333","6500300","中和區"
"227005","282-VK","2017/12/25 12:09:53","新北市雙溪區牡丹里聖南31號","121.853815","25.0556916666667","6502500","雙溪區"
