"lineid","car","time","location","longitude","latitude","cityid","cityname"
"234005","207-UY","2017/12/25 12:19:50","新北市永和區福和路1號","121.526683333333","25.0101366666667","6500400","永和區"
"234068","847-RS","2017/12/25 12:19:36","新北市永和區福和路1號","121.525563333333","25.00926","6500400","永和區"
"234048","863-TW","2017/12/25 12:19:52","新北市永和區福和路1號","121.526436666667","25.0097883333333","6500400","永和區"
"234076","969-R7","2017/12/25 12:19:43","新北市永和區福和路1號","121.526526666667","25.0096983333333","6500400","永和區"
"244025","742-UY","2017/12/25 09:31:22","新北市林口區粉寮路二段160巷28號","121.405191666667","25.0907416666667","6501700","林口區"
"243007","380-SR","2017/12/25 12:17:18","新北市泰山區黎明路23-1號","121.421628333333","25.0612483333333","6501600","泰山區"
"243008","680-BX","2017/12/25 09:33:07","新北市泰山區黎明路25號","121.422058333333","25.0607566666667","6501600","泰山區"
"231023","AAD-862","2017/12/25 08:35:26","新北市新店區安華路28-1號","121.519903333333","24.9611183333333","6500600","新店區"
"235031","255-BX","2017/12/25 11:36:33","新北市中和區和城路一段271巷1號","121.485538333333","24.9918433333333","6500300","中和區"
"227005","282-VK","2017/12/25 12:19:53","新北市雙溪區三貂里定福路1-2號","121.85072","25.0633816666667","6502500","雙溪區"
