"lineid","car","time","location","longitude","latitude","cityid","cityname"
"234005","207-UY","2017/12/25 12:29:50","新北市永和區福和路1號","121.526685","25.0100716666667","6500400","永和區"
"234078","298-R6","2017/12/25 12:29:52","新北市永和區林森路20巷2號","121.526075","25.0054683333333","6500400","永和區"
"234036","336-UY","2017/12/25 12:29:49","新北市永和區福和路1號","121.526663333333","25.0100866666667","6500400","永和區"
"234084","338-UY","2017/12/25 12:29:53","新北市永和區福和路1號","121.526751666667","25.009695","6500400","永和區"
"234015","745-BX","2017/12/25 12:29:37","新北市永和區福和路1號","121.526248333333","25.0095216666667","6500400","永和區"
"234068","847-RS","2017/12/25 12:29:36","新北市永和區福和路286號","121.517581666667","25.00748","6500400","永和區"
"234040","862-TW","2017/12/25 12:29:52","新北市永和區福和路287號","121.517268333333","25.00738","6500400","永和區"
"234048","863-TW","2017/12/25 12:29:52","新北市永和區福和路1號","121.526445","25.009985","6500400","永和區"
"234076","969-R7","2017/12/25 12:29:43","新北市永和區福和路1號","121.525976666667","25.00963","6500400","永和區"
"234072","AAC-211","2017/12/25 12:29:58","新北市永和區福和路1號","121.526238333333","25.00962","6500400","永和區"
"244025","742-UY","2017/12/25 09:31:22","新北市林口區粉寮路二段160巷28號","121.405191666667","25.0907416666667","6501700","林口區"
"243007","380-SR","2017/12/25 12:17:18","新北市泰山區黎明路23-1號","121.421628333333","25.0612483333333","6501600","泰山區"
"243008","680-BX","2017/12/25 09:33:07","新北市泰山區黎明路25號","121.422058333333","25.0607566666667","6501600","泰山區"
"231023","AAD-862","2017/12/25 08:35:26","新北市新店區安華路28-1號","121.519903333333","24.9611183333333","6500600","新店區"
"231013","719-UM","2017/12/25 12:29:35","新北市新店區安華路28-1號","121.519818333333","24.961195","6500600","新店區"
"235031","255-BX","2017/12/25 11:36:33","新北市中和區和城路一段271巷1號","121.485538333333","24.9918433333333","6500300","中和區"
"235025","378-QA","2017/12/25 04:01:42","新北市中和區員山路36巷13號","121.484343333333","24.99061","6500300","中和區"
"207002","749-BX","2017/12/25 12:29:40","新北市萬里區雙興里太和路7-2號","121.658581666667","25.1740983333333","6502800","萬里區"
