"lineid","car","time","location","longitude","latitude","cityid","cityname"
"234028","746-BX","2017/12/25 14:59:40","新北市八里區中山路三段112號","121.386993333333","25.1459833333333","6500400","永和區"
"234025","9371-KE","2017/12/25 14:59:50","新北市永和區永貞路19號","121.521028333333","25.0071333333333","6500400","永和區"
"248013","025-BX","2017/12/25 14:59:54","新北市五股區成泰路二段195巷1號","121.440561666667","25.0874116666667","6501500","五股區"
"248015","026-BX","2017/12/25 14:59:44","新北市五股區凌雲路一段158巷39弄8號","121.446626666667","25.103945","6501500","五股區"
"248007","095-VK","2017/12/25 14:59:52","新北市五股區四維路30巷23號","121.46831","25.0715333333333","6501500","五股區"
"248019","225-UY","2017/12/25 14:59:42","新北市五股區凌雲路三段3號","121.431221666667","25.1062566666667","6501500","五股區"
"248011","247-BX","2017/12/25 14:59:50","新北市五股區工商路138號","121.435396666667","25.0863366666667","6501500","五股區"
"248009","272-BY","2017/12/25 14:59:42","新北市五股區成泰路一段7巷12號","121.433255","25.066795","6501500","五股區"
"248003","677-BX","2017/12/25 14:59:57","新北市五股區成泰路一段32巷60號","121.434933333333","25.0669816666667","6501500","五股區"
"234022","9380-KE","2017/12/25 14:57:00","新北市永和區保生路55-1號","121.50449","25.01096","6500400","永和區"
"234072","AAC-211","2017/12/25 14:59:38","新北市板橋區萬板路818巷17-1號","121.483946666667","25.026815","6500400","永和區"
"244001","248-BX","2017/12/25 14:45:58","新北市林口區竹林路265號","121.389613333333","25.0807333333333","6501700","林口區"
"244025","742-UY","2017/12/25 09:31:22","新北市林口區粉寮路二段160巷28號","121.405191666667","25.0907416666667","6501700","林口區"
"243004","AAD-798","2017/12/25 14:59:54","新北市泰山區文化街29號","121.435093333333","25.0635733333333","6501600","泰山區"
"243003","297-R6","2017/12/25 14:59:45","新北市泰山區壽山路160巷2號","121.416945","25.0310216666667","6501600","泰山區"
"243007","380-SR","2017/12/25 14:59:53","新北市泰山區仁德路56號","121.434053333333","25.0570266666667","6501600","泰山區"
"243006","421-VK","2017/12/25 14:59:43","新北市泰山區泰林路二段328號","121.430123333333","25.0632","6501600","泰山區"
"243002","KEA-2215","2017/12/25 14:59:44","新北市泰山區明志路二段201號","121.427445","25.0490516666667","6501600","泰山區"
"243001","KEA-2216","2017/12/25 14:59:43","新北市泰山區泰林路二段318號","121.430618333333","25.0629016666667","6501600","泰山區"
"243005","646-TV","2017/12/25 14:59:44","新北市泰山區中央路5巷21號","121.427266666667","25.0433083333333","6501600","泰山區"
"243008","680-BX","2017/12/25 14:59:43","新北市泰山區新生路53-1號","121.428258333333","25.045015","6501600","泰山區"
"231037","0293-UT","2017/12/25 14:59:43","新北市新店區柴埕路60巷1-1號","121.510098333333","24.963845","6500600","新店區"
"231028","046-UY","2017/12/25 14:59:44","新北市新店區安豐路49號","121.500011666667","24.9549433333333","6500600","新店區"
"231030","047-UY","2017/12/25 14:59:43","新北市新店區安興路84號","121.515216666667","24.9759783333333","6500600","新店區"
"231029","106-UY","2017/12/25 14:59:39","新北市新店區錦秀路33號","121.479226666667","24.9439366666667","6500600","新店區"
"231018","107-UY","2017/12/25 14:59:53","新北市新店區中央五街7號","121.53003","24.974245","6500600","新店區"
"231011","108-UY","2017/12/25 14:59:49","新北市新店區寶橋路97號","121.54703","24.9765866666667","6500600","新店區"
"231019","187-VK","2017/12/25 14:59:53","新北市新店區永福路54號","121.55812","24.9286766666667","6500600","新店區"
"231014","KEA-2219","2017/12/25 14:59:43","新北市新店區銀河路88號","121.580536666667","24.959465","6500600","新店區"
"231026","256-BX","2017/12/25 14:59:45","新北市新店區博愛街11巷1號","121.540818333333","24.97304","6500600","新店區"
"231023","AAD-862","2017/12/25 14:59:50","新北市新店區檳榔路109號","121.544438333333","24.9617816666667","6500600","新店區"
"231002","355-BY","2017/12/25 14:59:52","新北市新店區民權路56號","121.538748333333","24.9830766666667","6500600","新店區"
"231025","3713-VJ","2017/12/25 14:59:50","新北市新店區建國路207-2號","121.53776","24.9803533333333","6500600","新店區"
"231024","4716-K9","2017/12/25 14:59:52","新北市新店區中華路83巷67號","121.538328333333","24.9673066666667","6500600","新店區"
"231036","512-UM","2017/12/25 14:59:53","新北市新店區安祥路102巷46弄51號","121.486303333333","24.9635816666667","6500600","新店區"
"231035","515-UM","2017/12/25 14:59:44","新北市新店區新和街59巷17號","121.519285","24.9860433333333","6500600","新店區"
"231001","619-UM","2017/12/25 14:59:38","新北市新店區中正路276號","121.538838333333","24.973605","6500600","新店區"
"231003","641-BX","2017/12/25 14:59:41","新北市新店區中興路二段231-2號","121.547691666667","24.9750283333333","6500600","新店區"
"231034","645-TV","2017/12/25 14:59:54","新北市新店區玫瑰路4-1號","121.493591666667","24.9514216666667","6500600","新店區"
"231039","718-UY","2017/12/25 14:59:41","新北市新店區民權路19號","121.541985","24.98264","6500600","新店區"
"231031","720-UM","2017/12/25 14:59:58","新北市新店區安泰路60巷134弄44號","121.484141666667","24.9440716666667","6500600","新店區"
"231005","897-TW","2017/12/25 14:59:58","新北市新店區復興路66號","121.537766666667","24.9868083333333","6500600","新店區"
"231006","898-TW","2017/12/25 14:59:54","新北市新店區新坡一街104號","121.54836","24.9641283333333","6500600","新店區"
"231004","899-TW","2017/12/25 14:59:40","新北市新店區民族路48巷1號","121.540205","24.9787583333333","6500600","新店區"
"235030","003-UY","2017/12/25 14:59:53","新北市中和區中山路二段57號","121.504306666667","25.0048916666667","6500300","中和區"
"235010","031-BX","2017/12/25 14:59:55","新北市中和區興南路一段105巷20弄5號","121.510293333333","24.98553","6500300","中和區"
"235020","096-UM","2017/12/25 14:59:44","新北市中和區中山路三段170巷2弄16號","121.473448333333","25.0067733333333","6500300","中和區"
"235003","097-UM","2017/12/25 14:59:37","新北市永和區中正路1號","121.513755","24.995475","6500300","中和區"
"235004","150-BY","2017/12/25 14:59:50","新北市中和區景安路79巷35號","121.507371666667","24.9962666666667","6500300","中和區"
"235022","151-BY","2017/12/25 14:59:41","新北市中和區員山路130號","121.481136666667","24.9963083333333","6500300","中和區"
"235013","186-VK","2017/12/25 14:59:57","新北市中和區景平路534號","121.502651666667","24.9945266666667","6500300","中和區"
"235031","255-BX","2017/12/25 14:59:42","新北市中和區新生街136號","121.483543333333","25.00104","6500300","中和區"
"235036","301-VK","2017/12/25 14:59:42","新北市中和區中正路406號","121.49258","24.99415","6500300","中和區"
"235007","352-BY","2017/12/25 14:59:39","新北市中和區華新街224號","121.506263333333","24.9817116666667","6500300","中和區"
"235032","377-QA","2017/12/25 14:59:27","新北市中和區中山路二段276號","121.496703333333","25.0024716666667","6500300","中和區"
"235014","4979-A6","2017/12/25 14:59:36","新北市中和區景平路310號","121.512545","24.9927183333333","6500300","中和區"
"235033","4980-A6","2017/12/25 14:59:41","新北市中和區光華街10號","121.504361666667","25.0043033333333","6500300","中和區"
"235034","558-UM","2017/12/25 14:59:52","新北市中和區連勝街59號","121.497583333333","24.9971266666667","6500300","中和區"
"235018","640-BX","2017/12/25 14:59:44","新北市中和區莒光路68號","121.472238333333","25.00316","6500300","中和區"
"235024","647-TV","2017/12/25 14:59:39","新北市中和區連城路308號","121.483685","24.99626","6500300","中和區"
"235016","805-TS","2017/12/25 14:59:46","新北市中和區華新街34號","121.507843333333","24.9844416666667","6500300","中和區"
"235012","896-TW","2017/12/25 14:59:40","新北市中和區忠孝街2-8號","121.50921","24.982995","6500300","中和區"
"235029","911-UM","2017/12/25 14:59:57","新北市中和區永和路55號","121.497035","25.0053783333333","6500300","中和區"
"235015","157-BY","2017/12/25 14:59:43","新北市中和區景安路220巷4弄1號","121.503341666667","24.9909966666667","6500300","中和區"
"235001","AAC-213","2017/12/25 14:59:44","新北市中和區立人街1號","121.521928333333","24.9939266666667","6500300","中和區"
"235023","AAC-215","2017/12/25 14:59:48","新北市中和區圓通路365號","121.49132","24.989725","6500300","中和區"
"220016","013-TV","2017/12/25 14:59:54","新北市板橋區中山路二段318巷2弄2號","121.480306666667","25.01929","6500100","板橋區"
"220013","072-UY","2017/12/25 14:59:55","新北市板橋區海山路27號","121.467643333333","25.009045","6500100","板橋區"
"220017","AAD-861","2017/12/25 14:59:51","新北市板橋區大明街20巷19弄9號","121.45814","25.00319","6500100","板橋區"
"220105","120-SR","2017/12/25 14:59:49","新北市板橋區民治街71巷1弄5號","121.480185","25.03283","6500100","板橋區"
"247021","893-R6","2017/12/25 14:59:46","新北市蘆洲區中正路497-1號","121.46193","25.0963933333333","6501400","蘆洲區"
"247001","337-TH","2017/12/25 14:59:41","新北市蘆洲區環堤大道98號","121.455286666667","25.0862733333333","6501400","蘆洲區"
"253003","6232-TK","2017/12/25 14:59:52","新北市石門區小坑14號","121.595545","25.284145","6502200","石門區"
"253001","6251-TK","2017/12/25 14:59:47","新北市石門區崁子腳53號","121.536716666667","25.2823966666667","6502200","石門區"
"253002","637-UY","2017/12/25 14:59:41","新北市石門區楓林62-1號","121.542531666667","25.27387","6502200","石門區"
"253004","8270-PC","2017/12/25 14:59:55","新北市石門區茂林社區1-1號","121.591735","25.2717433333333","6502200","石門區"
"208004","AAC-292","2017/12/25 14:59:57","新北市金山區兩湖里倒照湖22號","121.589155","25.23437","6502700","金山區"
"207002","749-BX","2017/12/25 14:59:40","新北市萬里區崁腳里崁腳路73號","121.647546666667","25.159575","6502800","萬里區"
"207001","662-BX","2017/12/25 14:59:48","新北市萬里區雙興里豐稟路6-1號","121.648983333333","25.1852933333333","6502800","萬里區"
"236064","105-UM","2017/12/25 14:59:57","新北市土城區裕生路84巷6號","121.447008333333","24.9855533333333","6501300","土城區"
"236040","107-UM","2017/12/25 14:59:45","新北市土城區學府路一段232號","121.451895","24.9849616666667","6501300","土城區"
"236074","166-UM","2017/12/25 14:46:49","新北市土城區中央路四段185巷55弄1號","121.416623333333","24.9560533333333","6501300","土城區"
"236028","253-BX","2017/12/25 14:59:57","新北市土城區慶利街18號","121.439666666667","24.9737383333333","6501300","土城區"
"236024","269-VK","2017/12/25 14:59:53","新北市土城區中正路74巷3弄2號","121.444866666667","24.9746633333333","6501300","土城區"
"236012","270-VK","2017/12/25 14:59:57","新北市土城區延和路11號","121.463863333333","24.9880983333333","6501300","土城區"
"236032","271-VK","2017/12/25 14:59:48","新北市土城區仁愛路4號","121.45979","24.9811966666667","6501300","土城區"
"236016","401-BY","2017/12/25 14:59:28","新北市土城區延吉街168巷3號","121.468235","24.9855683333333","6501300","土城區"
"236056","912-UM","2017/12/25 14:59:58","新北市土城區清水路25巷25號","121.453083333333","24.980415","6501300","土城區"
"236044","913-UM","2017/12/25 14:59:43","新北市土城區青雲路311號","121.459001666667","24.978995","6501300","土城區"
"236060","915-UM","2017/12/25 14:59:40","新北市土城區延和路41巷6弄16號","121.466568333333","24.99031","6501300","土城區"
"236052","AAC-216","2017/12/25 14:59:37","新北市土城區學成路172號","121.447941666667","24.9889883333333","6501300","土城區"
"238010","601-UM","2017/12/25 14:59:40","新北市樹林區育德街78-1號","121.38813","24.9682883333333","6500700","樹林區"
"238008","KEA-2217","2017/12/25 14:59:43","新北市樹林區育德街78-1號","121.388033333333","24.9680683333333","6500700","樹林區"
"238012","303-VK","2017/12/25 14:59:47","新北市樹林區育德街78號","121.387466666667","24.9684766666667","6500700","樹林區"
"238004","283-BY","2017/12/25 14:59:52","新北市樹林區育德街78號","121.387513333333","24.9684066666667","6500700","樹林區"
"238001","282-BY","2017/12/25 14:59:46","新北市樹林區育德街78-1號","121.387616666667","24.9681383333333","6500700","樹林區"
"238007","268-VK","2017/12/25 14:59:55","新北市樹林區育德街121巷7號","121.3891","24.9681566666667","6500700","樹林區"
"221002","707-TV","2017/12/25 14:59:42","新北市汐止區莊敬街29巷9弄13號","121.657716666667","25.061095","6501100","汐止區"
"220027","145-BY","2017/12/25 14:59:45","新北市板橋區南雅西路二段206號","121.451855","25.01497","6500100","板橋區"
"220028","200-UY","2017/12/25 14:59:46","新北市板橋區大觀路二段153巷22號","121.446606666667","25.0002466666667","6500100","板橋區"
"220030","610-BX","2017/12/25 14:59:39","新北市板橋區溪北路97號","121.428616666667","24.9893533333333","6500100","板橋區"
"220032","256-TC","2017/12/25 14:59:46","新北市板橋區溪崑二街112巷18號","121.426016666667","24.9890116666667","6500100","板橋區"
"220045","257-TC","2017/12/25 14:59:44","新北市板橋區文化路二段124巷34弄16號","121.47077","25.0254866666667","6500100","板橋區"
"220020","277-BY","2017/12/25 14:59:47","新北市板橋區金門街127巷9-1號","121.43345","24.9913066666667","6500100","板橋區"
"220050","280-UM","2017/12/25 14:59:46","新北市板橋區縣民大道三段69號","121.475011666667","25.0214816666667","6500100","板橋區"
"220043","283-UM","2017/12/25 14:59:38","新北市板橋區文德路36號","121.462245","25.0241733333333","6500100","板橋區"
"220019","283-VK","2017/12/25 14:59:54","新北市板橋區廣權路131號","121.465645","24.9933233333333","6500100","板橋區"
"220001","285-VK","2017/12/25 14:59:51","新北市板橋區永豐街139號","121.47495","25.019975","6500100","板橋區"
"220031","286-VK","2017/12/25 14:59:57","新北市板橋區僑中二街90巷12號","121.445768333333","25.0093533333333","6500100","板橋區"
"220029","287-VK","2017/12/25 14:59:47","新北市板橋區僑中一街80巷6弄2號","121.447606666667","25.0118416666667","6500100","板橋區"
"220039","288-VK","2017/12/25 14:59:52","新北市板橋區幸福路32巷2弄21號","121.461083333333","25.0215666666667","6500100","板橋區"
"220009","295-UM","2017/12/25 14:59:54","新北市板橋區縣民大道二段200巷13號","121.470041666667","25.017445","6500100","板橋區"
"220023","297-UM","2017/12/25 14:59:43","新北市板橋區金華街10巷48弄71號","121.45954","25.0203733333333","6500100","板橋區"
"220010","303-R5","2017/12/25 14:59:56","新北市板橋區光復街202巷6號","121.486263333333","25.0203883333333","6500100","板橋區"
"220041","307-R5","2017/12/25 14:59:51","新北市板橋區裕民街128巷3號","121.458661666667","25.0277516666667","6500100","板橋區"
"220047","317-R6","2017/12/25 14:59:52","新北市板橋區漢生西路165巷1號","121.462833333333","25.023285","6500100","板橋區"
"220012","486-VK","2017/12/25 14:59:42","新北市板橋區館前東路154號","121.464613333333","25.0080583333333","6500100","板橋區"
"220038","487-VK","2017/12/25 14:59:45","新北市板橋區龍泉街108巷102號","121.455461666667","25.0255483333333","6500100","板橋區"
"220037","491-VK","2017/12/25 14:59:52","新北市板橋區仁化街145號","121.477553333333","25.0331183333333","6500100","板橋區"
"220052","561-BX","2017/12/25 14:59:41","新北市板橋區自由路37號","121.465565","25.02316","6500100","板橋區"
"220034","568-UM","2017/12/25 14:59:42","新北市五股區成泰路一段8巷9-9號","121.43779","25.0674433333333","6500100","板橋區"
"220011","609-BX","2017/12/25 14:59:55","新北市板橋區三民路一段31巷89弄12-4號","121.48183","25.023465","6500100","板橋區"
"220040","637-BX","2017/12/25 14:59:48","新北市板橋區懷德街201巷1號","121.480665","25.0292433333333","6500100","板橋區"
"220005","686-BX","2017/12/25 14:59:41","新北市板橋區廣權路11號","121.460791666667","24.9914733333333","6500100","板橋區"
"220025","687-BX","2017/12/25 14:59:41","新北市板橋區僑中一街102巷1弄16號","121.445975","25.0122166666667","6500100","板橋區"
"220042","689-BX","2017/12/25 14:59:44","新北市板橋區長江路二段165號","121.466456666667","25.0320366666667","6500100","板橋區"
"220002","741-BX","2017/12/25 14:59:45","新北市板橋區實踐路93巷10號","121.464555","25.0053633333333","6500100","板橋區"
"220003","827-TW","2017/12/25 14:59:47","新北市板橋區忠孝路48巷11弄17-2號","121.462141666667","24.9999133333333","6500100","板橋區"
"220014","829-TW","2017/12/25 14:59:34","新北市板橋區中山路一段206巷22號","121.470911666667","25.0127166666667","6500100","板橋區"
"220051","830-TW","2017/12/25 14:59:48","新北市板橋區仁化街64巷15號","121.47633","25.0313283333333","6500100","板橋區"
"220022","895-R6","2017/12/25 14:59:50","新北市板橋區縣民大道一段295號","121.460871666667","25.0103733333333","6500100","板橋區"
"220021","985-R7","2017/12/25 14:59:55","新北市板橋區南雅西路二段237號","121.451526666667","25.0142366666667","6500100","板橋區"
"220046","AAC-210","2017/12/25 14:59:54","新北市板橋區文化路一段221巷26號","121.462773333333","25.0179","6500100","板橋區"
"220018","AAC-253","2017/12/25 14:59:55","新北市板橋區館前東路116號","121.463676666667","25.0078016666667","6500100","板橋區"
