"lineid","car","time","location","longitude","latitude","cityid","cityname"
"249005","172-UM","2017/12/25 17:09:32","新北市八里區華富山9號","121.418436666667","25.13966","6502300","八里區"
"249001","173-UM","2017/12/25 17:09:53","新北市八里區中華路二段305-7號","121.403401666667","25.1479","6502300","八里區"
"249004","303-UY","2017/12/25 17:09:52","新北市八里區忠孝路246號","121.421411666667","25.16096","6502300","八里區"
"249002","305-UY","2017/12/25 17:09:55","新北市八里區龍米路二段147巷1號","121.443456666667","25.1493716666667","6502300","八里區"
"249003","593-UM","2017/12/25 17:09:56","新北市八里區中山路二段405號","121.397745","25.1466183333333","6502300","八里區"
"248003","677-BX","2017/12/25 15:16:37","新北市五股區中興路四段40-3號","121.438723333333","25.082795","6501500","五股區"
"244007","080-UY","2017/12/25 17:09:52","新北市林口區菁埔25-8號","121.377076666667","25.0965866666667","6501700","林口區"
"244001","248-BX","2017/12/25 15:24:43","新北市林口區粉寮路二段46號","121.403535","25.0868683333333","6501700","林口區"
"244025","402-UM","2017/12/25 16:58:56","新北市林口區粉寮路二段160巷28號","121.40518","25.0907716666667","6501700","林口區"
"244019","403-UM","2017/12/25 17:09:45","新北市林口區仁愛路二段162號","121.381338333333","25.074105","6501700","林口區"
"244025","742-UY","2017/12/25 17:09:47","新北市林口區粉寮路23號","121.400323333333","25.0829533333333","6501700","林口區"
"244023","483-VK","2017/12/25 17:09:55","新北市林口區仁愛路一段270號","121.393783333333","25.07599","6501700","林口區"
"244017","485-VK","2017/12/25 17:09:41","新北市林口區粉寮69號","121.404956666667","25.0908733333333","6501700","林口區"
"244011","656-BX","2017/12/25 17:09:31","新北市林口區粉寮路二段160巷28號","121.405165","25.09076","6501700","林口區"
"244009","837-TS","2017/12/25 17:09:50","新北市林口區文化一路二段303號","121.385625","25.0855816666667","6501700","林口區"
"244021","838-TS","2017/12/25 17:09:55","新北市林口區粉寮一街122號","121.405163333333","25.0859283333333","6501700","林口區"
"231046","278-BY","2017/12/25 17:09:44","新北市新店區直潭六街64號","121.532235","24.9400716666667","6500600","新店區"
"231006","898-TW","2017/12/25 15:36:51","新北市新店區安華路28-1號","121.519306666667","24.96084","6500600","新店區"
"241011","013-R5","2017/12/25 17:09:51","新北市三重區仁愛街53巷68號","121.497875","25.072445","6500200","三重區"
"241028","022-UY","2017/12/25 17:09:41","新北市三重區重新路三段110號","121.492326666667","25.0603166666667","6500200","三重區"
"241008","059-VK","2017/12/25 17:09:53","新北市三重區力行路二段136巷17弄2號","121.481656666667","25.075575","6500200","三重區"
"241009","060-VK","2017/12/25 17:09:47","新北市三重區三和路四段211-30號","121.48265","25.0800166666667","6500200","三重區"
"241031","061-VK","2017/12/25 17:09:51","新北市三重區重陽路一段113巷1弄11號","121.487483333333","25.05951","6500200","三重區"
"241015","062-VK","2017/12/25 17:09:50","新北市三重區長生街27號","121.499553333333","25.0663766666667","6500200","三重區"
"241017","063-VK","2017/12/25 17:09:42","新北市三重區中正北路25巷2號","121.493255","25.06268","6500200","三重區"
"241024","065-VK","2017/12/25 17:09:50","新北市三重區後竹圍街295號","121.478946666667","25.06998","6500200","三重區"
"241002","090-VK","2017/12/25 17:09:43","新北市三重區五華街35巷66號","121.495943333333","25.081755","6500200","三重區"
"241003","091-VK","2017/12/25 17:09:55","新北市三重區富福街114號","121.493556666667","25.0857416666667","6500200","三重區"
"241005","262-UM","2017/12/25 17:09:56","新北市三重區仁愛街660號","121.482535","25.0805016666667","6500200","三重區"
"241026","265-UM","2017/12/25 17:09:43","新北市三重區重新路二段17號","121.498148333333","25.0623333333333","6500200","三重區"
"241016","266-UM","2017/12/25 17:09:51","新北市三重區大仁街68號","121.492416666667","25.06507","6500200","三重區"
"241022","267-UM","2017/12/25 17:09:56","新北市三重區重陽路二段20號","121.486671666667","25.0624066666667","6500200","三重區"
"241018","268-UM","2017/12/25 17:09:52","新北市三重區六張街79號","121.493431666667","25.0700733333333","6500200","三重區"
"241032","269-UM","2017/12/25 17:09:53","新北市三重區三陽路13巷1號","121.486026666667","25.0594866666667","6500200","三重區"
"241013","270-UM","2017/12/25 17:09:46","新北市三重區仁昌街30號","121.496558333333","25.0740433333333","6500200","三重區"
"241025","271-UM","2017/12/25 17:09:38","新北市三重區中正北路560巷89號","121.471311666667","25.0683316666667","6500200","三重區"
"241007","398-BY","2017/12/25 17:09:42","新北市三重區三和路四段163巷12號","121.483983333333","25.0789033333333","6500200","三重區"
"241020","413-TH","2017/12/25 17:09:53","新北市三重區自強路三段34巷21號","121.486173333333","25.07241","6500200","三重區"
"241004","475-VK","2017/12/25 17:09:49","新北市三重區五華街98巷10號","121.491753333333","25.08186","6500200","三重區"
"241019","478-VK","2017/12/25 17:09:51","新北市三重區力行路一段153巷32號","121.48612","25.0690883333333","6500200","三重區"
"241030","480-VK","2017/12/25 17:09:54","新北市三重區成功路97號","121.48818","25.051535","6500200","三重區"
"241014","543-UM","2017/12/25 17:09:56","新北市三重區龍濱路126號","121.501805","25.0715516666667","6500200","三重區"
"241023","545-UM","2017/12/25 17:09:47","新北市三重區忠孝路三段84巷1號","121.480245","25.0645116666667","6500200","三重區"
"241001","547-UM","2017/12/25 17:09:45","新北市三重區仁愛街255巷22號","121.493621666667","25.0785933333333","6500200","三重區"
"241006","AAD-863","2017/12/25 17:09:52","新北市三重區三和路四段264巷2弄13號","121.485096666667","25.0768066666667","6500200","三重區"
"241012","941-UM","2017/12/25 17:09:48","新北市三重區仁壽街178號","121.50046","25.0746483333333","6500200","三重區"
"241029","942-UM","2017/12/25 17:09:53","新北市三重區重安街102號","121.493008333333","25.0559783333333","6500200","三重區"
"241033","AAC-255","2017/12/25 17:09:42","新北市三重區中興北街271號","121.469168333333","25.0606516666667","6500200","三重區"
"235061","378-QA","2017/12/25 15:29:19","新北市中和區員山路36巷13號","121.48431","24.9911733333333","6500300","中和區"
"235024","647-TV","2017/12/25 15:09:59","新北市中和區員山路36巷16-3號","121.485018333333","24.99144","6500300","中和區"
"235062","800-TS","2017/12/25 16:35:30","新北市中和區員山路36巷16-3號","121.484911666667","24.9916","6500300","中和區"
"235065","911-UM","2017/12/25 17:09:37","新北市中和區員山路36巷16-3號","121.485113333333","24.99114","6500300","中和區"
"247022","893-R6","2017/12/25 17:09:47","新北市蘆洲區民族路504號","121.469426666667","25.0902383333333","6501400","蘆洲區"
"247012","546-UM","2017/12/25 17:09:40","新北市蘆洲區信義路292巷8號","121.478093333333","25.0876983333333","6501400","蘆洲區"
"247020","500-BY","2017/12/25 17:09:38","新北市蘆洲區仁愛街70巷26號","121.471248333333","25.0945183333333","6501400","蘆洲區"
"247008","341-TH","2017/12/25 17:09:42","新北市蘆洲區信義路30巷131號","121.475306666667","25.0766933333333","6501400","蘆洲區"
"247010","339-TH","2017/12/25 17:09:56","新北市蘆洲區民族路20號","121.476025","25.0841216666667","6501400","蘆洲區"
"247002","337-TH","2017/12/25 17:09:41","新北市蘆洲區永樂街77號","121.456061666667","25.0886883333333","6501400","蘆洲區"
"247004","336-TH","2017/12/25 17:09:48","新北市蘆洲區永安南路二段276號","121.458235","25.081015","6501400","蘆洲區"
"247016","057-VK","2017/12/25 17:09:51","新北市蘆洲區正和街50號","121.46917","25.0817016666667","6501400","蘆洲區"
"247006","053-VK","2017/12/25 17:09:50","新北市蘆洲區中華街6巷5號","121.462315","25.0825116666667","6501400","蘆洲區"
"247014","007-UY","2017/12/25 17:09:44","新北市蘆洲區中央路61-2號","121.473323333333","25.0834833333333","6501400","蘆洲區"
"247024","002-UY","2017/12/25 17:09:51","新北市蘆洲區長興路22號","121.464178333333","25.08296","6501400","蘆洲區"
"247018","001-UY","2017/12/25 17:09:46","新北市蘆洲區復興路166號","121.477563333333","25.0882533333333","6501400","蘆洲區"
"228003","097-TW","2017/12/25 17:09:46","新北市貢寮區福隆里東興街54號","121.948375","25.0177083333333","6502600","貢寮區"
"228002","585-TW","2017/12/25 17:09:44","新北市貢寮區龍崗里泮宮路6號","121.907681666667","25.018135","6502600","貢寮區"
"228001","670-TC","2017/12/25 17:09:39","新北市貢寮區仁理村研海街62-2號","121.925726666667","25.044465","6502600","貢寮區"
"224010","AGQ-8101","2017/12/25 17:09:46","新北市瑞芳區明燈路二段46號","121.809515","25.1081483333333","6501200","瑞芳區"
"224006","676-BX","2017/12/25 17:09:53","新北市瑞芳區大寮路101-4號","121.778128333333","25.09952","6501200","瑞芳區"
"224009","285-BY","2017/12/25 17:09:50","新北市瑞芳區輕便路128號","121.844298333333","25.1119","6501200","瑞芳區"
"224008","275-VK","2017/12/25 17:09:40","新北市瑞芳區九芎橋路14號","121.83202","25.0913133333333","6501200","瑞芳區"
"224007","272-VK","2017/12/25 17:09:49","新北市瑞芳區粗坑口路100-4號","121.7601","25.0993166666667","6501200","瑞芳區"
"224005","271-BY","2017/12/25 17:09:47","新北市瑞芳區鼻頭路171號","121.915778333333","25.1228916666667","6501200","瑞芳區"
"227001","642-TC","2017/12/25 17:09:40","新北市雙溪區外柑里田寮1號","121.80676","25.0171883333333","6502500","雙溪區"
"227008","400-TW","2017/12/25 17:09:45","新北市雙溪區三貂里子崙坑1-6號","121.849893333333","25.05749","6502500","雙溪區"
"251009","008-UM","2017/12/25 17:09:54","新北市淡水區三民街20號","121.439006666667","25.171745","6501000","淡水區"
"251004","009-UM","2017/12/25 17:09:38","新北市淡水區公明街79號","121.444471666667","25.168705","6501000","淡水區"
"251005","010-UM","2017/12/25 17:09:37","新北市淡水區水源街一段34巷1號","121.443225","25.17227","6501000","淡水區"
"251007","179-VK","2017/12/25 17:09:45","新北市淡水區民生路6號","121.460643333333","25.1378433333333","6501000","淡水區"
"251008","181-VK","2017/12/25 17:09:42","新北市淡水區樹梅坑7-6號","121.472283333333","25.1440333333333","6501000","淡水區"
"251013","182-VK","2017/12/25 17:09:54","新北市淡水區桂花樹6-1號","121.483128333333","25.1968583333333","6501000","淡水區"
"251010","413-VK","2017/12/25 17:09:52","新北市淡水區新市五路二段75號","121.431275","25.198285","6501000","淡水區"
"251012","441-VK","2017/12/25 17:09:46","新北市淡水區中山北路一段156號","121.444205","25.1779633333333","6501000","淡水區"
"251015","442-VK","2017/12/25 17:09:50","新北市淡水區樹林口42-3號","121.47007","25.1687716666667","6501000","淡水區"
"251006","561-UM","2017/12/25 17:09:51","新北市淡水區中正東路8-8號","121.447971666667","25.1666366666667","6501000","淡水區"
"251011","650-BX","2017/12/25 17:09:40","新北市淡水區坪頂路50號","121.457886666667","25.162575","6501000","淡水區"
"251003","766-UM","2017/12/25 17:09:47","新北市淡水區中正路二段31號","121.419436666667","25.1814583333333","6501000","淡水區"
"252001","292-VK","2017/12/25 17:09:55","新北市三芝區埔頭里埔頭37號","121.498461666667","25.2602983333333","6502100","三芝區"
"242031","AAC-296","2017/12/25 10:57:43","新北市新莊區新泰路357巷3弄57號","121.442263333333","25.039285","6500500","新莊區"
"242050","751-BX","2017/12/25 17:09:43","新北市新莊區三和路12-12號","121.441871666667","25.0370466666667","6500500","新莊區"
"242025","615-BX","2017/12/25 17:09:52","新北市新莊區新泰路255巷83號","121.442451666667","25.0386833333333","6500500","新莊區"
"242027","612-BX","2017/12/25 17:09:49","新北市新莊區新泰路357巷3弄57號","121.442313333333","25.0395266666667","6500500","新莊區"
"242039","566-BX","2017/12/25 17:09:39","新北市新莊區新泰路357巷3弄1號","121.442346666667","25.0415216666667","6500500","新莊區"
"242048","441-UM","2017/12/25 17:09:40","新北市新莊區中正路535號","121.43889","25.0333433333333","6500500","新莊區"
"242053","440-UM","2017/12/25 17:09:46","新北市新莊區三和路12-14號","121.441905","25.037235","6500500","新莊區"
"242034","415-TV","2017/12/25 17:09:42","新北市新莊區新泰路357巷3弄57號","121.442171666667","25.0394733333333","6500500","新莊區"
"242042","400-BY","2017/12/25 17:09:42","新北市新莊區新泰路357巷3弄57號","121.442088333333","25.0397316666667","6500500","新莊區"
"242060","362-BY","2017/12/25 17:09:53","新北市新莊區新泰路255巷83號","121.442325","25.0386533333333","6500500","新莊區"
"242058","353-BY","2017/12/25 17:09:46","新北市新莊區新泰路255巷83號","121.442431666667","25.039095","6500500","新莊區"
"242036","133-UY","2017/12/25 17:09:49","新北市泰山區磚雅厝3號","121.442175","25.0416733333333","6500500","新莊區"
"242021","135-UY","2017/12/25 17:09:40","新北市新莊區新泰路255巷83號","121.442086666667","25.0388216666667","6500500","新莊區"
"242046","172-VK","2017/12/25 14:38:20","新北市新莊區三和路12-21號","121.442048333333","25.0387066666667","6500500","新莊區"
"242009","173-VK","2017/12/25 17:09:34","新北市新莊區新泰路357巷3弄55號","121.44242","25.0398383333333","6500500","新莊區"
"242015","175-VK","2017/12/25 17:09:49","新北市新莊區三和路12-21號","121.441925","25.0387183333333","6500500","新莊區"
"242002","176-VK","2017/12/25 11:07:56","新北市新莊區新泰路255巷83號","121.442143333333","25.0388116666667","6500500","新莊區"
"242013","346-TH","2017/12/25 09:23:17","新北市新莊區三和路12-16號","121.442018333333","25.0374716666667","6500500","新莊區"
"242019","348-TH","2017/12/25 17:09:46","新北市新莊區新泰路357巷3弄57號","121.442101666667","25.0393683333333","6500500","新莊區"
"242011","351-TH","2017/12/25 17:09:56","新北市新莊區新泰路357巷3弄57號","121.44193","25.0395333333333","6500500","新莊區"
"238015","755-BX","2017/12/25 17:09:50","新北市樹林區育德街76巷1號","121.388695","24.968075","6500700","樹林區"
"238019","599-UM","2017/12/25 17:09:49","新北市樹林區育德街78-1號","121.387753333333","24.9681333333333","6500700","樹林區"
"238018","571-TV","2017/12/25 17:09:46","新北市樹林區水源街27號","121.425308333333","24.98256","6500700","樹林區"
"238024","5061-A6","2017/12/25 17:09:50","新北市樹林區鎮前街77-21號","121.42478","24.9901616666667","6500700","樹林區"
"238022","KEA-2213","2017/12/25 17:09:49","新北市樹林區八德街263-1號","121.41923","24.9739","6500700","樹林區"
"238025","303-VK","2017/12/25 17:09:56","新北市樹林區中正路22-1號","121.427868333333","24.999305","6500700","樹林區"
"238017","283-BY","2017/12/25 17:09:51","新北市樹林區光武街7-3號","121.415755","25.0053266666667","6500700","樹林區"
"238001","282-BY","2017/12/25 17:09:46","新北市樹林區中正路22-1號","121.427748333333","24.999635","6500700","樹林區"
"238020","268-VK","2017/12/25 17:09:54","新北市樹林區千歲街101號","121.428388333333","25.0008816666667","6500700","樹林區"
"238016","169-UY","2017/12/25 17:09:45","新北市樹林區中山路二段34號","121.417348333333","24.9848766666667","6500700","樹林區"
"239007","AAC-297","2017/12/25 17:09:40","新北市鶯歌區中正二路3號","121.351791666667","24.9515066666667","6500800","鶯歌區"
"239006","891-R6","2017/12/25 17:09:37","新北市鶯歌區八德路2巷18弄2號","121.336776666667","24.94702","6500800","鶯歌區"
"239008","527-UM","2017/12/25 17:09:57","新北市鶯歌區尖山路89號","121.348681666667","24.9494016666667","6500800","鶯歌區"
"239005","526-UM","2017/12/25 17:09:50","新北市鶯歌區德昌二街33號","121.333308333333","24.9586983333333","6500800","鶯歌區"
"239001","417-VK","2017/12/25 17:09:50","新北市鶯歌區尖山路111號","121.347721666667","24.94906","6500800","鶯歌區"
"239002","359-BY","2017/12/25 17:09:52","新北市鶯歌區建國路216號","121.348958333333","24.9535483333333","6500800","鶯歌區"
"239004","193-VK","2017/12/25 17:09:47","新北市鶯歌區環河路57號","121.351583333333","24.9451283333333","6500800","鶯歌區"
"220010","303-R5","2017/12/25 16:11:36","新北市板橋區民生路二段120號","121.470521666667","25.01977","6500100","板橋區"
"220012","486-VK","2017/12/25 15:12:42","新北市板橋區長安街331巷17號","121.473821666667","25.0125916666667","6500100","板橋區"
"242056","280-VK","2017/12/25 17:09:47","新北市新莊區三和路12-21號","121.441818333333","25.0382783333333","6500500","新莊區"
