"lineid","car","time","location","longitude","latitude","cityid","cityname"
"249005","172-UM","2017/12/25 17:19:52","新北市八里區荖阡坑路46號","121.410765","25.1241466666667","6502300","八里區"
"249001","173-UM","2017/12/25 17:19:53","新北市八里區中華路二段165巷2-1號","121.407638333333","25.1507666666667","6502300","八里區"
"249004","303-UY","2017/12/25 17:19:52","新北市八里區中山路一段33-2號","121.420191666667","25.1596716666667","6502300","八里區"
"249002","305-UY","2017/12/25 17:19:55","新北市八里區龍米路二段117巷37號","121.443386666667","25.141925","6502300","八里區"
"249003","593-UM","2017/12/25 17:19:35","新北市八里區中山路二段470號","121.398871666667","25.1470983333333","6502300","八里區"
"248003","677-BX","2017/12/25 15:16:37","新北市五股區中興路四段40-3號","121.438723333333","25.082795","6501500","五股區"
"244007","080-UY","2017/12/25 17:19:52","新北市林口區中華路355號","121.38134","25.0924066666667","6501700","林口區"
"244001","248-BX","2017/12/25 15:24:43","新北市林口區粉寮路二段46號","121.403535","25.0868683333333","6501700","林口區"
"244025","402-UM","2017/12/25 16:58:56","新北市林口區粉寮路二段160巷28號","121.40518","25.0907716666667","6501700","林口區"
"244019","403-UM","2017/12/25 17:19:45","新北市林口區公園路223巷30號","121.373328333333","25.0749233333333","6501700","林口區"
"244025","742-UY","2017/12/25 17:19:47","新北市林口區中山路568號","121.377841666667","25.08392","6501700","林口區"
"244023","483-VK","2017/12/25 17:19:55","新北市林口區隆林街81號","121.386198333333","25.0751966666667","6501700","林口區"
"244017","485-VK","2017/12/25 17:19:41","新北市林口區粉寮69號","121.404958333333","25.0908833333333","6501700","林口區"
"244011","656-BX","2017/12/25 17:18:13","新北市林口區粉寮路一段55號","121.396921666667","25.0778233333333","6501700","林口區"
"244009","837-TS","2017/12/25 17:19:50","新北市林口區文化北路二段550巷20弄37號","121.377938333333","25.0912966666667","6501700","林口區"
"244021","838-TS","2017/12/25 17:19:55","新北市林口區粉寮路二段262號","121.404775","25.0945083333333","6501700","林口區"
"243015","380-SR","2017/12/25 15:40:13","新北市泰山區黎明路25號","121.421898333333","25.06075","6501600","泰山區"
"231046","278-BY","2017/12/25 17:19:44","新北市新店區直潭路92號","121.530938333333","24.9375866666667","6500600","新店區"
"231006","898-TW","2017/12/25 15:36:51","新北市新店區安華路28-1號","121.519306666667","24.96084","6500600","新店區"
"241011","013-R5","2017/12/25 17:19:51","新北市三重區龍濱路190號","121.50116","25.0733066666667","6500200","三重區"
"241028","022-UY","2017/12/25 17:19:41","新北市三重區仁化街63號","121.493871666667","25.0589816666667","6500200","三重區"
"241008","059-VK","2017/12/25 17:19:53","新北市三重區下竹圍街6號","121.48088","25.0759983333333","6500200","三重區"
"241009","060-VK","2017/12/25 17:19:47","新北市三重區仁愛街608號","121.483818333333","25.080695","6500200","三重區"
"241015","062-VK","2017/12/25 17:19:50","新北市三重區長元街82-1號","121.501835","25.0662916666667","6500200","三重區"
"241017","063-VK","2017/12/25 17:19:42","新北市三重區大同北路52號","121.495075","25.063105","6500200","三重區"
"241024","065-VK","2017/12/25 17:19:50","新北市三重區中正北路193巷21弄37號","121.478336666667","25.070895","6500200","三重區"
"241002","090-VK","2017/12/25 17:19:43","新北市三重區自強路五段14號","121.492393333333","25.0805083333333","6500200","三重區"
"241003","091-VK","2017/12/25 17:19:55","新北市三重區富福街49號","121.491688333333","25.084325","6500200","三重區"
"241005","262-UM","2017/12/25 17:19:36","新北市三重區永安北路二段25巷2號","121.48232","25.0818066666667","6500200","三重區"
"241026","265-UM","2017/12/25 17:19:43","新北市三重區福裕街19號","121.499536666667","25.0616483333333","6500200","三重區"
"241016","266-UM","2017/12/25 17:19:51","新北市三重區大同北路60巷14號","121.49384","25.0637333333333","6500200","三重區"
"241022","267-UM","2017/12/25 17:19:56","新北市三重區中正北路64巷15號","121.486225","25.063945","6500200","三重區"
"241018","268-UM","2017/12/25 17:19:52","新北市三重區安慶街144號","121.494356666667","25.0686916666667","6500200","三重區"
"241032","269-UM","2017/12/25 17:19:53","新北市三重區中華路18號","121.483198333333","25.0606783333333","6500200","三重區"
"241013","270-UM","2017/12/25 17:19:46","新北市三重區三和路三段107巷2號","121.4943","25.0728516666667","6500200","三重區"
"241025","271-UM","2017/12/25 17:19:38","新北市三重區中正北路378號","121.476708333333","25.069775","6500200","三重區"
"241007","398-BY","2017/12/25 17:19:42","新北市三重區慈愛街8號","121.484523333333","25.0783733333333","6500200","三重區"
"241020","413-TH","2017/12/25 17:19:53","新北市三重區自強路三段64號","121.486776666667","25.0731616666667","6500200","三重區"
"241004","475-VK","2017/12/25 17:19:49","新北市三重區五華街110巷16號","121.491178333333","25.0823066666667","6500200","三重區"
"241019","478-VK","2017/12/25 17:19:51","新北市三重區忠孝路二段68號","121.484606666667","25.0702383333333","6500200","三重區"
"241030","480-VK","2017/12/25 17:19:45","新北市三重區環河南路254巷45號","121.489011666667","25.051765","6500200","三重區"
"241014","543-UM","2017/12/25 17:19:55","新北市三重區三和路二段83號","121.500078333333","25.068435","6500200","三重區"
"241023","545-UM","2017/12/25 17:19:47","新北市三重區三民街158號","121.482351666667","25.065455","6500200","三重區"
"241001","547-UM","2017/12/25 17:19:46","新北市三重區仁愛街294號","121.492333333333","25.07929","6500200","三重區"
"241012","941-UM","2017/12/25 17:19:47","新北市三重區龍門路274巷51號","121.50094","25.075775","6500200","三重區"
"241029","942-UM","2017/12/25 17:19:53","新北市三重區重新路四段6-1號","121.48918","25.0581066666667","6500200","三重區"
"241033","AAC-255","2017/12/25 17:19:42","新北市三重區中興北街177號","121.469035","25.0560816666667","6500200","三重區"
"235061","378-QA","2017/12/25 15:29:19","新北市中和區員山路36巷13號","121.48431","24.9911733333333","6500300","中和區"
"235024","647-TV","2017/12/25 15:09:59","新北市中和區員山路36巷16-3號","121.485018333333","24.99144","6500300","中和區"
"235062","800-TS","2017/12/25 16:35:30","新北市中和區員山路36巷16-3號","121.484911666667","24.9916","6500300","中和區"
"235065","911-UM","2017/12/25 17:19:37","新北市中和區員山路36巷16-3號","121.48514","24.9911366666667","6500300","中和區"
"247022","893-R6","2017/12/25 17:19:47","新北市蘆洲區民族路500號","121.469625","25.0905133333333","6501400","蘆洲區"
"247012","546-UM","2017/12/25 17:19:49","新北市蘆洲區信義路319巷6號","121.477895","25.0862633333333","6501400","蘆洲區"
"247020","500-BY","2017/12/25 17:19:38","新北市蘆洲區民族路426巷6號","121.473771666667","25.0919616666667","6501400","蘆洲區"
"247008","341-TH","2017/12/25 17:19:42","新北市三重區永安北路一段47號","121.476751666667","25.0763733333333","6501400","蘆洲區"
"247010","339-TH","2017/12/25 17:19:56","新北市蘆洲區中山一路120巷7弄2號","121.477408333333","25.0818666666667","6501400","蘆洲區"
"247002","337-TH","2017/12/25 17:19:41","新北市蘆洲區永樂街38巷33弄4號","121.457923333333","25.0894833333333","6501400","蘆洲區"
"247004","336-TH","2017/12/25 17:19:48","新北市蘆洲區長安街152號","121.459903333333","25.08256","6501400","蘆洲區"
"247016","057-VK","2017/12/25 17:19:51","新北市蘆洲區正和街80號","121.468386666667","25.0810566666667","6501400","蘆洲區"
"247006","053-VK","2017/12/25 17:19:37","新北市蘆洲區長安街73巷32號","121.461768333333","25.0791466666667","6501400","蘆洲區"
"247014","007-UY","2017/12/25 17:19:44","新北市蘆洲區忠孝路20號","121.47066","25.08411","6501400","蘆洲區"
"247024","002-UY","2017/12/25 17:19:51","新北市蘆洲區光明路1號","121.460218333333","25.0864166666667","6501400","蘆洲區"
"247018","001-UY","2017/12/25 17:19:46","新北市蘆洲區民權路68巷10號","121.475473333333","25.0876916666667","6501400","蘆洲區"
"228003","097-TW","2017/12/25 17:19:46","新北市貢寮區福隆里興隆街100巷7號","121.935915","25.018265","6502600","貢寮區"
"228002","585-TW","2017/12/25 17:19:44","新北市貢寮區雙玉里下雙溪街24號","121.921933333333","25.009815","6502600","貢寮區"
"228001","670-TC","2017/12/25 17:19:39","新北市貢寮區仁理村尖山腳街18-3號","121.925425","25.0483366666667","6502600","貢寮區"
"224010","AGQ-8101","2017/12/25 17:19:46","新北市瑞芳區明燈路二段46號","121.809515","25.1081483333333","6501200","瑞芳區"
"224006","676-BX","2017/12/25 17:19:53","新北市瑞芳區大寮路23號","121.782655","25.098865","6501200","瑞芳區"
"224009","285-BY","2017/12/25 17:19:50","新北市瑞芳區汽車路101-2號","121.841358333333","25.1085633333333","6501200","瑞芳區"
"224008","275-VK","2017/12/25 17:19:40","新北市瑞芳區侯硐路83號","121.830316666667","25.0891966666667","6501200","瑞芳區"
"224005","271-BY","2017/12/25 17:19:27","新北市瑞芳區鼻頭路247號","121.904421666667","25.12188","6501200","瑞芳區"
"227001","642-TC","2017/12/25 17:19:40","新北市雙溪區上林里內平林90號","121.827553333333","25.0275116666667","6502500","雙溪區"
"251009","008-UM","2017/12/25 17:19:54","新北市淡水區三民街20號","121.439006666667","25.171745","6501000","淡水區"
"251004","009-UM","2017/12/25 17:19:38","新北市淡水區中正東路二段88巷15號","121.459091666667","25.1505183333333","6501000","淡水區"
"251005","010-UM","2017/12/25 17:19:57","新北市淡水區鄧公路19號","121.451448333333","25.1700466666667","6501000","淡水區"
"251007","179-VK","2017/12/25 17:19:45","新北市淡水區民生路47-4號","121.46203","25.13796","6501000","淡水區"
"251008","181-VK","2017/12/25 17:19:42","新北市淡水區大同路285號","121.467996666667","25.1424533333333","6501000","淡水區"
"251013","182-VK","2017/12/25 17:19:54","新北市淡水區大竹圍6號","121.469805","25.19521","6501000","淡水區"
"251010","413-VK","2017/12/25 17:19:52","新北市淡水區濱海路三段148巷50弄78號","121.430436666667","25.1901466666667","6501000","淡水區"
"251012","441-VK","2017/12/25 17:19:46","新北市淡水區中山北路一段156號","121.444191666667","25.17795","6501000","淡水區"
"251015","442-VK","2017/12/25 17:19:50","新北市淡水區三空泉19號","121.474563333333","25.16622","6501000","淡水區"
"251006","561-UM","2017/12/25 17:19:51","新北市淡水區大智街48號","121.442978333333","25.1742166666667","6501000","淡水區"
"251011","650-BX","2017/12/25 17:19:40","新北市淡水區坪頂路128號","121.465051666667","25.1611616666667","6501000","淡水區"
"251002","672-BX","2017/12/25 17:19:58","新北市淡水區中正路二段31號","121.419345","25.1816533333333","6501000","淡水區"
"251003","766-UM","2017/12/25 17:19:46","新北市淡水區中正路259號","121.432433333333","25.1747","6501000","淡水區"
"207003","550-UM","2017/12/25 17:19:38","新北市萬里區萬里里瑪鋉路340號","121.687685","25.183245","6502800","萬里區"
"252001","292-VK","2017/12/25 17:19:54","新北市三芝區長安街119號","121.498053333333","25.2597016666667","6502100","三芝區"
"242031","AAC-296","2017/12/25 17:19:50","新北市新莊區中環路二段392-1號","121.442263333333","25.0458666666667","6500500","新莊區"
"242029","986-R7","2017/12/25 17:19:59","新北市新莊區幸福路848號","121.444303333333","25.049","6500500","新莊區"
"242050","751-BX","2017/12/25 17:19:43","新北市新莊區瓊林南路46-2號","121.43587","25.0176166666667","6500500","新莊區"
"242025","615-BX","2017/12/25 17:19:52","新北市新莊區中港一街159號","121.447405","25.045005","6500500","新莊區"
"242023","613-BX","2017/12/25 17:19:46","新北市新莊區中平路73號","121.444653333333","25.0449216666667","6500500","新莊區"
"242027","612-BX","2017/12/25 17:19:49","新北市新莊區中港一街142號","121.446891666667","25.044925","6500500","新莊區"
"242039","566-BX","2017/12/25 17:19:39","新北市新莊區新樹路223號","121.435316666667","25.022975","6500500","新莊區"
"242004","442-UM","2017/12/25 17:19:44","新北市新莊區新泰路502巷16號","121.442968333333","25.0464383333333","6500500","新莊區"
"242048","441-UM","2017/12/25 17:19:40","新北市新莊區龍安路249巷1號","121.419085","25.0209733333333","6500500","新莊區"
"242053","440-UM","2017/12/25 17:19:46","新北市新莊區環河路462號","121.440121666667","25.0197733333333","6500500","新莊區"
"242034","415-TV","2017/12/25 17:19:42","新北市新莊區瓊林路50號","121.446231666667","25.02882","6500500","新莊區"
"242044","413-TV","2017/12/25 17:19:47","新北市新莊區富國路101-1號","121.421436666667","25.02555","6500500","新莊區"
"242042","400-BY","2017/12/25 17:19:42","新北市新莊區新樹路113巷7號","121.438013333333","25.026685","6500500","新莊區"
"242060","362-BY","2017/12/25 17:19:53","新北市新莊區三和路12-8號","121.441885","25.0364183333333","6500500","新莊區"
"242058","353-BY","2017/12/25 17:19:55","新北市新莊區中正路400號","121.441565","25.0339383333333","6500500","新莊區"
"242007","132-UY","2017/12/25 17:19:54","新北市新莊區新泰路502巷24號","121.443183333333","25.0464166666667","6500500","新莊區"
"242036","133-UY","2017/12/25 17:19:49","新北市新莊區民安路429巷3號","121.433926666667","25.0231916666667","6500500","新莊區"
"242021","135-UY","2017/12/25 17:19:41","新北市新莊區中港路279號","121.453358333333","25.0437616666667","6500500","新莊區"
"242046","172-VK","2017/12/25 17:19:50","新北市新莊區中正路483號","121.441148333333","25.0336966666667","6500500","新莊區"
"242009","173-VK","2017/12/25 17:19:54","新北市新莊區新泰路357巷3弄55號","121.44242","25.0398383333333","6500500","新莊區"
"242015","175-VK","2017/12/25 17:19:49","新北市新莊區新泰路240號","121.44642","25.03946","6500500","新莊區"
"242002","176-VK","2017/12/25 17:19:39","新北市新莊區中正路473-1號","121.44194","25.0331766666667","6500500","新莊區"
"242013","346-TH","2017/12/25 17:19:39","新北市新莊區新泰路500號","121.44247","25.046055","6500500","新莊區"
"242019","348-TH","2017/12/25 17:19:46","新北市新莊區中港一街161號","121.447271666667","25.0449416666667","6500500","新莊區"
"242017","350-TH","2017/12/25 17:19:47","新北市新莊區中華路一段103號","121.452753333333","25.0438416666667","6500500","新莊區"
"242011","351-TH","2017/12/25 17:19:55","新北市新莊區中港路397號","121.451896666667","25.0468266666667","6500500","新莊區"
"238015","755-BX","2017/12/25 17:19:50","新北市樹林區中山路二段89號","121.411476666667","24.9829633333333","6500700","樹林區"
"238019","599-UM","2017/12/25 17:19:49","新北市樹林區八德街251巷9號","121.422325","24.9786916666667","6500700","樹林區"
"238018","571-TV","2017/12/25 17:19:46","新北市樹林區博愛街205號","121.42439","24.98846","6500700","樹林區"
"238024","5061-A6","2017/12/25 17:19:50","新北市樹林區鎮前街8號","121.426288333333","24.9934766666667","6500700","樹林區"
"238021","KEA-2217","2017/12/25 17:19:52","新北市樹林區西圳街一段165巷20弄2號","121.395593333333","24.9610733333333","6500700","樹林區"
"238022","KEA-2213","2017/12/25 17:19:49","新北市樹林區和平街51號","121.423858333333","24.9822333333333","6500700","樹林區"
"238025","303-VK","2017/12/25 17:19:36","新北市樹林區保安二街69號","121.42458","24.9949216666667","6500700","樹林區"
"238017","283-BY","2017/12/25 17:19:51","新北市樹林區光武街7-3號","121.415756666667","25.0053283333333","6500700","樹林區"
"238001","282-BY","2017/12/25 17:19:46","新北市樹林區保安二街55號","121.424655","24.99465","6500700","樹林區"
"238020","268-VK","2017/12/25 17:19:54","新北市樹林區中正路22-1號","121.42779","24.99941","6500700","樹林區"
"238026","172-UY","2017/12/25 17:19:43","新北市樹林區八德街222號","121.415676666667","24.971935","6500700","樹林區"
"238016","169-UY","2017/12/25 17:19:45","新北市樹林區中山路二段34號","121.417356666667","24.9848983333333","6500700","樹林區"
"239007","AAC-297","2017/12/25 17:19:40","新北市鶯歌區光復街68號","121.351058333333","24.9563483333333","6500800","鶯歌區"
"239006","891-R6","2017/12/25 17:19:57","新北市鶯歌區福昌街24號","121.332946666667","24.96098","6500800","鶯歌區"
"239008","527-UM","2017/12/25 17:19:37","新北市鶯歌區西湖街90號","121.339553333333","24.95975","6500800","鶯歌區"
"239005","526-UM","2017/12/25 17:19:50","新北市鶯歌區福德四街17號","121.329415","24.9676433333333","6500800","鶯歌區"
"239001","417-VK","2017/12/25 17:19:50","新北市鶯歌區尖山路173巷31號","121.34536","24.94672","6500800","鶯歌區"
"239003","360-BY","2017/12/25 17:19:48","新北市鶯歌區德昌二街3巷1-1號","121.333193333333","24.9592366666667","6500800","鶯歌區"
"239002","359-BY","2017/12/25 17:19:52","新北市鶯歌區建國路156號","121.35063","24.9536883333333","6500800","鶯歌區"
"239004","193-VK","2017/12/25 17:19:47","新北市鶯歌區文化路322-1號","121.352875","24.9460166666667","6500800","鶯歌區"
"220010","303-R5","2017/12/25 17:15:47","新北市板橋區民生路二段120號","121.470458333333","25.01964","6500100","板橋區"
"220012","486-VK","2017/12/25 15:12:42","新北市板橋區長安街331巷17號","121.473821666667","25.0125916666667","6500100","板橋區"
"242056","280-VK","2017/12/25 17:19:47","新北市新莊區新泰路415-1號","121.442261666667","25.0444683333333","6500500","新莊區"
