"lineid","car","time","location","longitude","latitude","cityid","cityname"
"234046","148-BY","2017/12/25 19:19:43","新北市永和區得和路373巷6弄1號","121.524813333333","24.9998666666667","6500400","永和區"
"234013","149-BY","2017/12/25 19:19:40","新北市永和區仁愛路152號","121.510808333333","25.0129133333333","6500400","永和區"
"234007","207-UY","2017/12/25 19:19:42","新北市永和區中山路一段230號","121.508021666667","25.0080733333333","6500400","永和區"
"234081","298-R6","2017/12/25 19:19:51","新北市永和區福和路7巷15弄2號","121.525768333333","25.0066083333333","6500400","永和區"
"234038","336-UY","2017/12/25 19:19:43","新北市永和區民樂街59巷2號","121.527466666667","24.9983016666667","6500400","永和區"
"234064","337-UY","2017/12/25 19:19:39","新北市永和區永元路17巷6弄4號","121.521421666667","25.0006016666667","6500400","永和區"
"234086","338-UY","2017/12/25 19:19:38","新北市永和區永亨路9號","121.519361666667","25.00581","6500400","永和區"
"234054","553-UM","2017/12/25 19:19:46","新北市永和區中興街32號","121.516261666667","25.01176","6500400","永和區"
"234017","745-BX","2017/12/25 19:19:49","新北市永和區文化路90巷33號","121.51288","25.016515","6500400","永和區"
"234030","746-BX","2017/12/25 19:19:54","新北市永和區厚德街58號","121.524508333333","24.998845","6500400","永和區"
"234061","AAD-866","2017/12/25 19:19:49","新北市永和區秀朗路一段175號","121.51701","25.003655","6500400","永和區"
"234070","847-RS","2017/12/25 19:19:48","新北市永和區豫溪街76號","121.517376666667","25.009905","6500400","永和區"
"234042","862-TW","2017/12/25 19:19:50","新北市永和區保平路151巷6弄12號","121.50974","25.0050816666667","6500400","永和區"
"234050","863-TW","2017/12/25 19:19:53","新北市永和區保福路二段88巷17號","121.51151","25.013745","6500400","永和區"
"234026","9371-KE","2017/12/25 19:19:54","新北市永和區得和路42巷23號","121.515336666667","24.9996416666667","6500400","永和區"
"234011","9373-KE","2017/12/25 19:19:45","新北市永和區保福路二段23巷19號","121.510113333333","25.0112233333333","6500400","永和區"
"249001","173-UM","2017/12/25 19:19:52","新北市八里區中華路二段61-6號","121.4098","25.1530916666667","6502300","八里區"
"248018","225-UY","2017/12/25 19:19:53","新北市五股區民義路一段220巷23號","121.429086666667","25.094545","6501500","五股區"
"248012","247-BX","2017/12/25 19:19:51","新北市五股區中興路四段48巷16號","121.438625","25.0834183333333","6501500","五股區"
"248010","272-BY","2017/12/25 19:19:59","新北市五股區水碓一路23號","121.430611666667","25.071245","6501500","五股區"
"248004","677-BX","2017/12/25 19:19:36","新北市五股區五福路47號","121.433131666667","25.089735","6501500","五股區"
"248002","678-BX","2017/12/25 19:19:48","新北市五股區凌雲路一段158巷14號","121.447835","25.1034116666667","6501500","五股區"
"234023","9380-KE","2017/12/25 19:19:56","新北市永和區竹林路124巷6號","121.519608333333","25.0113616666667","6500400","永和區"
"234077","969-R7","2017/12/25 19:19:36","新北市永和區民族街42號","121.518428333333","24.9987983333333","6500400","永和區"
"234074","AAC-211","2017/12/25 19:19:42","新北市永和區竹林路85號","121.519561666667","25.012325","6500400","永和區"
"234067","AAC-212","2017/12/25 19:19:49","新北市永和區保平路55號","121.511611666667","25.0070616666667","6500400","永和區"
"234003","AAC-295","2017/12/25 18:40:52","新北市永和區福和路1號","121.526518333333","25.0098883333333","6500400","永和區"
"244013","069-UM","2017/12/25 19:19:46","新北市林口區麗園一街4巷2號","121.376148333333","25.0708433333333","6501700","林口區"
"244001","248-BX","2017/12/25 15:24:43","新北市林口區粉寮路二段46號","121.403535","25.0868683333333","6501700","林口區"
"244025","402-UM","2017/12/25 16:58:56","新北市林口區粉寮路二段160巷28號","121.40518","25.0907716666667","6501700","林口區"
"244019","403-UM","2017/12/25 19:19:45","新北市林口區麗園二街1巷4-2號","121.377563333333","25.07014","6501700","林口區"
"244023","483-VK","2017/12/25 19:19:55","新北市林口區仁愛路二段269號","121.373318333333","25.0772716666667","6501700","林口區"
"244011","656-BX","2017/12/25 19:19:55","新北市林口區中山路95號","121.389596666667","25.078775","6501700","林口區"
"243012","AAD-798","2017/12/25 19:19:48","新北市泰山區仁義路160號","121.43271","25.0542583333333","6501600","泰山區"
"243011","297-R6","2017/12/25 19:19:52","新北市泰山區貴子路15巷3弄1號","121.426508333333","25.0421766666667","6501600","泰山區"
"243015","380-SR","2017/12/25 19:19:53","新北市泰山區公園路36號","121.42899","25.0544416666667","6501600","泰山區"
"243014","421-VK","2017/12/25 19:19:38","新北市泰山區泰林路二段47號","121.435506666667","25.0575516666667","6501600","泰山區"
"243010","KEA-2215","2017/12/25 19:19:42","新北市泰山區明志路二段32巷1號","121.429365","25.0534","6501600","泰山區"
"243009","KEA-2216","2017/12/25 19:19:48","新北市泰山區明志路一段17號","121.433775","25.0657983333333","6501600","泰山區"
"243013","646-TV","2017/12/25 19:19:48","新北市泰山區明志路三段145巷2弄1號","121.425385","25.0398733333333","6501600","泰山區"
"243016","680-BX","2017/12/25 19:19:48","新北市泰山區工專路63號","121.422365","25.040475","6501600","泰山區"
"222003","436-BY","2017/12/25 19:19:44","新北市深坑區深南路204號","121.62664","25.0160366666667","6501800","深坑區"
"222002","659-BX","2017/12/25 19:19:47","新北市深坑區北深路一段177號","121.632505","25.0108633333333","6501800","深坑區"
"222001","696-SL","2017/12/25 19:19:54","新北市深坑區北深路二段84號","121.617455","25.003495","6501800","深坑區"
"231066","0293-UT","2017/12/25 19:19:45","新北市新店區安康路三段355巷18號","121.484868333333","24.94995","6500600","新店區"
"231059","046-UY","2017/12/25 19:19:44","新北市新店區安和路三段60-1號","121.518123333333","24.98262","6500600","新店區"
"231061","047-UY","2017/12/25 19:19:49","新北市新店區安康路一段164-1號","121.525875","24.9630433333333","6500600","新店區"
"231060","106-UY","2017/12/25 19:19:40","新北市新店區安康路二段136號","121.512548333333","24.962055","6500600","新店區"
"231051","107-UY","2017/12/25 19:19:54","新北市新店區中央路99號","121.531086666667","24.97509","6500600","新店區"
"231047","108-UY","2017/12/25 19:19:37","新北市新店區中興路一段254巷5號","121.544985","24.9666233333333","6500600","新店區"
"231052","187-VK","2017/12/25 19:19:38","新北市新店區自強路217號","121.546903333333","24.9194683333333","6500600","新店區"
"231050","KEA-2219","2017/12/25 19:19:57","新北市新店區竹林路151號","121.555388333333","24.9489516666667","6500600","新店區"
"231046","278-BY","2017/12/25 19:19:44","新北市新店區華城路36巷1-1號","121.528463333333","24.9552816666667","6500600","新店區"
"231054","AAD-862","2017/12/25 19:19:40","新北市新店區國校路41號","121.537893333333","24.9554266666667","6500600","新店區"
"231041","355-BY","2017/12/25 19:19:44","新北市新店區溪園路245-6號","121.525421666667","24.9832933333333","6500600","新店區"
"231058","3712-VJ","2017/12/25 19:19:39","新北市新店區光明街286巷4號","121.540675","24.96379","6500600","新店區"
"231056","3713-VJ","2017/12/25 19:19:44","新北市新店區溪園路397號","121.523626666667","24.978","6500600","新店區"
"231065","512-UM","2017/12/25 19:19:39","新北市新店區安祥路108巷35號","121.474936666667","24.9570733333333","6500600","新店區"
"231064","515-UM","2017/12/25 19:19:44","新北市新店區安忠路57巷5-6號","121.513125","24.9588116666667","6500600","新店區"
"231040","619-UM","2017/12/25 19:19:50","新北市新店區三民路20巷4號","121.538021666667","24.97062","6500600","新店區"
"231042","641-BX","2017/12/25 19:19:47","新北市新店區北宜路一段3號","121.53847","24.9585866666667","6500600","新店區"
"231063","645-TV","2017/12/25 19:19:55","新北市新店區達觀路14巷8號","121.503273333333","24.9431916666667","6500600","新店區"
"231049","719-UM","2017/12/25 19:19:55","新北市新店區明德路64號","121.541546666667","24.97943","6500600","新店區"
"231062","720-UM","2017/12/25 19:19:42","新北市新店區莒光路70號","121.522926666667","24.9551133333333","6500600","新店區"
"231044","897-TW","2017/12/25 19:19:51","新北市新店區寶慶街71號","121.541861666667","24.9864933333333","6500600","新店區"
"231045","898-TW","2017/12/25 19:19:51","新北市新店區北宜路一段276號","121.546321666667","24.9527116666667","6500600","新店區"
"231043","899-TW","2017/12/25 19:19:52","新北市新店區北新路二段156號","121.542976666667","24.9754983333333","6500600","新店區"
"241009","060-VK","2017/12/25 19:19:47","新北市三重區溪尾街230巷71號","121.48602","25.0811916666667","6500200","三重區"
"241031","061-VK","2017/12/25 19:19:48","新北市三重區重新路四段226號","121.485838333333","25.0540933333333","6500200","三重區"
"241017","063-VK","2017/12/25 19:19:42","新北市三重區長壽西街195號","121.49216","25.0662133333333","6500200","三重區"
"241026","265-UM","2017/12/25 19:19:43","新北市三重區中正南路216號","121.493761666667","25.055165","6500200","三重區"
"241022","267-UM","2017/12/25 19:19:50","新北市三重區中正北路70號","121.486523333333","25.064645","6500200","三重區"
"241032","269-UM","2017/12/25 19:19:54","新北市三重區新生街93-4號","121.483581666667","25.0594183333333","6500200","三重區"
"241025","271-UM","2017/12/25 19:19:41","新北市三重區中正北路406號","121.475278333333","25.0703233333333","6500200","三重區"
"241007","398-BY","2017/12/25 19:19:42","新北市三重區三和路四段163巷79號","121.486026666667","25.0792433333333","6500200","三重區"
"241020","413-TH","2017/12/25 19:19:53","新北市三重區大智街183號","121.489498333333","25.0729633333333","6500200","三重區"
"241030","480-VK","2017/12/25 19:19:44","新北市三重區新興路40號","121.49147","25.0532883333333","6500200","三重區"
"241006","AAD-863","2017/12/25 19:19:40","新北市三重區車路頭街182號","121.483666666667","25.0772533333333","6500200","三重區"
"241035","743-BX","2017/12/25 19:19:40","新北市三重區新北大道一段3-1號","121.490033333333","25.0611383333333","6500200","三重區"
"241029","942-UM","2017/12/25 19:19:47","新北市三重區集美街257號","121.492395","25.0556933333333","6500200","三重區"
"235066","003-UY","2017/12/25 19:19:46","新北市中和區景新街2號","121.502561666667","24.9997733333333","6500300","中和區"
"235064","005-UY","2017/12/25 19:19:49","新北市中和區中和路40巷1號","121.499635","25.0012433333333","6500300","中和區"
"235063","006-UY","2017/12/25 19:19:44","新北市中和區連城路249巷7號","121.493758333333","24.9966733333333","6500300","中和區"
"235046","031-BX","2017/12/25 19:19:53","新北市中和區忠孝街2巷14弄10號","121.51069","24.98146","6500300","中和區"
"235056","096-UM","2017/12/25 19:19:37","新北市中和區員山路527號","121.479748333333","25.0068866666667","6500300","中和區"
"235039","097-UM","2017/12/25 19:19:55","新北市中和區自立路58巷8號","121.523316666667","24.9914833333333","6500300","中和區"
"235040","150-BY","2017/12/25 19:19:44","新北市中和區安平路93號","121.51105","24.996725","6500300","中和區"
"235058","151-BY","2017/12/25 19:19:51","新北市中和區連城路477巷6弄2號","121.48304","24.9951433333333","6500300","中和區"
"235055","183-VK","2017/12/25 19:19:47","新北市中和區德光路18號","121.471136666667","25.0044833333333","6500300","中和區"
"235038","185-VK","2017/12/25 19:19:35","新北市中和區大智街55巷43號","121.520255","24.993175","6500300","中和區"
"235049","186-VK","2017/12/25 19:19:46","新北市中和區景新街228號","121.508076666667","24.9944316666667","6500300","中和區"
"235067","255-BX","2017/12/25 19:19:45","新北市中和區新生街176巷11號","121.48304","24.9999216666667","6500300","中和區"
"235044","293-VK","2017/12/25 19:19:44","新北市中和區復興路302號","121.501388333333","24.9903933333333","6500300","中和區"
"235072","301-VK","2017/12/25 19:19:53","新北市中和區連城路261-3號","121.492328333333","24.99672","6500300","中和區"
"235043","352-BY","2017/12/25 19:19:44","新北市中和區景平路289號","121.507263333333","24.9930916666667","6500300","中和區"
"235068","377-QA","2017/12/25 19:19:46","新北市中和區連勝街30號","121.498145","24.9979516666667","6500300","中和區"
"235061","378-QA","2017/12/25 19:18:25","新北市中和區員山路391號","121.481268333333","25.0028433333333","6500300","中和區"
"235050","4979-A6","2017/12/25 19:19:49","新北市中和區景安路208巷5號","121.50366","24.99106","6500300","中和區"
"235069","4980-A6","2017/12/25 19:19:49","新北市中和區福美路301巷42號","121.497791666667","25.0034983333333","6500300","中和區"
"235042","551-UM","2017/12/25 19:19:44","新北市中和區大勇街59號","121.517798333333","24.9952483333333","6500300","中和區"
"235070","558-UM","2017/12/25 19:19:42","新北市中和區中和路17號","121.499745","25.00213","6500300","中和區"
"235045","565-BX","2017/12/25 19:19:48","新北市中和區景新街423巷32號","121.51454","24.9897166666667","6500300","中和區"
"235054","640-BX","2017/12/25 19:19:51","新北市中和區國光街109巷4-1號","121.469983333333","25.0003916666667","6500300","中和區"
"235060","647-TV","2017/12/25 19:19:44","新北市中和區民有街60號","121.476011666667","25.0045216666667","6500300","中和區"
"235047","732-UM","2017/12/25 19:19:54","新北市中和區景平路239巷73號","121.508173333333","24.992125","6500300","中和區"
"235057","801-TS","2017/12/25 19:19:49","新北市中和區民利街20號","121.480401666667","24.999195","6500300","中和區"
"235041","802-TS","2017/12/25 19:19:53","新北市中和區中和路256號","121.50776","24.99948","6500300","中和區"
"235052","805-TS","2017/12/25 19:19:45","新北市中和區華新街143巷17號","121.50666","24.9809383333333","6500300","中和區"
"235048","896-TW","2017/12/25 19:19:49","新北市中和區忠孝街79號","121.512135","24.9852","6500300","中和區"
"235053","900-TW","2017/12/25 19:19:54","新北市中和區華安街32巷2號","121.467488333333","24.9973633333333","6500300","中和區"
"235065","911-UM","2017/12/25 19:19:36","新北市中和區中山路二段64巷7弄7號","121.503445","25.0048566666667","6500300","中和區"
"235051","157-BY","2017/12/25 19:19:42","新北市中和區和平街2巷4弄4號","121.510078333333","24.9906233333333","6500300","中和區"
"235037","AAC-213","2017/12/25 19:19:49","新北市中和區秀朗路三段10巷37弄13號","121.524121666667","24.9957533333333","6500300","中和區"
"235059","AAC-215","2017/12/25 19:19:52","新北市中和區圓通路286巷1號","121.491431666667","24.9910316666667","6500300","中和區"
"220068","013-TV","2017/12/25 19:19:47","新北市板橋區三民路一段1巷9號","121.479546666667","25.024315","6500100","板橋區"
"220065","072-UY","2017/12/25 19:19:55","新北市板橋區國泰街74號","121.467428333333","25.0065433333333","6500100","板橋區"
"220086","073-UY","2017/12/25 19:19:46","新北市板橋區漢生西路89巷4弄12號","121.46112","25.0187466666667","6500100","板橋區"
"220069","AAD-861","2017/12/25 19:19:41","新北市板橋區大明街20巷31號","121.458575","25.003675","6500100","板橋區"
"220106","120-SR","2017/12/25 19:19:50","新北市板橋區雙十路三段10巷29號","121.472588333333","25.0314416666667","6500100","板橋區"
"247004","336-TH","2017/12/25 19:19:45","新北市蘆洲區長榮路518號","121.459563333333","25.09005","6501400","蘆洲區"
"226004","205-ST","2017/12/25 19:19:49","新北市平溪區石底里公園街18-3號","121.733863333333","25.0252466666667","6502400","平溪區"
"228003","097-TW","2017/12/25 19:19:46","新北市貢寮區和美里和美街22-1號","121.912811666667","25.08262","6502600","貢寮區"
"228002","585-TW","2017/12/25 19:19:44","新北市貢寮區雙玉里田寮洋街21號","121.927476666667","25.0238666666667","6502600","貢寮區"
"228001","670-TC","2017/12/25 19:19:39","新北市貢寮區真理里新港街10號","121.925521666667","25.05439","6502600","貢寮區"
"224010","AGQ-8101","2017/12/25 19:19:45","新北市瑞芳區基山街89號","121.844745","25.1083233333333","6501200","瑞芳區"
"224006","676-BX","2017/12/25 19:19:52","新北市瑞芳區中山路205號","121.801386666667","25.1067266666667","6501200","瑞芳區"
"224008","275-VK","2017/12/25 19:19:40","新北市瑞芳區逢甲路402號","121.796455","25.1125966666667","6501200","瑞芳區"
"224005","271-BY","2017/12/25 19:19:47","新北市瑞芳區國中新村19號","121.81757","25.1069166666667","6501200","瑞芳區"
"227001","642-TC","2017/12/25 19:19:40","新北市雙溪區平林里梅竹蹊66-1號","121.860153333333","25.0358233333333","6502500","雙溪區"
"227008","400-TW","2017/12/25 19:19:45","新北市雙溪區新基里新基北街40號","121.868503333333","25.03804","6502500","雙溪區"
"253005","032-BX","2017/12/25 19:19:54","新北市石門區阿里荖4-7號","121.611861666667","25.2793433333333","6502200","石門區"
"253006","295-VK","2017/12/25 19:19:48","新北市石門區崁子腳10號","121.532646666667","25.2875083333333","6502200","石門區"
"208002","742-BX","2017/12/25 19:19:51","新北市金山區中華路133號","121.633126666667","25.2209583333333","6502700","金山區"
"208003","665-BX","2017/12/25 19:19:38","新北市金山區中山路161號","121.638755","25.2205383333333","6502700","金山區"
"208001","761-BX","2017/12/25 19:19:58","新北市金山區慈護街24號","121.63954","25.2201466666667","6502700","金山區"
"251009","008-UM","2017/12/25 19:19:54","新北市淡水區大忠街5巷4號","121.443251666667","25.1764383333333","6501000","淡水區"
"251005","010-UM","2017/12/25 19:19:36","新北市淡水區水源街一段29號","121.443241666667","25.1724666666667","6501000","淡水區"
"251007","179-VK","2017/12/25 19:19:45","新北市淡水區民生路117巷12號","121.464975","25.13916","6501000","淡水區"
"251013","182-VK","2017/12/25 19:19:53","新北市淡水區安子內12號","121.481516666667","25.21911","6501000","淡水區"
"251010","413-VK","2017/12/25 19:19:52","新北市淡水區沙崙路27號","121.421513333333","25.1816683333333","6501000","淡水區"
"251012","441-VK","2017/12/25 19:19:45","新北市淡水區崁頂75-2號","121.436668333333","25.2034083333333","6501000","淡水區"
"251015","442-VK","2017/12/25 19:19:50","新北市淡水區山子邊7-2號","121.483125","25.184425","6501000","淡水區"
"251001","559-UM","2017/12/25 19:19:46","新北市淡水區自強路201巷39號","121.462106666667","25.1268516666667","6501000","淡水區"
"251006","561-UM","2017/12/25 19:19:50","新北市淡水區大信街33號","121.442026666667","25.17734","6501000","淡水區"
"251003","766-UM","2017/12/25 19:19:46","新北市淡水區中山北路一段168號","121.444418333333","25.1786416666667","6501000","淡水區"
"207003","550-UM","2017/12/25 19:19:38","新北市萬里區大鵬里萬里加投79-3號","121.647315","25.21235","6502800","萬里區"
"207004","225-TW","2017/12/25 19:19:47","新北市萬里區萬里里成功新村44號","121.687676666667","25.1746583333333","6502800","萬里區"
"252001","292-VK","2017/12/25 19:19:54","新北市三芝區長勤街9巷11弄1號","121.501695","25.2547966666667","6502100","三芝區"
"237004","078-UY","2017/12/25 19:19:38","新北市三峽區有木205-1號","121.439046666667","24.8515033333333","6500900","三峽區"
"237007","153-BY","2017/12/25 19:19:56","新北市三峽區中正路二段584巷4弄5號","121.359011666667","24.9067933333333","6500900","三峽區"
"237009","210-TH","2017/12/25 19:19:47","新北市三峽區信義街33號","121.370821666667","24.9351916666667","6500900","三峽區"
"237013","252-BX","2017/12/25 19:19:42","新北市三峽區光明路75巷19號","121.377355","24.92805","6500900","三峽區"
"237012","275-BY","2017/12/25 19:19:44","新北市三峽區三樹路222巷236弄8-1號","121.391296666667","24.9429483333333","6500900","三峽區"
"237008","302-VK","2017/12/25 19:19:42","新北市三峽區中正路一段231號","121.371978333333","24.926935","6500900","三峽區"
"237014","433-BY","2017/12/25 19:19:48","新北市三峽區中山路257巷39號","121.362163333333","24.936455","6500900","三峽區"
"237006","5529-G3","2017/12/25 19:19:52","新北市三峽區中正路一段336巷15弄2號","121.369963333333","24.924945","6500900","三峽區"
"237011","572-TV","2017/12/25 17:11:47","新北市三峽區中山路459巷163-3號","121.348653333333","24.9330233333333","6500900","三峽區"
"237015","649-BX","2017/12/25 19:16:57","新北市三峽區建安85號","121.453115","24.9218333333333","6500900","三峽區"
"237010","706-TV","2017/12/25 19:11:50","新北市三峽區復興路30-4號","121.37425","24.9361666666667","6500900","三峽區"
"237005","AKY-6261","2017/12/25 19:19:55","新北市三峽區中山路459巷50-2號","121.356026666667","24.9376833333333","6500900","三峽區"
"236069","105-UM","2017/12/25 19:19:41","新北市土城區中央路一段67-3號","121.447751666667","24.9896633333333","6501300","土城區"
"236078","166-UM","2017/12/25 16:28:09","新北市土城區城林路6巷80號","121.438381666667","24.9795833333333","6501300","土城區"
"236026","269-VK","2017/12/25 19:19:54","新北市土城區中央路二段149巷33號","121.443123333333","24.9767483333333","6501300","土城區"
"236014","270-VK","2017/12/25 19:19:51","新北市土城區學府路一段26號","121.45839","24.9885766666667","6501300","土城區"
"236020","401-BY","2017/12/25 19:19:50","新北市土城區峰廷街3號","121.46914","24.987375","6501300","土城區"
"236058","912-UM","2017/12/25 19:19:55","新北市土城區中央路三段65號","121.438823333333","24.969385","6501300","土城區"
"236048","913-UM","2017/12/25 19:19:47","新北市土城區明德路一段398-1號","121.45364","24.97908","6501300","土城區"
"238015","755-BX","2017/12/25 19:19:34","新北市樹林區備內街1巷29號","121.412691666667","24.9863816666667","6500700","樹林區"
"238023","601-UM","2017/12/25 19:19:50","桃園市龜山區萬壽路一段791-2號","121.392313333333","25.01426","6500700","樹林區"
"238019","599-UM","2017/12/25 19:19:53","新北市樹林區鎮前街411巷1弄18號","121.415596666667","24.9831683333333","6500700","樹林區"
"238018","571-TV","2017/12/25 19:19:46","新北市樹林區中華路213號","121.419545","24.9813016666667","6500700","樹林區"
"238024","5061-A6","2017/12/25 19:19:50","新北市樹林區福德街17號","121.400998333333","24.97609","6500700","樹林區"
"238021","KEA-2217","2017/12/25 19:19:52","新北市樹林區柑園街二段382巷1號","121.368233333333","24.94934","6500700","樹林區"
"238022","KEA-2213","2017/12/25 19:19:49","新北市樹林區中山路二段151巷6弄11號","121.406291666667","24.97815","6500700","樹林區"
"238025","303-VK","2017/12/25 19:19:56","新北市樹林區中山路二段193號","121.404253333333","24.9774583333333","6500700","樹林區"
"238017","283-BY","2017/12/25 19:19:51","新北市樹林區大安路401號","121.415648333333","24.989175","6500700","樹林區"
"238014","282-BY","2017/12/25 19:19:46","新北市樹林區保安二街40號","121.424703333333","24.9950733333333","6500700","樹林區"
"238020","268-VK","2017/12/25 19:19:54","新北市樹林區俊英街133巷28號","121.423283333333","25.0110483333333","6500700","樹林區"
"238026","172-UY","2017/12/25 19:19:43","新北市樹林區佳園路二段13號","121.393461666667","24.964155","6500700","樹林區"
"238016","169-UY","2017/12/25 19:19:45","新北市樹林區備前街29號","121.416853333333","24.985635","6500700","樹林區"
"239007","AAC-297","2017/12/25 19:19:40","新北市鶯歌區中山路48號","121.351958333333","24.9570566666667","6500800","鶯歌區"
"239006","891-R6","2017/12/25 19:19:36","新北市鶯歌區鶯桃路268巷18號","121.336066666667","24.96043","6500800","鶯歌區"
"239008","527-UM","2017/12/25 19:19:57","新北市鶯歌區國際二路2巷14號","121.339431666667","24.9731016666667","6500800","鶯歌區"
"239005","526-UM","2017/12/25 19:19:50","新北市鶯歌區東湖路8-3號","121.351373333333","24.9722983333333","6500800","鶯歌區"
"239001","417-VK","2017/12/25 19:19:50","新北市鶯歌區鶯桃路95巷53號","121.337738333333","24.9530233333333","6500800","鶯歌區"
"239003","360-BY","2017/12/25 19:19:48","新北市鶯歌區中正二路159號","121.345541666667","24.9498783333333","6500800","鶯歌區"
"239002","359-BY","2017/12/25 19:19:52","新北市鶯歌區西湖街249號","121.33942","24.96791","6500800","鶯歌區"
"239004","193-VK","2017/12/25 19:19:47","新北市鶯歌區鶯華新村1號","121.329925","24.9349933333333","6500800","鶯歌區"
"221008","489-VK","2017/12/25 19:19:56","新北市汐止區康寧街308號","121.626585","25.06725","6501100","汐止區"
"221036","130-UY","2017/12/25 19:19:46","新北市汐止區汐萬路一段256巷3號","121.653325","25.07463","6501100","汐止區"
"221010","269-BY","2017/12/25 19:19:47","新北市汐止區康寧街901號","121.651396666667","25.07507","6501100","汐止區"
"221012","278-VK","2017/12/25 19:19:50","新北市汐止區汐萬路一段261號","121.650803333333","25.0741066666667","6501100","汐止區"
"221023","279-VK","2017/12/25 19:19:41","新北市汐止區康寧街901號","121.650968333333","25.075205","6501100","汐止區"
"221027","281-BY","2017/12/25 19:19:58","新北市汐止區汐萬路一段242號","121.651603333333","25.0731083333333","6501100","汐止區"
"221029","298-VK","2017/12/25 19:19:43","新北市汐止區康寧街901號","121.65149","25.074975","6501100","汐止區"
"221021","299-VK","2017/12/25 19:19:40","新北市汐止區康寧街901號","121.65148","25.075035","6501100","汐止區"
"221031","353-TW","2017/12/25 19:19:54","新北市汐止區汐萬路一段301號","121.649558333333","25.07581","6501100","汐止區"
"221015","567-BX","2017/12/25 19:19:45","新北市汐止區汐萬路一段144號","121.653135","25.0711216666667","6501100","汐止區"
"221025","623-UM","2017/12/25 19:19:41","新北市汐止區汐萬路一段306號","121.65041","25.0746066666667","6501100","汐止區"
"221038","646-BX","2017/12/25 19:19:39","新北市汐止區汐萬路一段312號","121.650665","25.0753016666667","6501100","汐止區"
"221033","647-BX","2017/12/25 19:19:36","新北市汐止區南勢街1巷1號","121.627033333333","25.037435","6501100","汐止區"
"221002","707-TV","2017/12/25 19:19:48","新北市汐止區大同路一段312號","121.63735","25.0588016666667","6501100","汐止區"
"221018","753-BX","2017/12/25 19:19:39","新北市汐止區康寧街901號","121.65143","25.0749816666667","6501100","汐止區"
"220079","145-BY","2017/12/25 19:19:54","新北市板橋區民權路202巷17弄31號","121.459468333333","25.0164716666667","6500100","板橋區"
"220080","200-UY","2017/12/25 19:19:39","新北市板橋區大觀路二段19巷68號","121.44857","25.00294","6500100","板橋區"
"220082","610-BX","2017/12/25 19:19:54","新北市板橋區溪北路54號","121.427543333333","24.98985","6500100","板橋區"
"220096","257-TC","2017/12/25 19:19:54","新北市板橋區大同街18號","121.477658333333","25.0268066666667","6500100","板橋區"
"220056","276-BY","2017/12/25 19:19:43","新北市板橋區信義路147號","121.45813","24.9929883333333","6500100","板橋區"
"220072","277-BY","2017/12/25 19:19:56","新北市板橋區金門街369巷57弄7號","121.42938","24.984065","6500100","板橋區"
"220101","280-UM","2017/12/25 19:19:54","新北市板橋區雙十路二段47巷8弄14號","121.474373333333","25.0258616666667","6500100","板橋區"
"220094","283-UM","2017/12/25 19:19:45","新北市板橋區吳鳳路82號","121.466978333333","25.03128","6500100","板橋區"
"220071","283-VK","2017/12/25 19:19:48","新北市板橋區重慶路327巷19弄3-2號","121.464781666667","24.9988466666667","6500100","板橋區"
"220053","285-VK","2017/12/25 19:19:56","新北市板橋區富山街34號","121.477953333333","25.021855","6500100","板橋區"
"220083","286-VK","2017/12/25 19:19:45","新北市板橋區大觀路二段174巷186弄6號","121.442576666667","25.00354","6500100","板橋區"
"220081","287-VK","2017/12/25 19:19:50","新北市板橋區南雅西路一段186號","121.453031666667","25.0082033333333","6500100","板橋區"
"220090","288-VK","2017/12/25 19:19:56","新北市板橋區四維路349巷15號","121.461651666667","25.0295566666667","6500100","板橋區"
"220061","295-UM","2017/12/25 19:19:41","新北市板橋區中山路二段318巷20弄6號","121.480595","25.0187783333333","6500100","板橋區"
"220075","297-UM","2017/12/25 19:19:51","新北市板橋區南雅西路一段140號","121.452246666667","25.0069816666667","6500100","板橋區"
"220062","303-R5","2017/12/25 19:19:56","新北市板橋區三民路二段153巷36弄2號","121.481201666667","25.014155","6500100","板橋區"
"220092","307-R5","2017/12/25 19:19:38","新北市板橋區光武街48巷21號","121.46761","25.02684","6500100","板橋區"
"220098","317-R6","2017/12/25 19:19:46","新北市板橋區自由路51巷8號","121.465085","25.023535","6500100","板橋區"
"220064","486-VK","2017/12/25 19:19:53","新北市板橋區板新路192號","121.469383333333","25.0158916666667","6500100","板橋區"
"220089","487-VK","2017/12/25 19:19:47","新北市板橋區文化路二段39號","121.469015","25.0249516666667","6500100","板橋區"
"220088","491-VK","2017/12/25 19:19:43","新北市板橋區雙十路二段95號","121.475305","25.0277966666667","6500100","板橋區"
"220035","560-BX","2017/12/25 19:19:58","新北市板橋區中正路332號","121.454268333333","25.0221133333333","6500100","板橋區"
"220103","561-BX","2017/12/25 19:19:58","新北市板橋區文化路一段188巷7弄13號","121.467568333333","25.0197516666667","6500100","板橋區"
"220084","568-UM","2017/12/25 19:19:52","新北市板橋區溪崑二街66巷22號","121.427265","24.9908933333333","6500100","板橋區"
"220063","609-BX","2017/12/25 19:19:56","新北市板橋區三民路二段7號","121.479331666667","25.0184866666667","6500100","板橋區"
"220091","637-BX","2017/12/25 19:19:54","新北市板橋區萬板路478號","121.480001666667","25.0261166666667","6500100","板橋區"
"220057","686-BX","2017/12/25 19:19:52","新北市板橋區重慶路346巷5-1號","121.463781666667","24.9971716666667","6500100","板橋區"
"220077","687-BX","2017/12/25 19:19:39","新北市板橋區僑中二街50號","121.4468","25.01038","6500100","板橋區"
"220093","689-BX","2017/12/25 19:19:45","新北市板橋區民生路三段25號","121.467068333333","25.024105","6500100","板橋區"
"220054","741-BX","2017/12/25 19:19:44","新北市板橋區後埔街87-3號","121.460711666667","25.0052183333333","6500100","板橋區"
"220055","827-TW","2017/12/25 19:19:48","新北市板橋區新民街9號","121.4639","25.00979","6500100","板橋區"
"220067","829-TW","2017/12/25 19:19:41","新北市板橋區長安街138巷3弄39號","121.47396","25.00982","6500100","板橋區"
"220102","830-TW","2017/12/25 19:19:53","新北市板橋區松柏街20號","121.474526666667","25.0297966666667","6500100","板橋區"
"220074","895-R6","2017/12/25 19:19:52","新北市板橋區中正路自強新村68-1號","121.454776666667","25.013165","6500100","板橋區"
"220073","985-R7","2017/12/25 19:19:58","新北市板橋區新生街64-1號","121.457236666667","25.0208416666667","6500100","板橋區"
"220097","AAC-210","2017/12/25 19:19:58","新北市板橋區幸福路70巷3號","121.460686666667","25.0202116666667","6500100","板橋區"
"220070","AAC-253","2017/12/25 19:19:49","新北市板橋區忠孝路86號","121.461585","25.0020766666667","6500100","板橋區"
