"lineid","car","time","location","longitude","latitude","cityid","cityname"
"234046","148-BY","2017/12/25 19:29:52","新北市永和區秀朗路二段129號","121.524333333333","25.0016733333333","6500400","永和區"
"234013","149-BY","2017/12/25 19:29:40","新北市永和區信義路14-1號","121.514296666667","25.0120966666667","6500400","永和區"
"234007","207-UY","2017/12/25 19:29:54","新北市永和區永和路一段84號","121.512946666667","25.00663","6500400","永和區"
"234081","298-R6","2017/12/25 19:29:54","新北市永和區福和路7巷15弄20號","121.52618","25.0073483333333","6500400","永和區"
"234038","336-UY","2017/12/25 19:29:43","新北市永和區民樂街41巷1號","121.527578333333","25.00021","6500400","永和區"
"234064","337-UY","2017/12/25 19:29:39","新北市永和區中正路368巷1弄88號","121.52049","25.0007","6500400","永和區"
"234086","338-UY","2017/12/25 19:29:58","新北市永和區林森路62號","121.524026666667","25.004125","6500400","永和區"
"234054","553-UM","2017/12/25 19:29:46","新北市永和區復興街21號","121.51616","25.0130666666667","6500400","永和區"
"234017","745-BX","2017/12/25 19:29:49","新北市永和區環河西路一段91-1號","121.512276666667","25.01789","6500400","永和區"
"234030","746-BX","2017/12/25 19:29:54","新北市永和區民生路29號","121.522923333333","24.99837","6500400","永和區"
"234061","AAD-866","2017/12/25 19:29:49","新北市永和區中正路560號","121.517101666667","25.005955","6500400","永和區"
"234070","847-RS","2017/12/25 19:29:56","新北市永和區警光街20號","121.51934","25.0094666666667","6500400","永和區"
"234042","862-TW","2017/12/25 19:29:50","新北市永和區水源街39巷28號","121.510758333333","25.003135","6500400","永和區"
"234050","863-TW","2017/12/25 19:29:46","新北市永和區信義路83號","121.51237","25.0135483333333","6500400","永和區"
"234026","9371-KE","2017/12/25 19:29:54","新北市中和區安平路204號","121.513435","24.9995716666667","6500400","永和區"
"234011","9373-KE","2017/12/25 19:29:45","新北市永和區保福路二段101號","121.510421666667","25.0132083333333","6500400","永和區"
"249002","305-UY","2017/12/25 19:29:54","新北市八里區頂寮二街138號","121.449325","25.1294633333333","6502300","八里區"
"248014","025-BX","2017/12/25 19:29:55","新北市五股區民義路一段183巷5號","121.430753333333","25.0871633333333","6501500","五股區"
"248008","095-VK","2017/12/25 19:29:39","新北市五股區中興路一段95巷15號","121.466555","25.0722283333333","6501500","五股區"
"248018","225-UY","2017/12/25 19:29:53","新北市五股區壟路8號","121.417056666667","25.0919366666667","6501500","五股區"
"248012","247-BX","2017/12/25 19:29:51","新北市五股區成泰路二段97號","121.437938333333","25.08432","6501500","五股區"
"248010","272-BY","2017/12/25 19:29:39","新北市五股區水碓一路23號","121.430603333333","25.0712516666667","6501500","五股區"
"248004","677-BX","2017/12/25 19:29:56","新北市五股區五福路39號","121.433413333333","25.0894916666667","6501500","五股區"
"248002","678-BX","2017/12/25 19:29:48","新北市五股區凌雲路一段158巷14號","121.447816666667","25.1034283333333","6501500","五股區"
"234023","9380-KE","2017/12/25 19:29:56","新北市永和區竹林路91巷48號","121.521328333333","25.012775","6500400","永和區"
"234077","969-R7","2017/12/25 19:29:56","新北市永和區民權路56號","121.519955","24.998235","6500400","永和區"
"234074","AAC-211","2017/12/25 19:29:42","新北市永和區環河東路一段122號","121.520548333333","25.01565","6500400","永和區"
"234067","AAC-212","2017/12/25 19:29:47","新北市永和區保平路182號","121.51068","25.006575","6500400","永和區"
"234003","AAC-295","2017/12/25 18:40:52","新北市永和區福和路1號","121.526518333333","25.0098883333333","6500400","永和區"
"244001","248-BX","2017/12/25 15:24:43","新北市林口區粉寮路二段46號","121.403535","25.0868683333333","6501700","林口區"
"244025","402-UM","2017/12/25 16:58:56","新北市林口區粉寮路二段160巷28號","121.40518","25.0907716666667","6501700","林口區"
"244019","403-UM","2017/12/25 19:29:45","新北市林口區麗園一街15號","121.377105","25.06923","6501700","林口區"
"244023","483-VK","2017/12/25 19:29:55","新北市林口區文化三路二段1-1號","121.372955","25.0785383333333","6501700","林口區"
"243012","AAD-798","2017/12/25 19:29:44","新北市泰山區仁愛路76號","121.432726666667","25.05523","6501600","泰山區"
"243011","297-R6","2017/12/25 19:29:52","新北市泰山區貴子路67巷4弄2號","121.431003333333","25.040505","6501600","泰山區"
"243015","380-SR","2017/12/25 19:29:53","新北市泰山區明志路二段136巷1-1號","121.427166666667","25.05118","6501600","泰山區"
"243014","421-VK","2017/12/25 19:29:38","新北市泰山區仁愛路159號","121.435098333333","25.0563833333333","6501600","泰山區"
"243010","KEA-2215","2017/12/25 19:29:42","新北市泰山區民生路17巷26號","121.429678333333","25.0519416666667","6501600","泰山區"
"243009","KEA-2216","2017/12/25 19:29:47","新北市泰山區美寧街58號","121.430706666667","25.0647283333333","6501600","泰山區"
"243013","646-TV","2017/12/25 19:29:48","新北市泰山區明志路三段123巷1弄2號","121.425538333333","25.0406866666667","6501600","泰山區"
"243016","680-BX","2017/12/25 19:29:48","新北市泰山區明志路三段385號","121.421433333333","25.0346416666667","6501600","泰山區"
"222003","436-BY","2017/12/25 19:29:44","新北市深坑區深南路51-1號","121.621365","25.0096583333333","6501800","深坑區"
"222002","659-BX","2017/12/25 19:29:47","新北市深坑區北深路一段177號","121.63248","25.0108433333333","6501800","深坑區"
"222001","696-SL","2017/12/25 19:29:54","新北市深坑區深坑街10號","121.61584","25.0028316666667","6501800","深坑區"
"231066","0293-UT","2017/12/25 19:29:45","新北市新店區安康路三段165巷2弄8號","121.489298333333","24.9514066666667","6500600","新店區"
"231059","046-UY","2017/12/25 19:29:44","新北市新店區安和路三段47-1號","121.517993333333","24.982425","6500600","新店區"
"231061","047-UY","2017/12/25 19:29:49","新北市新店區安民街11號","121.515218333333","24.9645266666667","6500600","新店區"
"231060","106-UY","2017/12/25 19:29:37","新北市新店區安康路二段3-1號","121.516073333333","24.9637283333333","6500600","新店區"
"231051","107-UY","2017/12/25 19:29:54","新北市新店區中央五街32號","121.528753333333","24.97481","6500600","新店區"
"231047","108-UY","2017/12/25 19:29:37","新北市新店區五峰路63巷8弄44號","121.547966666667","24.96864","6500600","新店區"
"231052","187-VK","2017/12/25 19:29:57","新北市新店區屈尺路78號","121.5465","24.9225766666667","6500600","新店區"
"231050","KEA-2219","2017/12/25 19:28:57","新北市新店區秀水路11號","121.554821666667","24.9545616666667","6500600","新店區"
"231057","256-BX","2017/12/25 19:29:37","新北市新店區花園一路二段27號","121.55131","24.9325166666667","6500600","新店區"
"231046","278-BY","2017/12/25 19:29:44","新北市新店區光明街215號","121.540068333333","24.963955","6500600","新店區"
"231054","AAD-862","2017/12/25 19:29:41","新北市新店區文中路40號","121.539676666667","24.9565483333333","6500600","新店區"
"231041","355-BY","2017/12/25 19:29:52","新北市新店區中正路547號","121.533755","24.9877466666667","6500600","新店區"
"231058","3712-VJ","2017/12/25 19:29:39","新北市新店區寶橋路85巷50號","121.545355","24.9762883333333","6500600","新店區"
"231067","4772-VM","2017/12/25 19:29:51","新北市新店區安和路一段2-2號","121.517025","24.9645666666667","6500600","新店區"
"231065","512-UM","2017/12/25 19:29:39","新北市新店區安祥路109巷1弄65號","121.478246666667","24.9608016666667","6500600","新店區"
"231064","515-UM","2017/12/25 19:29:44","新北市新店區安忠路57巷1-5號","121.513295","24.9596366666667","6500600","新店區"
"231040","619-UM","2017/12/25 19:29:50","新北市新店區北新路一段235號","121.54072","24.9656116666667","6500600","新店區"
"231042","641-BX","2017/12/25 19:29:46","新北市新店區中興路一段194號","121.543433333333","24.965155","6500600","新店區"
"231063","645-TV","2017/12/25 19:29:55","新北市新店區達觀路16號","121.503336666667","24.940475","6500600","新店區"
"231049","719-UM","2017/12/25 19:29:55","新北市新店區二十張路1巷2弄1號","121.540346666667","24.9821","6500600","新店區"
"231062","720-UM","2017/12/25 19:29:49","新北市新店區精忠路2號","121.532865","24.9598733333333","6500600","新店區"
"231044","897-TW","2017/12/25 19:29:51","新北市新店區中興路三段199號","121.543873333333","24.9815666666667","6500600","新店區"
"231045","898-TW","2017/12/25 19:29:51","新北市新店區北宜路二段211號","121.553196666667","24.9533833333333","6500600","新店區"
"231043","899-TW","2017/12/25 19:29:52","新北市新店區北新路二段173號","121.542886666667","24.9767066666667","6500600","新店區"
"241028","022-UY","2017/12/25 19:29:57","新北市三重區中寮街76號","121.493125","25.05825","6500200","三重區"
"241008","059-VK","2017/12/25 19:29:41","新北市三重區永福街135巷34號","121.477506666667","25.0771466666667","6500200","三重區"
"241009","060-VK","2017/12/25 19:29:47","新北市三重區溪尾街242巷61號","121.48619","25.08151","6500200","三重區"
"241031","061-VK","2017/12/25 19:29:48","新北市三重區集美街65-3號","121.488491666667","25.0541083333333","6500200","三重區"
"241017","063-VK","2017/12/25 19:29:42","新北市三重區中正北路23號","121.492421666667","25.062025","6500200","三重區"
"241026","265-UM","2017/12/25 19:29:42","新北市三重區文化南路47巷20號","121.49944","25.0611083333333","6500200","三重區"
"241022","267-UM","2017/12/25 19:29:50","新北市三重區三民街141-1號","121.48457","25.06402","6500200","三重區"
"241032","269-UM","2017/12/25 19:29:46","新北市三重區三陽路33號","121.485328333333","25.0588666666667","6500200","三重區"
"241025","271-UM","2017/12/25 19:29:41","新北市三重區頂崁街210巷12弄10號","121.475791666667","25.0674383333333","6500200","三重區"
"241007","398-BY","2017/12/25 19:29:42","新北市三重區溪尾街124-1號","121.489478333333","25.07935","6500200","三重區"
"241020","413-TH","2017/12/25 19:29:53","新北市三重區三和路四段31號","121.490861666667","25.0743916666667","6500200","三重區"
"241030","480-VK","2017/12/25 19:29:44","新北市三重區成功路41巷17號","121.490433333333","25.0517183333333","6500200","三重區"
"241006","AAD-863","2017/12/25 19:29:40","新北市三重區後竹圍街175巷33號","121.485545","25.0732783333333","6500200","三重區"
"241035","743-BX","2017/12/25 19:29:40","新北市三重區正義北路86號","121.496946666667","25.0645583333333","6500200","三重區"
"241029","942-UM","2017/12/25 19:29:47","新北市三重區中正南路216號","121.493755","25.05504","6500200","三重區"
"235066","003-UY","2017/12/25 19:29:46","新北市中和區景新街47號","121.504295","24.99901","6500300","中和區"
"235064","005-UY","2017/12/25 19:29:52","新北市中和區南山路81巷4號","121.502218333333","24.998005","6500300","中和區"
"235063","006-UY","2017/12/25 19:29:44","新北市中和區連勝街145號","121.494598333333","24.9960333333333","6500300","中和區"
"235046","031-BX","2017/12/25 19:29:54","新北市中和區忠孝街37巷52號","121.511105","24.9848683333333","6500300","中和區"
"235056","096-UM","2017/12/25 19:29:57","新北市中和區民富街36號","121.476773333333","25.0066066666667","6500300","中和區"
"235039","097-UM","2017/12/25 19:29:53","新北市中和區秀峰街60號","121.520768333333","24.99036","6500300","中和區"
"235040","150-BY","2017/12/25 19:29:44","新北市中和區保健路10巷24號","121.507996666667","24.9966366666667","6500300","中和區"
"235058","151-BY","2017/12/25 19:29:51","新北市中和區連城路314號","121.483573333333","24.996115","6500300","中和區"
"235055","183-VK","2017/12/25 19:29:47","新北市中和區國光街8巷8號","121.47169","25.0006783333333","6500300","中和區"
"235038","185-VK","2017/12/25 19:29:56","新北市中和區立人街23號","121.521288333333","24.994045","6500300","中和區"
"235049","186-VK","2017/12/25 19:29:46","新北市中和區景新街295巷16號","121.511285","24.9934933333333","6500300","中和區"
"235067","255-BX","2017/12/25 19:29:45","新北市中和區民樂路81號","121.484606666667","25.0013483333333","6500300","中和區"
"235044","293-VK","2017/12/25 19:29:44","新北市中和區捷運路100-1號","121.506441666667","24.9912783333333","6500300","中和區"
"235072","301-VK","2017/12/25 19:29:53","新北市中和區連城路263巷8弄7號","121.491773333333","24.9951816666667","6500300","中和區"
"235043","352-BY","2017/12/25 19:29:44","新北市中和區景新街157號","121.506581666667","24.9963283333333","6500300","中和區"
"235068","377-QA","2017/12/25 19:29:46","新北市中和區連勝街57巷12號","121.4979","24.9967416666667","6500300","中和區"
"235061","378-QA","2017/12/25 19:29:52","新北市中和區民利街78號","121.478218333333","24.9981983333333","6500300","中和區"
"235050","4979-A6","2017/12/25 19:29:49","新北市中和區中正路438號","121.491191666667","24.99437","6500300","中和區"
"235042","551-UM","2017/12/25 19:29:44","新北市中和區安樂路217巷33號","121.513586666667","24.99799","6500300","中和區"
"235070","558-UM","2017/12/25 19:29:42","新北市中和區中山路二段221號","121.498608333333","25.00262","6500300","中和區"
"235045","565-BX","2017/12/25 19:29:48","新北市中和區景新街397號","121.512571666667","24.9898616666667","6500300","中和區"
"235054","640-BX","2017/12/25 19:29:51","新北市中和區國光街112巷16弄2號","121.469745","25.0012666666667","6500300","中和區"
"235060","647-TV","2017/12/25 19:29:44","新北市中和區中正路825號","121.483616666667","25.0017066666667","6500300","中和區"
"235047","732-UM","2017/12/25 19:29:54","新北市中和區景平路259巷32號","121.507016666667","24.992795","6500300","中和區"
"235057","801-TS","2017/12/25 19:29:49","新北市中和區員山路423巷14弄1-1號","121.480323333333","25.0028583333333","6500300","中和區"
"235041","802-TS","2017/12/25 19:29:53","新北市中和區中和路350巷10號","121.51072","25.0005116666667","6500300","中和區"
"235052","805-TS","2017/12/25 19:29:45","新北市中和區華新街143巷67弄2號","121.506955","24.9788383333333","6500300","中和區"
"235048","896-TW","2017/12/25 19:29:52","新北市中和區忠孝街168號","121.512773333333","24.988015","6500300","中和區"
"235053","900-TW","2017/12/25 19:29:54","新北市中和區華順街28號","121.466831666667","24.99865","6500300","中和區"
"235065","911-UM","2017/12/25 19:29:57","新北市中和區中山路二段2巷7弄1號","121.504213333333","25.006405","6500300","中和區"
"235051","157-BY","2017/12/25 19:29:50","新北市中和區景新街140-2號","121.505491666667","24.9978066666667","6500300","中和區"
"235037","AAC-213","2017/12/25 19:29:49","新北市中和區秀朗路三段10巷14弄18號","121.524866666667","24.99662","6500300","中和區"
"235059","AAC-215","2017/12/25 19:29:52","新北市中和區圓通路252巷6號","121.492978333333","24.99172","6500300","中和區"
"220068","013-TV","2017/12/25 19:29:45","新北市板橋區萬安街132號","121.483316666667","25.0259466666667","6500100","板橋區"
"220065","072-UY","2017/12/25 19:29:44","新北市板橋區國泰街111巷1號","121.465835","25.0062933333333","6500100","板橋區"
"220086","073-UY","2017/12/25 19:29:46","新北市板橋區中正路216巷2弄13號","121.456501666667","25.0180333333333","6500100","板橋區"
"220069","AAD-861","2017/12/25 19:29:42","新北市板橋區貴興路59號","121.45731","25.0031016666667","6500100","板橋區"
"220106","120-SR","2017/12/25 19:29:50","新北市板橋區江寧路三段87巷2弄25號","121.472688333333","25.0333283333333","6500100","板橋區"
"247004","336-TH","2017/12/25 19:29:45","新北市蘆洲區長安街150號","121.460011666667","25.0823216666667","6501400","蘆洲區"
"226004","312-R5","2017/12/25 19:28:29","新北市平溪區南山里南山坪23號","121.771235","25.0359083333333","6502400","平溪區"
"228003","097-TW","2017/12/25 19:29:45","新北市貢寮區和美里和美街19-2號","121.912811666667","25.0826033333333","6502600","貢寮區"
"228002","585-TW","2017/12/25 19:29:44","新北市貢寮區龍門里龍門街24-1號","121.932778333333","25.0255833333333","6502600","貢寮區"
"228001","670-TC","2017/12/25 19:29:59","新北市貢寮區真理里延平街68號","121.925385","25.0574366666667","6502600","貢寮區"
"224010","AGQ-8101","2017/12/25 19:29:06","新北市瑞芳區九份中山巷6號","121.843916666667","25.1078616666667","6501200","瑞芳區"
"224006","676-BX","2017/12/25 19:29:52","新北市瑞芳區三爪子坑路106巷1-10號","121.808271666667","25.1051683333333","6501200","瑞芳區"
"224002","639-TC","2017/12/25 19:29:52","新北市瑞芳區三爪子坑路13巷25號","121.814106666667","25.106955","6501200","瑞芳區"
"224008","275-VK","2017/12/25 19:29:40","新北市瑞芳區一坑路317-2號","121.801435","25.109","6501200","瑞芳區"
"224005","271-BY","2017/12/25 19:29:47","新北市瑞芳區員山子路3-9號","121.819835","25.1041433333333","6501200","瑞芳區"
"227001","642-TC","2017/12/25 19:29:40","新北市雙溪區雙溪里光復街3號","121.865226666667","25.0356166666667","6502500","雙溪區"
"227008","400-TW","2017/12/25 19:29:45","新北市雙溪區新基里新基北街43號","121.868166666667","25.0397033333333","6502500","雙溪區"
"253005","032-BX","2017/12/25 19:29:54","新北市石門區小坑9號","121.59433","25.288645","6502200","石門區"
"253006","295-VK","2017/12/25 19:29:54","新北市石門區楓林17-8號","121.536425","25.292915","6502200","石門區"
"208002","742-BX","2017/12/25 19:29:51","新北市金山區仁愛路87巷1號","121.634653333333","25.2214316666667","6502700","金山區"
"208003","665-BX","2017/12/25 19:29:58","新北市金山區中山路263巷14號","121.636385","25.2216116666667","6502700","金山區"
"208001","761-BX","2017/12/25 19:29:55","新北市金山區金包里街117號","121.637581666667","25.222515","6502700","金山區"
"251009","008-UM","2017/12/25 19:29:54","新北市淡水區大忠街5巷8號","121.443348333333","25.1765233333333","6501000","淡水區"
"251005","010-UM","2017/12/25 19:29:56","新北市淡水區水源街一段71巷11號","121.444425","25.17291","6501000","淡水區"
"251007","179-VK","2017/12/25 19:29:45","新北市淡水區中正東路二段5巷17號","121.46002","25.159185","6501000","淡水區"
"251013","182-VK","2017/12/25 19:29:53","新北市淡水區大牛稠5號","121.470455","25.2195183333333","6501000","淡水區"
"251010","413-VK","2017/12/25 19:29:52","新北市淡水區中正路二段208號","121.426356666667","25.18918","6501000","淡水區"
"251012","441-VK","2017/12/25 19:29:45","新北市淡水區中山北路三段164號","121.445685","25.196595","6501000","淡水區"
"251015","442-VK","2017/12/25 19:29:50","新北市淡水區山子頂22號","121.491553333333","25.1873016666667","6501000","淡水區"
"251001","559-UM","2017/12/25 19:29:46","新北市淡水區民權路139-1號","121.460153333333","25.1364633333333","6501000","淡水區"
"251006","561-UM","2017/12/25 19:29:50","新北市淡水區大義街30號","121.442491666667","25.17834","6501000","淡水區"
"251011","650-BX","2017/12/25 19:29:45","新北市淡水區中正東路二段161巷11弄16號","121.460565","25.1465616666667","6501000","淡水區"
"251003","766-UM","2017/12/25 19:29:46","新北市淡水區中山北路三段116號","121.443913333333","25.1939366666667","6501000","淡水區"
"207003","550-UM","2017/12/25 19:29:38","新北市萬里區大鵬里萬里加投197-5號","121.643978333333","25.21507","6502800","萬里區"
"207004","225-TW","2017/12/25 19:29:47","新北市萬里區萬里里瑪鋉路149號","121.68913","25.1782116666667","6502800","萬里區"
"252001","292-VK","2017/12/25 19:29:54","新北市三芝區長勤街42號","121.500605","25.25561","6502100","三芝區"
"237004","078-UY","2017/12/25 19:29:38","新北市三峽區有木205-1號","121.439051666667","24.8515066666667","6500900","三峽區"
"237007","153-BY","2017/12/25 19:29:56","新北市三峽區中正路二段584巷4弄5號","121.359063333333","24.9067283333333","6500900","三峽區"
"237009","210-TH","2017/12/25 19:29:47","新北市三峽區民權街37號","121.369781666667","24.9336283333333","6500900","三峽區"
"237013","252-BX","2017/12/25 19:29:49","新北市三峽區介壽路一段237號","121.379465","24.930155","6500900","三峽區"
"237012","275-BY","2017/12/25 19:29:44","新北市三峽區三樹路98巷169號","121.384483333333","24.9393833333333","6500900","三峽區"
"237008","302-VK","2017/12/25 19:29:42","新北市三峽區永安街115號","121.374153333333","24.9286816666667","6500900","三峽區"
"237014","433-BY","2017/12/25 19:29:48","新北市三峽區中山路301號","121.361363333333","24.9376","6500900","三峽區"
"237006","5529-G3","2017/12/25 19:29:52","新北市三峽區中正路一段336巷15弄2號","121.369953333333","24.9249566666667","6500900","三峽區"
"237015","649-BX","2017/12/25 19:16:57","新北市三峽區建安85號","121.453115","24.9218333333333","6500900","三峽區"
"237010","706-TV","2017/12/25 19:11:50","新北市三峽區復興路30-4號","121.37425","24.9361666666667","6500900","三峽區"
"237005","AKY-6261","2017/12/25 19:29:55","新北市三峽區復興路367巷11號","121.363845","24.93774","6500900","三峽區"
"236069","105-UM","2017/12/25 19:29:55","新北市土城區學府路一段143巷18號","121.45401","24.985445","6501300","土城區"
"236078","166-UM","2017/12/25 16:28:09","新北市土城區城林路6巷80號","121.438381666667","24.9795833333333","6501300","土城區"
"236026","269-VK","2017/12/25 19:29:54","新北市土城區中央路二段61巷20號","121.443085","24.9787416666667","6501300","土城區"
"236020","401-BY","2017/12/25 19:29:50","新北市土城區峰廷街3號","121.469125","24.9873716666667","6501300","土城區"
"236058","912-UM","2017/12/25 19:29:55","新北市土城區中央路二段99號","121.442121666667","24.9779016666667","6501300","土城區"
"236048","913-UM","2017/12/25 19:29:57","新北市土城區清水路201號","121.459978333333","24.9816516666667","6501300","土城區"
"238015","755-BX","2017/12/25 19:29:53","新北市樹林區復興路196號","121.420013333333","24.99101","6500700","樹林區"
"238023","601-UM","2017/12/25 19:29:40","新北市樹林區中正路865號","121.40881","25.01816","6500700","樹林區"
"238019","599-UM","2017/12/25 19:29:49","新北市樹林區大同街3號","121.418836666667","24.9828316666667","6500700","樹林區"
"238018","571-TV","2017/12/25 19:29:46","新北市樹林區環河路110號","121.426331666667","24.977505","6500700","樹林區"
"238024","5061-A6","2017/12/25 19:29:50","新北市樹林區中山路三段87號","121.400133333333","24.9748466666667","6500700","樹林區"
"238021","KEA-2217","2017/12/25 19:29:56","新北市樹林區柑園街二段303巷2號","121.370988333333","24.9507183333333","6500700","樹林區"
"238022","KEA-2213","2017/12/25 19:29:53","新北市樹林區名園街39號","121.419608333333","24.9789066666667","6500700","樹林區"
"238025","303-VK","2017/12/25 19:29:56","新北市樹林區中山路一段146號","121.422631666667","24.99011","6500700","樹林區"
"238017","283-BY","2017/12/25 19:29:51","新北市樹林區光興街223巷12號","121.407808333333","25.0051966666667","6500700","樹林區"
"238014","282-BY","2017/12/25 19:29:46","新北市樹林區保安二街64巷5弄1號","121.424455","24.995975","6500700","樹林區"
"238020","268-VK","2017/12/25 19:29:54","新北市樹林區俊英街121巷16號","121.423783333333","25.0102133333333","6500700","樹林區"
"238026","172-UY","2017/12/25 19:29:43","新北市樹林區佳園路二段136號","121.389616666667","24.956375","6500700","樹林區"
"238016","169-UY","2017/12/25 19:29:46","新北市樹林區復興路428號","121.414023333333","24.9844266666667","6500700","樹林區"
"239007","AAC-297","2017/12/25 19:29:40","新北市鶯歌區中山路194-6號","121.347681666667","24.9570083333333","6500800","鶯歌區"
"239006","891-R6","2017/12/25 19:29:36","新北市鶯歌區鶯桃路91巷31弄1衖5號","121.337261666667","24.9521033333333","6500800","鶯歌區"
"239008","527-UM","2017/12/25 19:29:56","新北市鶯歌區大湖路466號","121.33962","24.9722066666667","6500800","鶯歌區"
"239005","526-UM","2017/12/25 19:29:54","新北市鶯歌區中湖街301巷1號","121.348093333333","24.9771583333333","6500800","鶯歌區"
"239001","417-VK","2017/12/25 19:29:50","新北市鶯歌區建國路401號","121.337968333333","24.95069","6500800","鶯歌區"
"239003","360-BY","2017/12/25 19:29:48","新北市鶯歌區國華路56號","121.342268333333","24.95494","6500800","鶯歌區"
"239002","359-BY","2017/12/25 19:29:52","新北市鶯歌區湖山路27巷1號","121.340303333333","24.9742916666667","6500800","鶯歌區"
"239004","193-VK","2017/12/25 19:29:47","新北市鶯歌區二甲路38-1號","121.337955","24.9350683333333","6500800","鶯歌區"
"221008","489-VK","2017/12/25 19:29:56","新北市汐止區康寧街231號","121.623915","25.066965","6501100","汐止區"
"221036","130-UY","2017/12/25 19:29:46","新北市汐止區康寧街901號","121.65167","25.0749283333333","6501100","汐止區"
"221010","269-BY","2017/12/25 19:29:47","新北市汐止區連峰街1巷1號","121.646358333333","25.0761133333333","6501100","汐止區"
"221012","278-VK","2017/12/25 19:29:53","新北市汐止區大同路三段174號","121.674028333333","25.07507","6501100","汐止區"
"221023","279-VK","2017/12/25 19:29:41","新北市汐止區康寧街609號","121.636111666667","25.0708783333333","6501100","汐止區"
"221027","281-BY","2017/12/25 19:29:36","新北市汐止區水源路一段56號","121.657335","25.0658583333333","6501100","汐止區"
"221029","298-VK","2017/12/25 19:29:43","新北市汐止區康寧街901號","121.651541666667","25.074975","6501100","汐止區"
"221021","299-VK","2017/12/25 19:29:40","新北市汐止區康寧街901號","121.651471666667","25.0750633333333","6501100","汐止區"
"221031","353-TW","2017/12/25 19:29:54","新北市汐止區康寧街901號","121.650838333333","25.075285","6501100","汐止區"
"221015","567-BX","2017/12/25 19:29:45","新北市汐止區康寧街901號","121.651386666667","25.0749733333333","6501100","汐止區"
"221025","623-UM","2017/12/25 19:29:41","新北市汐止區新台五路二段10號","121.66031","25.06505","6501100","汐止區"
"221038","646-BX","2017/12/25 19:29:39","新北市汐止區汐萬路一段24號","121.655726666667","25.068","6501100","汐止區"
"221033","647-BX","2017/12/25 19:29:56","新北市汐止區南勢街3號","121.627063333333","25.03737","6501100","汐止區"
"221002","707-TV","2017/12/25 19:29:48","新北市汐止區中興路18號","121.637121666667","25.0594616666667","6501100","汐止區"
"221018","753-BX","2017/12/25 19:29:39","新北市汐止區康寧街901號","121.65145","25.0749816666667","6501100","汐止區"
"220079","145-BY","2017/12/25 19:29:53","新北市板橋區民權路302巷14號","121.45787","25.0163933333333","6500100","板橋區"
"220080","200-UY","2017/12/25 19:29:44","新北市板橋區大觀路二段37巷182號","121.449681666667","25.0021483333333","6500100","板橋區"
"220082","610-BX","2017/12/25 19:29:54","新北市板橋區溪崑二街103巷2號","121.426735","24.98891","6500100","板橋區"
"220096","257-TC","2017/12/25 19:29:52","新北市板橋區大同街35巷42號","121.476991666667","25.0278416666667","6500100","板橋區"
"220056","276-BY","2017/12/25 19:29:46","新北市板橋區信義路1巷26弄36號","121.458658333333","24.9966166666667","6500100","板橋區"
"220072","277-BY","2017/12/25 19:29:36","新北市板橋區金門街317巷8號","121.429921666667","24.985905","6500100","板橋區"
"220101","280-UM","2017/12/25 19:29:54","新北市板橋區縣民大道三段127巷19號","121.476673333333","25.0235816666667","6500100","板橋區"
"220094","283-UM","2017/12/25 19:29:45","新北市板橋區吳鳳路50巷21弄2號","121.46842","25.0303733333333","6500100","板橋區"
"220071","283-VK","2017/12/25 19:29:53","新北市板橋區忠孝路48巷7弄15號","121.461751666667","25.0005383333333","6500100","板橋區"
"220053","285-VK","2017/12/25 19:29:42","新北市板橋區永豐街211號","121.476653333333","25.02104","6500100","板橋區"
"220083","286-VK","2017/12/25 19:29:45","新北市板橋區龍興街73巷56號","121.441741666667","25.00307","6500100","板橋區"
"220081","287-VK","2017/12/25 19:29:50","新北市板橋區南雅南路一段106號","121.454951666667","25.0043583333333","6500100","板橋區"
"220090","288-VK","2017/12/25 19:29:52","新北市板橋區長江路一段106巷12弄6號","121.459765","25.0289016666667","6500100","板橋區"
"220061","295-UM","2017/12/25 19:29:42","新北市板橋區中山路二段251號","121.47726","25.0177683333333","6500100","板橋區"
"220075","297-UM","2017/12/25 19:29:51","新北市板橋區中正路253巷14號","121.455015","25.018115","6500100","板橋區"
"220062","303-R5","2017/12/25 19:29:56","新北市板橋區三民路二段153巷2弄4號","121.479506666667","25.0148233333333","6500100","板橋區"
"220092","307-R5","2017/12/25 19:29:38","新北市板橋區光武街4巷23號","121.468233333333","25.02587","6500100","板橋區"
"220098","317-R6","2017/12/25 19:29:46","新北市板橋區民有街94號","121.464848333333","25.0276666666667","6500100","板橋區"
"220064","486-VK","2017/12/25 19:29:54","新北市板橋區中山路一段48號","121.460758333333","25.008965","6500100","板橋區"
"220089","487-VK","2017/12/25 19:29:48","新北市板橋區文化路一段114號","121.464893333333","25.01839","6500100","板橋區"
"220088","491-VK","2017/12/25 19:29:46","新北市板橋區雙十路二段95號","121.47531","25.027865","6500100","板橋區"
"220035","560-BX","2017/12/25 19:29:54","新北市板橋區新生街89巷36號","121.456593333333","25.0226016666667","6500100","板橋區"
"220103","561-BX","2017/12/25 19:29:38","新北市板橋區文化路一段268號","121.466975","25.0208833333333","6500100","板橋區"
"220084","568-UM","2017/12/25 19:29:55","新北市板橋區滿平街136巷5弄2號","121.428136666667","24.98739","6500100","板橋區"
"220063","609-BX","2017/12/25 19:29:56","新北市板橋區三民路一段31巷87弄13號","121.481463333333","25.0233833333333","6500100","板橋區"
"220091","637-BX","2017/12/25 19:29:54","新北市板橋區文聖街149巷22號","121.479546666667","25.02848","6500100","板橋區"
"220057","686-BX","2017/12/25 19:29:44","新北市板橋區五權街61-4號","121.464808333333","24.9934283333333","6500100","板橋區"
"220077","687-BX","2017/12/25 19:29:39","新北市板橋區僑中二街124巷2號","121.445435","25.0056366666667","6500100","板橋區"
"220093","689-BX","2017/12/25 19:29:45","新北市板橋區漢生西路130號","121.462746666667","25.0201933333333","6500100","板橋區"
"220054","741-BX","2017/12/25 19:29:53","新北市板橋區光明街96號","121.462085","25.0028433333333","6500100","板橋區"
"220055","827-TW","2017/12/25 19:29:48","新北市板橋區重慶路252號","121.462926666667","25.0009316666667","6500100","板橋區"
"220067","829-TW","2017/12/25 19:29:56","新北市板橋區漢生東路313巷34號","121.473035","25.0085833333333","6500100","板橋區"
"220102","830-TW","2017/12/25 19:29:50","新北市板橋區松柏街22巷36號","121.475071666667","25.0289133333333","6500100","板橋區"
"220074","895-R6","2017/12/25 19:29:52","新北市板橋區民權路97-1號","121.459786666667","25.0129116666667","6500100","板橋區"
"220073","985-R7","2017/12/25 19:29:58","新北市板橋區中正路302號","121.454968333333","25.0206666666667","6500100","板橋區"
"220097","AAC-210","2017/12/25 19:29:58","新北市板橋區幸福路60巷50號","121.4599","25.022175","6500100","板橋區"
"220070","AAC-253","2017/12/25 19:29:50","新北市板橋區忠孝路31-1號","121.460733333333","25.0019766666667","6500100","板橋區"
