"lineid","car","time","location","longitude","latitude","cityid","cityname"
"234046","148-BY","2017/12/25 19:59:43","新北市永和區林森路66號","121.52386","25.00402","6500400","永和區"
"234013","149-BY","2017/12/25 19:59:50","新北市永和區永平路304號","121.507208333333","25.01234","6500400","永和區"
"234081","298-R6","2017/12/25 19:59:56","新北市永和區國中路17號","121.524303333333","25.00496","6500400","永和區"
"234038","336-UY","2017/12/25 19:59:43","新北市永和區成功路二段179-1號","121.526613333333","24.9966","6500400","永和區"
"234064","337-UY","2017/12/25 19:59:47","新北市永和區中正路412巷18號","121.518463333333","25.002035","6500400","永和區"
"234086","338-UY","2017/12/25 19:59:54","新北市永和區福和路218號","121.519423333333","25.0076233333333","6500400","永和區"
"234054","553-UM","2017/12/25 19:59:53","新北市永和區竹林路39巷48號","121.520421666667","25.015365","6500400","永和區"
"234017","745-BX","2017/12/25 19:59:49","新北市永和區永和路二段297號","121.516001666667","25.0160333333333","6500400","永和區"
"234030","746-BX","2017/12/25 19:59:34","新北市永和區民生路20號","121.522391666667","24.9973866666667","6500400","永和區"
"234061","AAD-866","2017/12/25 19:59:49","新北市永和區中正路283巷15號","121.516758333333","25.000395","6500400","永和區"
"234070","847-RS","2017/12/25 19:59:47","新北市永和區國光路14號","121.519118333333","25.0083466666667","6500400","永和區"
"234042","862-TW","2017/12/25 19:59:50","新北市永和區中和路335巷18弄32號","121.50824","25.0004683333333","6500400","永和區"
"234050","863-TW","2017/12/25 19:59:46","新北市永和區保安路258號","121.506111666667","25.0123866666667","6500400","永和區"
"234026","9371-KE","2017/12/25 19:59:54","新北市永和區水源街21巷14弄3號","121.51141","25.0037566666667","6500400","永和區"
"234011","9373-KE","2017/12/25 19:59:45","新北市永和區仁愛路352巷112弄8號","121.501028333333","25.0085033333333","6500400","永和區"
"249005","172-UM","2017/12/25 19:59:42","新北市八里區楓林路3-1號","121.382415","25.1304716666667","6502300","八里區"
"249001","173-UM","2017/12/25 19:59:48","新北市八里區中華路二段310號","121.403826666667","25.1483533333333","6502300","八里區"
"249004","303-UY","2017/12/25 19:59:56","新北市八里區中華路一段331巷8號","121.413713333333","25.1532933333333","6502300","八里區"
"249002","305-UY","2017/12/25 19:59:55","新北市八里區龍米路一段87巷1號","121.45427","25.1233633333333","6502300","八里區"
"249003","593-UM","2017/12/25 19:59:56","新北市八里區中華路二段558號","121.398566666667","25.1452283333333","6502300","八里區"
"248014","025-BX","2017/12/25 19:59:54","新北市五股區五福路22巷2號","121.43445","25.08891","6501500","五股區"
"248016","026-BX","2017/12/25 19:59:50","新北市五股區成泰路三段577巷80弄54號","121.449755","25.1051333333333","6501500","五股區"
"248008","095-VK","2017/12/25 19:59:39","新北市三重區中正北路598巷4號","121.469733333333","25.071905","6501500","五股區"
"248018","225-UY","2017/12/25 19:59:53","新北市五股區登林路118號","121.418445","25.073785","6501500","五股區"
"248012","247-BX","2017/12/25 19:59:52","新北市五股區民義路一段65號","121.435926666667","25.084985","6501500","五股區"
"248010","272-BY","2017/12/25 19:59:46","新北市五股區登林路79-6號","121.427488333333","25.0705033333333","6501500","五股區"
"248004","677-BX","2017/12/25 19:59:56","新北市五股區成泰路一段32巷60號","121.434976666667","25.066995","6501500","五股區"
"248002","678-BX","2017/12/25 19:59:48","新北市五股區成泰路三段514號","121.452126666667","25.1019583333333","6501500","五股區"
"234023","9380-KE","2017/12/25 19:59:58","新北市永和區中正路702巷10號","121.516398333333","25.0103633333333","6500400","永和區"
"234077","969-R7","2017/12/25 19:59:36","新北市永和區民有街23巷29號","121.51736","24.9968716666667","6500400","永和區"
"234074","AAC-211","2017/12/25 19:59:42","新北市永和區豫溪街215巷11號","121.523841666667","25.009885","6500400","永和區"
"234067","AAC-212","2017/12/25 19:59:47","新北市永和區永貞路315號","121.50989","25.006505","6500400","永和區"
"234003","AAC-295","2017/12/25 18:40:52","新北市永和區福和路1號","121.526518333333","25.0098883333333","6500400","永和區"
"244001","248-BX","2017/12/25 15:24:43","新北市林口區粉寮路二段46號","121.403535","25.0868683333333","6501700","林口區"
"244025","402-UM","2017/12/25 16:58:56","新北市林口區粉寮路二段160巷28號","121.40518","25.0907716666667","6501700","林口區"
"243012","AAD-798","2017/12/25 19:59:44","新北市泰山區全興路101號","121.433583333333","25.0573616666667","6501600","泰山區"
"243011","297-R6","2017/12/25 19:59:52","新北市泰山區貴陽街3號","121.420955","25.0336666666667","6501600","泰山區"
"243015","380-SR","2017/12/25 19:59:53","新北市泰山區文程路1號","121.427533333333","25.0497","6501600","泰山區"
"243014","421-VK","2017/12/25 19:59:39","新北市泰山區泰林路二段125號","121.434205","25.0596183333333","6501600","泰山區"
"243010","KEA-2215","2017/12/25 19:59:41","新北市泰山區中華街10巷1號","121.427865","25.0525283333333","6501600","泰山區"
"243009","KEA-2216","2017/12/25 19:59:55","新北市泰山區泰林路二段164巷11號","121.434546666667","25.0607133333333","6501600","泰山區"
"243013","646-TV","2017/12/25 19:59:55","新北市泰山區明志路三段74巷28弄16號","121.42327","25.04277","6501600","泰山區"
"243016","680-BX","2017/12/25 19:59:49","新北市泰山區新北大道六段373號","121.422163333333","25.0327966666667","6501600","泰山區"
"222003","436-BY","2017/12/25 19:59:40","新北市深坑區埔新街14號","121.620783333333","25.0039816666667","6501800","深坑區"
"222002","659-BX","2017/12/25 19:59:47","新北市深坑區埔新街100號","121.618641666667","25.0022133333333","6501800","深坑區"
"222001","696-SL","2017/12/25 19:59:54","新北市深坑區北深路三段165-1號","121.602108333333","25.0033866666667","6501800","深坑區"
"231066","0293-UT","2017/12/25 19:59:45","新北市新店區柴埕路20巷2號","121.513945","24.96581","6500600","新店區"
"231059","046-UY","2017/12/25 19:59:44","新北市新店區安成街19號","121.51015","24.96081","6500600","新店區"
"231061","047-UY","2017/12/25 19:59:49","新北市新店區安民街381號","121.516195","24.97641","6500600","新店區"
"231060","106-UY","2017/12/25 19:59:57","新北市新店區安康路二段448號","121.495513333333","24.9547666666667","6500600","新店區"
"231051","107-UY","2017/12/25 19:59:34","新北市新店區中央五街14號","121.529623333333","24.9742383333333","6500600","新店區"
"231047","108-UY","2017/12/25 19:59:37","新北市新店區寶橋路160號","121.54901","24.9771333333333","6500600","新店區"
"231052","187-VK","2017/12/25 19:59:37","新北市新店區新烏路三段332號","121.546788333333","24.8962266666667","6500600","新店區"
"231050","KEA-2219","2017/12/25 19:59:37","新北市新店區北新路一段90號","121.541916666667","24.968635","6500600","新店區"
"231057","256-BX","2017/12/25 19:59:37","新北市新店區花園二路一段11號","121.555526666667","24.9324816666667","6500600","新店區"
"231046","278-BY","2017/12/25 19:59:44","新北市新店區安興路141號","121.516788333333","24.9793783333333","6500600","新店區"
"231054","AAD-862","2017/12/25 19:59:54","新北市新店區光明街151號","121.539615","24.9622633333333","6500600","新店區"
"231041","355-BY","2017/12/25 19:59:44","新北市新店區民族路192號","121.5362","24.9753666666667","6500600","新店區"
"231058","3712-VJ","2017/12/25 19:59:39","新北市新店區安康路二段414巷2號","121.495993333333","24.9578916666667","6500600","新店區"
"231056","3713-VJ","2017/12/25 19:59:44","新北市新店區北新路三段129號","121.541383333333","24.9826833333333","6500600","新店區"
"231055","4716-K9","2017/12/25 19:59:43","新北市新店區力行路94號","121.538295","24.9665666666667","6500600","新店區"
"231067","4772-VM","2017/12/25 19:59:51","新北市新店區秀山路11巷12弄15號","121.531466666667","24.9595316666667","6500600","新店區"
"231065","512-UM","2017/12/25 19:59:39","新北市新店區安祥路106巷6弄1號","121.478878333333","24.96262","6500600","新店區"
"231064","515-UM","2017/12/25 19:59:44","新北市新店區碧安街15巷2號","121.517358333333","24.9690783333333","6500600","新店區"
"231040","619-UM","2017/12/25 19:59:53","新北市新店區中正路60號","121.54434","24.970105","6500600","新店區"
"231042","641-BX","2017/12/25 19:59:47","新北市新店區中興路一段290號","121.545915","24.9690983333333","6500600","新店區"
"231063","645-TV","2017/12/25 19:59:55","新北市新店區黎明路45號","121.50197","24.9495283333333","6500600","新店區"
"231068","718-UY","2017/12/25 19:59:44","新北市新店區安華路28-1號","121.51932","24.9612333333333","6500600","新店區"
"231049","719-UM","2017/12/25 19:59:35","新北市新店區明德路30號","121.541441666667","24.9778033333333","6500600","新店區"
"231062","720-UM","2017/12/25 19:59:41","新北市新店區華城路10巷1-3號","121.528768333333","24.9578016666667","6500600","新店區"
"231044","897-TW","2017/12/25 19:59:51","新北市新店區復興路44-1號","121.53862","24.9866866666667","6500600","新店區"
"231045","898-TW","2017/12/25 19:59:51","新北市新店區北宜路二段82-13號","121.55471","24.9534916666667","6500600","新店區"
"231043","899-TW","2017/12/25 19:59:52","新北市新店區中正路263-4號","121.538295","24.9739166666667","6500600","新店區"
"241011","013-R5","2017/12/25 19:59:50","新北市三重區秀江街184號","121.497931666667","25.071675","6500200","三重區"
"241028","022-UY","2017/12/25 19:59:37","新北市三重區中正南路40號","121.49377","25.0601566666667","6500200","三重區"
"241008","059-VK","2017/12/25 19:59:41","新北市三重區永福街179巷9號","121.478483333333","25.074965","6500200","三重區"
"241009","060-VK","2017/12/25 19:59:47","新北市三重區三和路四段382巷48號","121.480918333333","25.0784183333333","6500200","三重區"
"241031","061-VK","2017/12/25 19:59:48","新北市三重區重新路四段144巷20號","121.487043333333","25.0554066666667","6500200","三重區"
"241015","062-VK","2017/12/25 19:59:49","新北市三重區三和路二段29號","121.50101","25.0670733333333","6500200","三重區"
"241017","063-VK","2017/12/25 19:59:42","新北市三重區自強路一段217號","121.491316666667","25.0685666666667","6500200","三重區"
"241024","065-VK","2017/12/25 19:59:49","新北市三重區力行路一段178巷9號","121.48159","25.0714066666667","6500200","三重區"
"241002","090-VK","2017/12/25 19:59:43","新北市三重區福隆路56號","121.492783333333","25.0786933333333","6500200","三重區"
"241003","091-VK","2017/12/25 19:59:39","新北市三重區仁愛街445巷49號","121.491203333333","25.083145","6500200","三重區"
"241005","262-UM","2017/12/25 19:59:37","新北市三重區五華街170號","121.489018333333","25.0861766666667","6500200","三重區"
"241026","265-UM","2017/12/25 19:59:42","新北市三重區仁慈街16號","121.50188","25.063095","6500200","三重區"
"241016","266-UM","2017/12/25 19:59:52","新北市三重區正義北路36巷2號","121.49714","25.0634066666667","6500200","三重區"
"241022","267-UM","2017/12/25 19:59:50","新北市三重區過圳街31巷2號","121.488946666667","25.06061","6500200","三重區"
"241018","268-UM","2017/12/25 19:59:36","新北市三重區雙園街84號","121.495446666667","25.06762","6500200","三重區"
"241032","269-UM","2017/12/25 19:59:46","新北市三重區重陽路一段44巷65號","121.48436","25.0577833333333","6500200","三重區"
"241013","270-UM","2017/12/25 19:59:46","新北市三重區三和路三段125巷13號","121.493378333333","25.0734783333333","6500200","三重區"
"241025","271-UM","2017/12/25 19:59:41","新北市三重區頂崁街210巷16號","121.476541666667","25.0677516666667","6500200","三重區"
"241007","398-BY","2017/12/25 19:59:42","新北市三重區溪尾街136號","121.48927","25.07958","6500200","三重區"
"241020","413-TH","2017/12/25 19:59:53","新北市三重區忠孝路一段103號","121.489266666667","25.0721216666667","6500200","三重區"
"241004","475-VK","2017/12/25 19:59:55","新北市三重區五華街108-2號","121.492478333333","25.08277","6500200","三重區"
"241019","478-VK","2017/12/25 19:59:51","新北市三重區重陽路四段18號","121.490855","25.0690416666667","6500200","三重區"
"241030","480-VK","2017/12/25 19:59:44","新北市三重區成功路112-3號","121.48648","25.0521633333333","6500200","三重區"
"241014","543-UM","2017/12/25 19:59:55","新北市三重區介壽路1號","121.499006666667","25.06898","6500200","三重區"
"241023","545-UM","2017/12/25 19:59:47","新北市三重區頂崁街172號","121.477648333333","25.06593","6500200","三重區"
"241006","AAD-863","2017/12/25 19:59:40","新北市三重區力行路二段61號","121.482108333333","25.0747583333333","6500200","三重區"
"241035","743-BX","2017/12/25 19:59:40","新北市三重區大榮街9號","121.498241666667","25.06309","6500200","三重區"
"241012","941-UM","2017/12/25 19:59:47","新北市三重區仁厚街26號","121.499671666667","25.076325","6500200","三重區"
"241029","942-UM","2017/12/25 19:59:47","新北市三重區重安街1號","121.490075","25.0582416666667","6500200","三重區"
"241033","AAC-255","2017/12/25 19:59:54","新北市三重區中興北街9號","121.46958","25.04616","6500200","三重區"
"235066","003-UY","2017/12/25 19:59:46","新北市中和區中山路二段57號","121.504226666667","25.0048116666667","6500300","中和區"
"235046","031-BX","2017/12/25 19:59:53","新北市中和區興南路一段93巷59號","121.510276666667","24.987275","6500300","中和區"
"235056","096-UM","2017/12/25 19:59:57","新北市中和區中山路三段170巷23號","121.472618333333","25.007165","6500300","中和區"
"235039","097-UM","2017/12/25 19:59:53","新北市中和區大勇街25巷38弄1號","121.515758333333","24.9937183333333","6500300","中和區"
"235040","150-BY","2017/12/25 19:59:44","新北市中和區保健路10巷3弄1號","121.507741666667","24.9977133333333","6500300","中和區"
"235058","151-BY","2017/12/25 19:59:51","新北市中和區員山路148巷19號","121.4821","24.99715","6500300","中和區"
"235055","183-VK","2017/12/25 19:59:47","新北市中和區民生街23巷3弄2號","121.471066666667","25.0049816666667","6500300","中和區"
"235049","186-VK","2017/12/25 19:59:46","新北市中和區中興街37號","121.500836666667","24.9943816666667","6500300","中和區"
"235067","255-BX","2017/12/25 19:59:45","新北市中和區中正路751巷3弄14號","121.484335","24.9992633333333","6500300","中和區"
"235044","293-VK","2017/12/25 19:59:52","新北市中和區中正路65巷1弄1號","121.501398333333","24.9931633333333","6500300","中和區"
"235043","352-BY","2017/12/25 19:59:44","新北市中和區興南路二段159巷12號","121.505146666667","24.9830683333333","6500300","中和區"
"235068","377-QA","2017/12/25 19:59:54","新北市中和區中山路二段250巷9號","121.497373333333","25.00309","6500300","中和區"
"235050","4979-A6","2017/12/25 19:59:49","新北市中和區景平路153號","121.5135","24.99187","6500300","中和區"
"235069","4980-A6","2017/12/25 19:59:50","新北市中和區景新街47號","121.50427","24.9990466666667","6500300","中和區"
"235070","558-UM","2017/12/25 19:59:42","新北市中和區景平路481號","121.500325","24.9974933333333","6500300","中和區"
"235054","640-BX","2017/12/25 19:59:51","新北市中和區莒光路175-2號","121.472751666667","24.9996116666667","6500300","中和區"
"235060","647-TV","2017/12/25 19:59:24","新北市中和區中正路803號","121.484681666667","25.0012133333333","6500300","中和區"
"235052","805-TS","2017/12/25 19:59:45","新北市中和區華新街192巷22弄9號","121.506605","24.98324","6500300","中和區"
"235048","896-TW","2017/12/25 19:59:49","新北市中和區景新街401號","121.51264","24.98966","6500300","中和區"
"235053","900-TW","2017/12/25 19:59:54","新北市中和區民德路258號","121.468015","24.997075","6500300","中和區"
"235065","911-UM","2017/12/25 19:59:57","新北市中和區福美路238號","121.498828333333","25.0053383333333","6500300","中和區"
"235051","157-BY","2017/12/25 19:59:42","新北市中和區復興路301巷16號","121.50148","24.9895283333333","6500300","中和區"
"235037","AAC-213","2017/12/25 19:59:49","新北市中和區自立路26號","121.52243","24.9929583333333","6500300","中和區"
"235059","AAC-215","2017/12/25 19:59:55","新北市中和區圓通路343號","121.491581666667","24.9904066666667","6500300","中和區"
"220068","013-TV","2017/12/25 19:59:45","新北市板橋區光復街202巷6-1號","121.486091666667","25.02026","6500100","板橋區"
"220065","072-UY","2017/12/25 19:59:55","新北市板橋區長安街3號","121.465995","25.0085566666667","6500100","板橋區"
"220069","AAD-861","2017/12/25 19:59:42","新北市板橋區貴興路79號","121.456813333333","25.0029766666667","6500100","板橋區"
"220106","120-SR","2017/12/25 19:59:50","新北市板橋區民治街71巷42號","121.480675","25.0328116666667","6500100","板橋區"
"247020","500-BY","2017/12/25 19:59:47","新北市蘆洲區民義街75號","121.47332","25.0902183333333","6501400","蘆洲區"
"247008","341-TH","2017/12/25 19:59:42","新北市蘆洲區中山一路95巷20弄11號","121.476941666667","25.080595","6501400","蘆洲區"
"247002","337-TH","2017/12/25 19:59:56","新北市蘆洲區長安街274巷6弄3號","121.4579","25.0868616666667","6501400","蘆洲區"
"247004","336-TH","2017/12/25 19:59:45","新北市蘆洲區永康街33號","121.457438333333","25.0852866666667","6501400","蘆洲區"
"247016","057-VK","2017/12/25 19:59:50","新北市蘆洲區光華路15號","121.469636666667","25.0833166666667","6501400","蘆洲區"
"247006","053-VK","2017/12/25 19:59:51","新北市蘆洲區九芎街88號","121.465846666667","25.0798916666667","6501400","蘆洲區"
"247014","007-UY","2017/12/25 19:59:47","新北市蘆洲區中山二路273號","121.469558333333","25.0794383333333","6501400","蘆洲區"
"247024","002-UY","2017/12/25 19:59:54","新北市蘆洲區中正路299巷10號","121.465808333333","25.087875","6501400","蘆洲區"
"226004","312-R5","2017/12/25 19:28:29","新北市平溪區南山里南山坪23號","121.771235","25.0359083333333","6502400","平溪區"
"228003","097-TW","2017/12/25 19:59:47","新北市貢寮區仁理村仁和路228號","121.923911666667","25.05363","6502600","貢寮區"
"224010","AGQ-8101","2017/12/25 19:59:46","新北市瑞芳區輕便路131號","121.843556666667","25.1087616666667","6501200","瑞芳區"
"227001","642-TC","2017/12/25 19:59:40","新北市雙溪區雙溪里長安街16號","121.864971666667","25.0347","6502500","雙溪區"
"227008","400-TW","2017/12/25 19:59:45","新北市雙溪區新基里新基南街25號","121.866268333333","25.03814","6502500","雙溪區"
"208002","742-BX","2017/12/25 19:59:51","新北市金山區龜子山路33號","121.638791666667","25.2172266666667","6502700","金山區"
"208003","665-BX","2017/12/25 19:59:38","新北市金山區香園9號","121.634701666667","25.249875","6502700","金山區"
"208001","761-BX","2017/12/25 19:59:54","新北市金山區南勢85號","121.62487","25.2199233333333","6502700","金山區"
"251009","008-UM","2017/12/25 19:59:54","新北市淡水區英專路28巷20號","121.445911666667","25.1698166666667","6501000","淡水區"
"251004","009-UM","2017/12/25 19:46:01","新北市淡水區民權路177巷51號","121.460628333333","25.133935","6501000","淡水區"
"251005","010-UM","2017/12/25 19:59:56","新北市淡水區學府路136巷51號","121.452315","25.172665","6501000","淡水區"
"251008","181-VK","2017/12/25 19:59:51","新北市淡水區淡海路63巷10-1號","121.422793333333","25.1808016666667","6501000","淡水區"
"251013","182-VK","2017/12/25 19:59:53","新北市淡水區奎柔山路63號","121.4514","25.2062466666667","6501000","淡水區"
"251010","413-VK","2017/12/25 19:59:52","新北市淡水區崁頂里77號","121.430621666667","25.2031816666667","6501000","淡水區"
"251012","441-VK","2017/12/25 19:59:46","新北市淡水區下圭柔山70-18號","121.445815","25.20926","6501000","淡水區"
"251015","442-VK","2017/12/25 19:59:50","新北市淡水區埤島76-2號","121.451858333333","25.1931683333333","6501000","淡水區"
"251001","559-UM","2017/12/25 19:59:46","新北市淡水區淡金路二段62號","121.451018333333","25.182095","6501000","淡水區"
"251006","561-UM","2017/12/25 19:59:50","新北市淡水區北新路12號","121.444575","25.1774183333333","6501000","淡水區"
"251011","650-BX","2017/12/25 19:59:44","新北市淡水區崁頂55-3號","121.442268333333","25.1967283333333","6501000","淡水區"
"207003","550-UM","2017/12/25 19:59:38","新北市萬里區大鵬里萬里加投59-2號","121.642373333333","25.21256","6502800","萬里區"
"207004","225-TW","2017/12/25 19:59:47","新北市萬里區北基里忠二街35號","121.685626666667","25.1757016666667","6502800","萬里區"
"252001","292-VK","2017/12/25 19:59:54","新北市三芝區公正街9號","121.499746666667","25.2574716666667","6502100","三芝區"
"237004","078-UY","2017/12/25 19:59:38","新北市三峽區嘉添135號","121.369263333333","24.9113616666667","6500900","三峽區"
"237007","153-BY","2017/12/25 19:59:56","新北市三峽區二鬮路136巷24弄23號","121.35636","24.9106","6500900","三峽區"
"237009","210-TH","2017/12/25 19:59:47","新北市三峽區民族街78巷15號","121.368766666667","24.9295816666667","6500900","三峽區"
"237012","275-BY","2017/12/25 19:59:44","新北市三峽區中華路3巷10號","121.374768333333","24.9311216666667","6500900","三峽區"
"237008","302-VK","2017/12/25 19:59:42","新北市三峽區中正路一段174巷4弄6號","121.372393333333","24.9288733333333","6500900","三峽區"
"237014","433-BY","2017/12/25 19:59:48","新北市三峽區添福141號","121.375295","24.9009816666667","6500900","三峽區"
"237006","5529-G3","2017/12/25 19:59:52","新北市三峽區中正路二段176巷79-2號","121.364385","24.9131766666667","6500900","三峽區"
"237015","649-BX","2017/12/25 19:59:37","新北市三峽區介壽路三段1號","121.394936666667","24.9360983333333","6500900","三峽區"
"237005","AKY-6261","2017/12/25 19:59:55","新北市三峽區民生街1巷29號","121.382971666667","24.933215","6500900","三峽區"
"236069","105-UM","2017/12/25 19:59:40","新北市土城區忠義路77-1號","121.442781666667","24.96525","6501300","土城區"
"236042","107-UM","2017/12/25 19:59:55","新北市土城區學府路一段100號","121.45607","24.9880366666667","6501300","土城區"
"236078","166-UM","2017/12/25 16:28:09","新北市土城區城林路6巷80號","121.438381666667","24.9795833333333","6501300","土城區"
"236030","253-BX","2017/12/25 19:59:44","新北市土城區中央路一段252號","121.444231666667","24.9846733333333","6501300","土城區"
"236026","269-VK","2017/12/25 19:59:54","新北市土城區中央路二段84號","121.442375","24.9788183333333","6501300","土城區"
"236014","270-VK","2017/12/25 19:59:51","新北市土城區廣福街128號","121.45632","24.992845","6501300","土城區"
"236036","271-VK","2017/12/25 19:59:42","新北市土城區國際路72-1號","121.466733333333","24.976345","6501300","土城區"
"236020","401-BY","2017/12/25 19:59:30","新北市土城區延吉街165巷5號","121.470361666667","24.985395","6501300","土城區"
"236058","912-UM","2017/12/25 19:59:55","新北市土城區中央路一段175號","121.446236666667","24.9874783333333","6501300","土城區"
"236048","913-UM","2017/12/25 19:59:47","新北市土城區金城路三段190號","121.468278333333","24.98804","6501300","土城區"
"236062","915-UM","2017/12/25 19:59:40","新北市土城區延和路62巷8弄1號","121.466206666667","24.9883216666667","6501300","土城區"
"236053","AAC-216","2017/12/25 19:59:43","新北市土城區延和路11號","121.463886666667","24.98792","6501300","土城區"
"242031","AAC-296","2017/12/25 19:59:52","新北市新莊區公園一路63號","121.443086666667","25.0365716666667","6500500","新莊區"
"242029","986-R7","2017/12/25 19:59:51","新北市新莊區中平路318號","121.444706666667","25.0524833333333","6500500","新莊區"
"242050","751-BX","2017/12/25 19:59:53","新北市新莊區西盛街196號","121.428145","25.0183933333333","6500500","新莊區"
"242025","615-BX","2017/12/25 19:59:50","新北市新莊區五工二路86巷31號","121.460465","25.0672366666667","6500500","新莊區"
"242023","613-BX","2017/12/25 19:59:39","新北市新莊區化成路386號","121.465933333333","25.0502416666667","6500500","新莊區"
"242027","612-BX","2017/12/25 19:59:54","新北市新莊區立信一街48號","121.44329","25.0494216666667","6500500","新莊區"
"242039","566-BX","2017/12/25 19:59:39","新北市新莊區民安路285-3號","121.429078333333","25.0224483333333","6500500","新莊區"
"242004","442-UM","2017/12/25 19:59:43","新北市新莊區化成路207號","121.465618333333","25.0513233333333","6500500","新莊區"
"242048","441-UM","2017/12/25 19:59:40","新北市新莊區民安路201號","121.42621","25.0224066666667","6500500","新莊區"
"242053","440-UM","2017/12/25 19:59:43","新北市新莊區西盛街418號","121.427136666667","25.0122116666667","6500500","新莊區"
"242034","415-TV","2017/12/25 19:59:41","新北市新莊區建中街103號","121.446543333333","25.0362616666667","6500500","新莊區"
"242044","413-TV","2017/12/25 19:59:46","新北市新莊區中正路746巷37號","121.410876666667","25.0248416666667","6500500","新莊區"
"242042","400-BY","2017/12/25 19:59:58","新北市新莊區青山路一段200-4號","121.397816666667","25.031765","6500500","新莊區"
"242060","362-BY","2017/12/25 19:59:54","新北市新莊區瓊泰路3號","121.444931666667","25.02859","6500500","新莊區"
"242058","353-BY","2017/12/25 19:59:46","新北市新莊區八德街111號","121.424093333333","25.0209183333333","6500500","新莊區"
"242007","132-UY","2017/12/25 19:59:54","新北市新莊區福壽街200號","121.45816","25.0537133333333","6500500","新莊區"
"242036","133-UY","2017/12/25 19:59:49","新北市新莊區建安街43號","121.428893333333","25.02551","6500500","新莊區"
"242021","135-UY","2017/12/25 19:59:48","新北市新莊區建中街16巷35號","121.448671666667","25.038435","6500500","新莊區"
"242046","172-VK","2017/12/25 19:59:50","新北市新莊區裕民街19巷4號","121.419698333333","25.0252483333333","6500500","新莊區"
"242009","173-VK","2017/12/25 19:49:14","新北市新莊區三和路12-21號","121.441903333333","25.0389216666667","6500500","新莊區"
"242015","175-VK","2017/12/25 19:59:47","新北市新莊區泰順街33巷2號","121.446183333333","25.0424716666667","6500500","新莊區"
"242002","176-VK","2017/12/25 19:59:59","新北市新莊區中正路219號","121.450895","25.035835","6500500","新莊區"
"242013","346-TH","2017/12/25 19:59:51","新北市新莊區幸福路602-1號","121.452328333333","25.0492533333333","6500500","新莊區"
"242019","348-TH","2017/12/25 19:59:51","新北市新莊區民生街15巷1弄2號","121.455641666667","25.04226","6500500","新莊區"
"242017","350-TH","2017/12/25 19:59:54","新北市新莊區中港路328號","121.452483333333","25.0457316666667","6500500","新莊區"
"242011","351-TH","2017/12/25 19:59:55","新北市新莊區中港路531巷58號","121.450145","25.0517566666667","6500500","新莊區"
"238015","755-BX","2017/12/25 19:59:54","新北市樹林區中山路三段210-2號","121.380795","24.9668466666667","6500700","樹林區"
"238021","KEA-2217","2017/12/25 19:59:52","新北市樹林區佳園路三段111號","121.387045","24.951085","6500700","樹林區"
"238017","283-BY","2017/12/25 19:59:51","新北市樹林區保安街二段37-1號","121.416111666667","25.0000916666667","6500700","樹林區"
"238014","282-BY","2017/12/25 19:59:46","新北市樹林區環河路110號","121.426445","24.977635","6500700","樹林區"
"239006","891-R6","2017/12/25 19:59:56","新北市鶯歌區文化路124號","121.351846666667","24.95193","6500800","鶯歌區"
"239002","359-BY","2017/12/25 19:59:52","新北市鶯歌區二甲路12-2號","121.345666666667","24.9349916666667","6500800","鶯歌區"
"221008","489-VK","2017/12/25 19:59:56","台北市內湖區康樂街125巷14號","121.620175","25.0733083333333","6501100","汐止區"
"221036","130-UY","2017/12/25 19:59:53","新北市汐止區新台五路二段85巷13號","121.664241666667","25.06731","6501100","汐止區"
"221010","269-BY","2017/12/25 19:59:47","新北市汐止區連峰街225巷3號","121.644728333333","25.08094","6501100","汐止區"
"221012","278-VK","2017/12/25 19:59:50","新北市汐止區祥雲街三段196號","121.674566666667","25.0739983333333","6501100","汐止區"
"221023","279-VK","2017/12/25 19:59:41","新北市汐止區明峰街190號","121.628091666667","25.06969","6501100","汐止區"
"221032","280-BY","2017/12/25 19:59:45","新北市汐止區橫科路18巷32弄8號","121.617498333333","25.0498133333333","6501100","汐止區"
"221027","281-BY","2017/12/25 19:59:55","新北市汐止區中正路44號","121.662076666667","25.0702883333333","6501100","汐止區"
"221029","298-VK","2017/12/25 19:59:43","新北市汐止區樟樹一路137巷26號","121.640978333333","25.065975","6501100","汐止區"
"221021","299-VK","2017/12/25 19:59:40","新北市汐止區水源路一段143號","121.65594","25.062245","6501100","汐止區"
"221031","353-TW","2017/12/25 19:59:51","新北市汐止區福德一路221號","121.634538333333","25.0651833333333","6501100","汐止區"
"221015","567-BX","2017/12/25 19:59:45","新北市汐止區忠孝東路487-12號","121.665243333333","25.0740016666667","6501100","汐止區"
"221035","622-UM","2017/12/25 19:59:47","新北市汐止區長江街47號","121.65598","25.0713733333333","6501100","汐止區"
"221025","623-UM","2017/12/25 19:59:41","新北市汐止區秀峰路107號","121.660191666667","25.0633466666667","6501100","汐止區"
"221038","646-BX","2017/12/25 19:59:59","新北市汐止區忠孝東路464號","121.666188333333","25.07311","6501100","汐止區"
"221033","647-BX","2017/12/25 19:59:36","新北市汐止區東勢街201巷5號","121.633895","25.0427083333333","6501100","汐止區"
"221018","753-BX","2017/12/25 19:59:39","新北市汐止區茄安路2號","121.672715","25.067605","6501100","汐止區"
"220079","145-BY","2017/12/25 19:59:54","新北市板橋區南雅西路二段235號","121.45146","25.0141216666667","6500100","板橋區"
"220080","200-UY","2017/12/25 19:59:40","新北市板橋區大觀路二段169巷14號","121.44598","24.9999383333333","6500100","板橋區"
"220082","610-BX","2017/12/25 19:59:55","新北市板橋區溪崑一街56號","121.42955","24.9902333333333","6500100","板橋區"
"220096","257-TC","2017/12/25 19:59:41","新北市板橋區莊敬路145號","121.4717","25.024965","6500100","板橋區"
"220072","277-BY","2017/12/25 19:59:56","新北市板橋區金門街215巷36號","121.43407","24.9892783333333","6500100","板橋區"
"220101","280-UM","2017/12/25 19:59:54","新北市板橋區莒光路180巷23號","121.473201666667","25.0228266666667","6500100","板橋區"
"220094","283-UM","2017/12/25 19:59:45","新北市板橋區漢生西路197-1號","121.463156666667","25.0244233333333","6500100","板橋區"
"220071","283-VK","2017/12/25 19:59:48","新北市板橋區五權街30巷11號","121.464338333333","24.9932716666667","6500100","板橋區"
"220053","285-VK","2017/12/25 19:59:42","新北市板橋區永豐街53號","121.474053333333","25.0180416666667","6500100","板橋區"
"220083","286-VK","2017/12/25 19:59:45","新北市板橋區僑中二街50號","121.446636666667","25.0106016666667","6500100","板橋區"
"220081","287-VK","2017/12/25 19:59:50","新北市板橋區大觀路一段28巷101號","121.45003","25.011955","6500100","板橋區"
"220090","288-VK","2017/12/25 19:59:42","新北市板橋區龍泉街82巷8號","121.455976666667","25.0255333333333","6500100","板橋區"
"220061","295-UM","2017/12/25 19:59:56","新北市板橋區板新路114號","121.471288333333","25.0152733333333","6500100","板橋區"
"220075","297-UM","2017/12/25 19:59:51","新北市板橋區金華街10巷126號","121.459635","25.02058","6500100","板橋區"
"220062","303-R5","2017/12/25 19:59:56","新北市板橋區中山路二段490號","121.486006666667","25.02132","6500100","板橋區"
"220092","307-R5","2017/12/25 19:59:58","新北市板橋區四維路259巷77號","121.460341666667","25.0265733333333","6500100","板橋區"
"220098","317-R6","2017/12/25 19:59:46","新北市板橋區四維路269巷94弄18號","121.459381666667","25.0268633333333","6500100","板橋區"
"220064","486-VK","2017/12/25 19:59:50","新北市板橋區實踐路25號","121.46366","25.0071866666667","6500100","板橋區"
"220089","487-VK","2017/12/25 19:59:48","新北市板橋區新海路385巷32號","121.457435","25.0254516666667","6500100","板橋區"
"220088","491-VK","2017/12/25 19:59:48","新北市板橋區大同街89號","121.479928333333","25.0283283333333","6500100","板橋區"
"220035","560-BX","2017/12/25 19:59:54","新北市板橋區新生街29巷4弄1號","121.456615","25.0218783333333","6500100","板橋區"
"220103","561-BX","2017/12/25 19:59:38","新北市板橋區自由路13號","121.465481666667","25.0226883333333","6500100","板橋區"
"220084","568-UM","2017/12/25 19:59:54","新北市板橋區滿平街2巷2號","121.425898333333","24.9901916666667","6500100","板橋區"
"220063","609-BX","2017/12/25 19:59:36","新北市板橋區中山路二段89巷2號","121.474128333333","25.0160816666667","6500100","板橋區"
"220091","637-BX","2017/12/25 19:59:55","新北市板橋區文聖街101巷2號","121.477991666667","25.0296083333333","6500100","板橋區"
"220057","686-BX","2017/12/25 19:59:44","新北市板橋區四川路二段2號","121.456601666667","24.9966366666667","6500100","板橋區"
"220093","689-BX","2017/12/25 19:59:45","新北市板橋區文化路二段656號","121.479558333333","25.035715","6500100","板橋區"
"220054","741-BX","2017/12/25 19:59:44","新北市板橋區實踐路93巷74號","121.466606666667","25.0048783333333","6500100","板橋區"
"220055","827-TW","2017/12/25 19:59:48","新北市板橋區仁愛路62巷17弄1號","121.460066666667","24.9982433333333","6500100","板橋區"
"220067","829-TW","2017/12/25 19:59:56","新北市板橋區漢生東路193巷3號","121.470035","25.0116983333333","6500100","板橋區"
"220102","830-TW","2017/12/25 19:59:50","新北市板橋區仁化街42巷26號","121.475581666667","25.0308766666667","6500100","板橋區"
"220074","895-R6","2017/12/25 19:59:52","新北市板橋區民權路81號","121.461081666667","25.0118366666667","6500100","板橋區"
"220073","985-R7","2017/12/25 19:59:38","新北市板橋區南雅西路二段191號","121.451843333333","25.0130466666667","6500100","板橋區"
"220097","AAC-210","2017/12/25 19:59:59","新北市板橋區光正街45巷2弄18號","121.460953333333","25.0173766666667","6500100","板橋區"
"220070","AAC-253","2017/12/25 19:59:57","新北市板橋區成都街99號","121.463341666667","25.0053033333333","6500100","板橋區"
