"lineid","car","time","location","longitude","latitude"
"247001","402-BY","2017/06/04 15:56:41","新北市五股區中興路三段3-6號","121.44966","25.078755"
"251013","179-VK","2017/06/04 17:19:43","新北市淡水區竹圍子8-1號","121.477023333333","25.193595"
"251014","180-VK","2017/06/04 17:19:48","新北市淡水區番子田132號","121.464795","25.22764"
"251016","182-VK","2017/06/04 17:19:42","新北市淡水區社厝坑6號","121.4708","25.1903583333333"
"251015","442-VK","2017/06/04 17:17:37","新北市淡水區樹林口20-1號","121.4788","25.16999"
"252007","AAC-283","2017/06/04 00:09:44","新北市三芝區埔坪里埔頭坑41號","121.504471666667","25.2644933333333"
