"lineid","car","time","location","longitude","latitude"
"247001","402-BY","2017/06/04 15:56:41","新北市五股區中興路三段3-6號","121.44966","25.078755"
"251013","179-VK","2017/06/04 17:29:43","新北市淡水區水尾子5-2號","121.463138333333","25.1962516666667"
"251014","180-VK","2017/06/04 17:29:48","新北市淡水區公埔子20-2號","121.46987","25.2290816666667"
"251016","182-VK","2017/06/04 17:29:42","新北市淡水區埤島75號","121.454258333333","25.1945133333333"
"251015","442-VK","2017/06/04 17:29:37","新北市淡水區三空泉21號","121.468795","25.1668733333333"
"252007","AAC-283","2017/06/04 00:09:44","新北市三芝區埔坪里埔頭坑41號","121.504471666667","25.2644933333333"
