"lineid","car","time","location","longitude","latitude"
"247001","402-BY","2017/06/04 15:56:41","新北市五股區中興路三段3-6號","121.44966","25.078755"
"251013","179-VK","2017/06/04 17:39:43","新北市淡水區演戲埔腳11號","121.46976","25.19476"
"251014","180-VK","2017/06/04 17:39:48","新北市淡水區水碓24號","121.47784","25.2247266666667"
"251016","182-VK","2017/06/04 17:39:42","新北市淡水區埤島39-15號","121.452783333333","25.1958783333333"
"251015","442-VK","2017/06/04 17:38:17","新北市淡水區樹林口7-1號","121.479461666667","25.1670816666667"
"252007","AAC-283","2017/06/04 00:09:44","新北市三芝區埔坪里埔頭坑41號","121.504471666667","25.2644933333333"
