"lineid","car","time","location","longitude","latitude"
"247001","402-BY","2017/06/04 15:56:41","新北市五股區中興路三段3-6號","121.44966","25.078755"
"224011","AGQ-8101","2017/06/04 18:23:19","新北市瑞芳區山尖路209號","121.84948","25.111625"
"251013","179-VK","2017/06/04 18:29:43","新北市淡水區椿子林19-8號","121.479955","25.2034216666667"
"251014","180-VK","2017/06/04 18:29:48","新北市淡水區南平26-2號","121.493441666667","25.21481"
"251016","182-VK","2017/06/04 18:29:41","新北市淡水區下圭柔山106號","121.443626666667","25.2092766666667"
"251015","442-VK","2017/06/04 18:29:37","新北市淡水區興福寮88巷216號","121.485996666667","25.1666133333333"
"252007","AAC-283","2017/06/04 00:09:44","新北市三芝區埔坪里埔頭坑41號","121.504471666667","25.2644933333333"
