"lineid","car","time","location","longitude","latitude"
"247001","402-BY","2017/06/04 15:56:41","新北市五股區中興路三段3-6號","121.44966","25.078755"
"224011","AGQ-8101","2017/06/04 18:49:39","新北市瑞芳區基山街4號","121.845148333333","25.1097533333333"
"251013","179-VK","2017/06/04 18:49:43","新北市淡水區頂田寮路697號","121.473218333333","25.2166666666667"
"251014","180-VK","2017/06/04 18:49:48","新北市淡水區崙頂3號","121.490875","25.223945"
"251016","182-VK","2017/06/04 18:49:42","新北市淡水區下圭柔山71-3號","121.447073333333","25.206155"
"251015","442-VK","2017/06/04 18:49:37","新北市淡水區興福寮1-7號","121.487266666667","25.16532"
"252007","AAC-283","2017/06/04 00:09:44","新北市三芝區埔坪里埔頭坑41號","121.504471666667","25.2644933333333"
