"lineid","car","time","location","longitude","latitude"
"247001","402-BY","2017/06/04 15:56:41","新北市五股區中興路三段3-6號","121.44966","25.078755"
"224011","AGQ-8101","2017/06/04 18:59:39","新北市瑞芳區基山街115號","121.844315","25.1085433333333"
"251013","179-VK","2017/06/04 18:57:03","新北市淡水區小坑子頭10號","121.482146666667","25.212855"
"251014","180-VK","2017/06/04 18:59:48","新北市淡水區崙頂3號","121.490636666667","25.22396"
"251016","182-VK","2017/06/04 18:59:41","新北市淡水區淡金路三段28號","121.447865","25.1989316666667"
"251015","442-VK","2017/06/04 18:59:37","新北市淡水區糞箕湖60號","121.485271666667","25.1723333333333"
"252007","AAC-283","2017/06/04 00:09:44","新北市三芝區埔坪里埔頭坑41號","121.504471666667","25.2644933333333"
