"lineid","car","time","location","longitude","latitude"
"247001","402-BY","2017/06/04 15:56:41","新北市五股區中興路三段3-6號","121.44966","25.078755"
"251013","179-VK","2017/06/04 19:19:43","新北市淡水區安子內12號","121.481516666667","25.2190966666667"
"251014","180-VK","2017/06/04 19:19:28","新北市淡水區小中寮19-7號","121.484785","25.2296383333333"
"251016","182-VK","2017/06/04 19:19:41","新北市淡水區下圭柔山119-51號","121.450781666667","25.2084716666667"
"251015","442-VK","2017/06/04 19:19:37","新北市淡水區山子邊16巷5號","121.485841666667","25.1825966666667"
"252007","AAC-283","2017/06/04 00:09:44","新北市三芝區埔坪里埔頭坑41號","121.504471666667","25.2644933333333"
