"lineid","car","time","location","longitude","latitude"
"247001","402-BY","2017/06/04 15:56:41","新北市五股區中興路三段3-6號","121.44966","25.078755"
"251013","179-VK","2017/06/04 20:09:43","新北市淡水區奎柔山路460號","121.463771666667","25.20461"
"251014","180-VK","2017/06/04 20:09:48","新北市淡水區石頭厝3號","121.458715","25.2355716666667"
"251016","182-VK","2017/06/04 20:09:41","新北市淡水區番子田18-1號","121.456835","25.2293766666667"
"251015","442-VK","2017/06/04 20:09:37","新北市淡水區商工路309號","121.457115","25.1865083333333"
"252007","AAC-283","2017/06/04 00:09:44","新北市三芝區埔坪里埔頭坑41號","121.504471666667","25.2644933333333"
