"lineid","car","time","location","longitude","latitude","cityid","cityname"
"222004","289-BY","2017/06/17 10:09:05","新北市深坑區文山路二段30巷31號","121.615608333333","24.99886","6501800","深坑區"
"231008","719-UY","2017/06/17 10:02:24","新北市新店區平廣路一段273號","121.50575","24.886605","6500600","新店區"
"227006","282-VK","2017/06/17 10:09:09","新北市雙溪區長源里柑腳18號","121.804673333333","25.014135","6502500","雙溪區"
"253003","6232-TK","2017/06/17 10:09:08","新北市石門區小坑12-1號","121.59548","25.2841416666667","6502200","石門區"
"253001","6251-TK","2017/06/17 10:08:53","新北市石門區崁子腳53-2號","121.537465","25.2819416666667","6502200","石門區"
"253002","637-UY","2017/06/17 10:06:28","新北市石門區尖子鹿76號","121.572221666667","25.2969316666667","6502200","石門區"
"253004","8270-PC","2017/06/17 10:07:47","新北市石門區坪林52-1號","121.595176666667","25.2719983333333","6502200","石門區"
"252007","178-VK","2017/06/17 10:08:57","新北市三芝區新庄里新庄子85號","121.510628333333","25.2703966666667","6502100","三芝區"
"252004","249-BX","2017/06/17 10:09:02","新北市三芝區埔坪里埔頭坑41號","121.504676666667","25.2647266666667","6502100","三芝區"
