"lineid","car","time","location","longitude","latitude","cityid","cityname"
"234044","148-BY","2017/06/17 13:18:56","新北市永和區秀朗路二段148巷10弄1號","121.525363333333","25.0008533333333","6500400","永和區"
"234012","149-BY","2017/06/17 13:18:50","新北市永和區仁愛路104巷1號","121.511891666667","25.0133783333333","6500400","永和區"
"234005","207-UY","2017/06/17 13:18:53","新北市永和區中山路一段324號","121.506391666667","25.0066966666667","6500400","永和區"
"234078","298-R6","2017/06/17 13:19:01","新北市永和區福和路7巷7-1號","121.525408333333","25.00778","6500400","永和區"
"234036","336-UY","2017/06/17 13:18:59","新北市永和區成功路二段47巷11號","121.527413333333","25.00026","6500400","永和區"
"234062","337-UY","2017/06/17 13:18:56","新北市永和區永元路17巷6弄2號","121.521335","25.0006466666667","6500400","永和區"
"234084","338-UY","2017/06/17 13:19:10","新北市永和區永利路37號","121.518681666667","25.0056083333333","6500400","永和區"
"234068","552-UM","2017/06/17 13:18:53","新北市永和區中正路666巷23號","121.517656666667","25.00923","6500400","永和區"
"234052","553-UM","2017/06/17 13:19:04","新北市永和區中興街11號","121.515705","25.012065","6500400","永和區"
"234015","745-BX","2017/06/17 13:18:53","新北市永和區文化路144巷31弄7號","121.512055","25.0168516666667","6500400","永和區"
"234028","746-BX","2017/06/17 13:19:02","新北市永和區四維街91號","121.524441666667","24.9981616666667","6500400","永和區"
"234060","AAD-866","2017/06/17 13:18:57","新北市永和區秀朗路一段175號","121.517086666667","25.00366","6500400","永和區"
"234040","862-TW","2017/06/17 13:19:04","新北市永和區保平路203巷33號","121.509698333333","25.0050216666667","6500400","永和區"
"234048","863-TW","2017/06/17 13:19:03","新北市永和區保福路二段88巷14號","121.511458333333","25.0136183333333","6500400","永和區"
"234025","9371-KE","2017/06/17 13:18:59","新北市永和區豫溪街42巷5號","121.515528333333","25.0095116666667","6500400","永和區"
"234010","9373-KE","2017/06/17 13:18:56","新北市永和區忠孝街34巷16號","121.51451","25.0167716666667","6500400","永和區"
"248017","225-UY","2017/06/17 13:18:24","新北市五股區御史路201號","121.431931666667","25.0996316666667","6501500","五股區"
"234022","9380-KE","2017/06/17 13:19:08","新北市永和區竹林路102號","121.519651666667","25.0119533333333","6500400","永和區"
"234076","969-R7","2017/06/17 13:19:04","新北市永和區民有街25巷2號","121.517273333333","24.996035","6500400","永和區"
"234072","AAC-211","2017/06/17 13:19:01","新北市永和區竹林路30號","121.517055","25.0147433333333","6500400","永和區"
"234066","AAC-212","2017/06/17 13:19:06","新北市永和區保平路50巷8弄15號","121.511501666667","25.007825","6500400","永和區"
"234001","AAC-295","2017/06/17 13:16:25","新北市永和區保福路一段75號","121.511963333333","25.010355","6500400","永和區"
"231001","001-UM","2017/06/17 13:18:55","新北市新店區安華路28-1號","121.519531666667","24.9608566666667","6500600","新店區"
"231002","002-UM","2017/06/17 13:19:11","新北市新店區安華路28-1號","121.519728333333","24.9607933333333","6500600","新店區"
"231025","0291-UT","2017/06/17 13:18:58","新北市新店區安華路28-1號","121.51931","24.96071","6500600","新店區"
"231028","046-UY","2017/06/17 13:19:05","新北市新店區安華路28-1號","121.519541666667","24.960845","6500600","新店區"
"231030","047-UY","2017/06/17 13:17:23","新北市新店區安康路一段299-1號","121.522235","24.9636416666667","6500600","新店區"
"231029","106-UY","2017/06/17 13:18:54","新北市新店區安華路28-1號","121.5196","24.9608533333333","6500600","新店區"
"231018","107-UY","2017/06/17 13:19:04","新北市新店區中央路167-3號","121.533685","24.9702766666667","6500600","新店區"
"231012","108-UY","2017/06/17 13:19:07","新北市新店區安康路一段44號","121.530738333333","24.961005","6500600","新店區"
"231020","187-VK","2017/06/17 13:18:49","新北市新店區安康路一段83-1號","121.529595","24.96135","6500600","新店區"
"231026","256-BX","2017/06/17 13:18:55","新北市新店區安華路28-1號","121.51978","24.9611416666667","6500600","新店區"
"231034","268-BY","2017/06/17 13:19:05","新北市新店區安華路30巷1號","121.519511666667","24.95975","6500600","新店區"
"231010","278-BY","2017/06/17 13:18:58","新北市新店區安康路一段107-2號","121.52865","24.961715","6500600","新店區"
"231017","AAD-862","2017/06/17 13:18:59","新北市新店區安康路一段104號","121.527306666667","24.9624833333333","6500600","新店區"
"231027","3712-VJ","2017/06/17 13:18:52","新北市新店區環河路21號","121.537476666667","24.9613333333333","6500600","新店區"
"231024","3713-VJ","2017/06/17 13:18:54","新北市新店區安康路一段92號","121.527968333333","24.961985","6500600","新店區"
"231038","4715-K9","2017/06/17 13:18:58","新北市新店區安華路28-1號","121.519478333333","24.960585","6500600","新店區"
"231036","512-UM","2017/06/17 13:19:04","新北市新店區安豐路48號","121.500291666667","24.9541333333333","6500600","新店區"
"231023","513-UM","2017/06/17 13:18:58","新北市新店區安康路一段83號","121.529663333333","24.9612716666667","6500600","新店區"
"231035","515-UM","2017/06/17 13:19:00","新北市新店區安華路28-1號","121.519635","24.9613083333333","6500600","新店區"
"231006","617-UM","2017/06/17 13:18:53","新北市新店區安華路28-1號","121.519465","24.961015","6500600","新店區"
"231003","641-BX","2017/06/17 13:19:11","新北市新店區北新路一段303號","121.541448333333","24.9675466666667","6500600","新店區"
"231013","719-UM","2017/06/17 13:19:04","新北市新店區安康路一段77號","121.52997","24.961185","6500600","新店區"
"231033","720-UM","2017/06/17 13:19:01","新北市新店區安華路16號","121.516703333333","24.9579966666667","6500600","新店區"
"231005","897-TW","2017/06/17 13:19:10","新北市新店區安康路一段355-10號","121.520476666667","24.9638433333333","6500600","新店區"
"231004","899-TW","2017/06/17 13:19:02","新北市新店區安華路28-1號","121.519615","24.9611366666667","6500600","新店區"
"231037","AKT-0513","2017/06/17 13:19:00","新北市新店區安豐路39號","121.50047","24.9559666666667","6500600","新店區"
"235030","003-UY","2017/06/17 13:19:06","新北市中和區中山路二段120號","121.502645","25.0037666666667","6500300","中和區"
"235028","005-UY","2017/06/17 13:19:06","新北市中和區中正路140號","121.499233333333","24.9937166666667","6500300","中和區"
"235027","006-UY","2017/06/17 13:19:00","新北市中和區員山路36巷16-3號","121.485068333333","24.9913116666667","6500300","中和區"
"235003","097-UM","2017/06/17 13:18:53","新北市中和區中正路25號","121.502248333333","24.9934533333333","6500300","中和區"
"235029","098-UM","2017/06/17 13:18:52","新北市中和區福祥路2號","121.499556666667","25.00295","6500300","中和區"
"235004","150-BY","2017/06/17 13:18:56","新北市中和區中正路13號","121.503173333333","24.9933933333333","6500300","中和區"
"235022","151-BY","2017/06/17 13:18:54","新北市中和區圓通路367巷35號","121.492286666667","24.9849133333333","6500300","中和區"
"235019","183-VK","2017/06/17 13:19:04","新北市中和區員山路36巷16-3號","121.485115","24.9913633333333","6500300","中和區"
"235002","185-VK","2017/06/17 13:18:53","新北市中和區大智街6號","121.520195","24.9918983333333","6500300","中和區"
"235031","255-BX","2017/06/17 13:19:10","新北市中和區員山路148巷44弄3號","121.48255","24.9968033333333","6500300","中和區"
"235036","301-VK","2017/06/17 13:19:10","新北市中和區中正路637巷60弄61號","121.485426666667","24.9931083333333","6500300","中和區"
"235015","376-QA","2017/06/17 13:19:05","新北市中和區仁愛街3號","121.510593333333","24.98946","6500300","中和區"
"235032","377-QA","2017/06/17 02:21:38","新北市中和區員山路36巷16-3號","121.485191666667","24.991135","6500300","中和區"
"235025","378-QA","2017/06/17 13:19:04","新北市中和區民德路258號","121.468043333333","24.9969183333333","6500300","中和區"
"235014","4979-A6","2017/06/17 13:19:02","新北市中和區捷運路61巷6號","121.508788333333","24.9895233333333","6500300","中和區"
"235006","551-UM","2017/06/17 13:19:03","新北市中和區大智街55巷31號","121.520453333333","24.9928383333333","6500300","中和區"
"235034","558-UM","2017/06/17 13:18:58","新北市中和區中正路450號","121.49083","24.99386","6500300","中和區"
"235009","565-BX","2017/06/17 13:19:11","新北市中和區中正路273號","121.495683333333","24.9936316666667","6500300","中和區"
"235018","640-BX","2017/06/17 13:19:06","新北市中和區民德路93號","121.469375","25.0011033333333","6500300","中和區"
"235011","732-UM","2017/06/17 13:19:08","新北市中和區建八路1號","121.485433333333","24.99864","6500300","中和區"
"235035","783-BX","2017/06/17 13:18:53","新北市中和區永和路458巷1弄22號","121.48341","25.0125666666667","6500300","中和區"
"235026","800-TS","2017/06/17 13:19:01","新北市中和區景平路999巷1號","121.49543","25.0059883333333","6500300","中和區"
"235021","801-TS","2017/06/17 13:19:02","新北市中和區建一路179號","121.488288333333","24.9986216666667","6500300","中和區"
"235016","805-TS","2017/06/17 13:18:56","新北市中和區南山路287號","121.504275","24.9921866666667","6500300","中和區"
"235012","896-TW","2017/06/17 13:19:07","新北市中和區員山路36巷16-2號","121.48523","24.9914566666667","6500300","中和區"
"235005","157-BY","2017/06/17 13:18:54","新北市中和區景安路71號","121.506813333333","24.9976483333333","6500300","中和區"
"235001","AAC-213","2017/06/17 13:19:10","新北市中和區景平路149號","121.51381","24.9920616666667","6500300","中和區"
"235023","AAC-215","2017/06/17 13:19:09","新北市中和區員山路36巷16-3號","121.485063333333","24.9913133333333","6500300","中和區"
"228005","097-TW","2017/06/17 13:19:00","新北市貢寮區美豐里丹裡街10號","121.917091666667","25.0555733333333","6502600","貢寮區"
"228004","212-TW","2017/06/17 13:19:08","新北市貢寮區吉林里內寮街21號","121.900645","24.9825116666667","6502600","貢寮區"
"208004","AAC-292","2017/06/17 13:19:10","新北市金山區南勢湖86號","121.607381666667","25.2098866666667","6502700","金山區"
"207002","749-BX","2017/06/17 13:19:05","新北市萬里區崁腳里崁腳路167號","121.645273333333","25.1559566666667","6502800","萬里區"
"207001","463-BY","2017/06/17 13:19:03","新北市萬里區龜吼里玉田路29號","121.681135","25.194855","6502800","萬里區"
"252005","073-UM","2017/06/17 13:19:04","新北市三芝區八賢里八連溪43-1號","121.513765","25.2361633333333","6502100","三芝區"
"236006","498-BY","2017/06/17 13:18:56","新北市土城區大安路159號","121.433295","24.9707666666667","6501300","土城區"
"238021","311-TH","2017/06/17 13:19:07","新北市樹林區八德街862-1號","121.391718333333","24.9686283333333","6500700","樹林區"
"221032","280-BY","2017/06/17 13:19:08","新北市汐止區連興街62號","121.65403","25.0633783333333","6501100","汐止區"
"221002","753-BX","2017/06/17 13:18:50","新北市汐止區福德一路392巷31號","121.626688333333","25.0622116666667","6501100","汐止區"
"220016","255-TC","2017/06/17 12:10:04","新北市板橋區民生路二段36-1號","121.472493333333","25.0165966666667","6500100","板橋區"
"220011","609-BX","2017/06/17 13:18:58","新北市板橋區民生路二段22號","121.472691666667","25.0166466666667","6500100","板橋區"
"220002","741-BX","2017/06/17 13:19:00","新北市板橋區民生路二段22號","121.472718333333","25.0165633333333","6500100","板橋區"
