"lineid","car","time","location","longitude","latitude","cityid","cityname"
"234028","746-BX","2017/06/17 14:49:02","新北市五股區中興路三段5號","121.449385","25.0795783333333","6500400","永和區"
"234025","9371-KE","2017/06/17 14:48:58","新北市永和區雙和街23號","121.509226666667","25.002135","6500400","永和區"
"248017","225-UY","2017/06/17 14:16:44","新北市五股區壟路16號","121.415473333333","25.0855083333333","6501500","五股區"
"234066","AAC-212","2017/06/17 14:49:06","新北市中和區永和路220巷34號","121.49128","25.0086833333333","6500400","永和區"
"231001","001-UM","2017/06/17 14:49:10","新北市新店區三民路43號","121.53717","24.9708666666667","6500600","新店區"
"231002","002-UM","2017/06/17 14:49:11","新北市新店區民權路89號","121.537746666667","24.9829033333333","6500600","新店區"
"231025","0291-UT","2017/06/17 14:48:58","新北市新店區民族路100號","121.539228333333","24.9780716666667","6500600","新店區"
"231028","046-UY","2017/06/17 14:49:05","新北市新店區安德街169號","121.5086","24.959195","6500600","新店區"
"231030","047-UY","2017/06/17 14:49:06","新北市新店區安民街339號","121.51692","24.9748733333333","6500600","新店區"
"231029","106-UY","2017/06/17 14:48:54","新北市新店區錦秀路11巷64號","121.480766666667","24.9436283333333","6500600","新店區"
"231018","107-UY","2017/06/17 14:49:04","新北市新店區中央路155號","121.529871666667","24.9727733333333","6500600","新店區"
"231012","108-UY","2017/06/17 14:49:07","新北市新店區寶橋路59-1號","121.545248333333","24.974805","6500600","新店區"
"231020","187-VK","2017/06/17 14:49:09","新北市新店區金興路12-1號","121.550545","24.929005","6500600","新店區"
"231026","256-BX","2017/06/17 14:48:55","新北市新店區安康路一段355-3號","121.51976","24.961835","6500600","新店區"
"231034","268-BY","2017/06/17 14:49:05","新北市新店區安康路二段341巷3號","121.497421666667","24.9554983333333","6500600","新店區"
"231017","AAD-862","2017/06/17 14:48:59","新北市新店區北宜路三段183號","121.586771666667","24.952725","6500600","新店區"
"231027","3712-VJ","2017/06/17 14:48:52","新北市新店區中正路278號","121.538788333333","24.97376","6500600","新店區"
"231036","512-UM","2017/06/17 14:49:04","新北市新店區安祥路104-1號","121.480438333333","24.962385","6500600","新店區"
"231023","513-UM","2017/06/17 14:48:58","新北市新店區檳榔路109號","121.544453333333","24.96159","6500600","新店區"
"231035","515-UM","2017/06/17 14:49:00","新北市新店區安樂街12號","121.520678333333","24.973485","6500600","新店區"
"231006","617-UM","2017/06/17 14:48:53","新北市新店區北宜路二段2號","121.547586666667","24.95188","6500600","新店區"
"231003","641-BX","2017/06/17 14:48:51","新北市新店區中正路2號","121.5459","24.9693966666667","6500600","新店區"
"231039","718-UY","2017/06/17 14:49:08","新北市新店區安康路一段355號","121.520106666667","24.9636883333333","6500600","新店區"
"231013","719-UM","2017/06/17 14:49:03","新北市新店區北新路二段97巷9弄17號","121.542173333333","24.97375","6500600","新店區"
"231033","720-UM","2017/06/17 14:49:01","新北市新店區安泰路7巷16號","121.485643333333","24.9508416666667","6500600","新店區"
"231005","897-TW","2017/06/17 14:49:05","新北市新店區復興路2號","121.532388333333","24.988265","6500600","新店區"
"231004","899-TW","2017/06/17 14:49:02","新北市新店區民族路91號","121.538693333333","24.977695","6500600","新店區"
"231037","AKT-0513","2017/06/17 14:49:00","新北市新店區安德街116巷26弄3號","121.508931666667","24.9620016666667","6500600","新店區"
"235030","003-UY","2017/06/17 14:49:06","新北市中和區中和路194號","121.505188333333","24.999685","6500300","中和區"
"235017","031-BX","2017/06/17 14:49:04","新北市中和區仁愛街128號","121.511848333333","24.9866433333333","6500300","中和區"
"235020","096-UM","2017/06/17 14:49:07","新北市中和區中山路三段114巷11號","121.47576","25.0075466666667","6500300","中和區"
"235003","097-UM","2017/06/17 14:48:53","新北市中和區宜安路61號","121.511523333333","24.9969283333333","6500300","中和區"
"235029","098-UM","2017/06/17 14:48:52","新北市中和區莊敬路29號","121.500236666667","25.0046683333333","6500300","中和區"
"235004","150-BY","2017/06/17 14:48:56","新北市中和區安平路59號","121.509536666667","24.9950883333333","6500300","中和區"
"235022","151-BY","2017/06/17 14:49:03","新北市中和區員山路146巷1號","121.481546666667","24.9968533333333","6500300","中和區"
"235019","183-VK","2017/06/17 14:49:04","新北市中和區民生街53號","121.469648333333","25.0051583333333","6500300","中和區"
"235002","185-VK","2017/06/17 14:48:53","新北市中和區自立路117巷4弄5號","121.522765","24.99424","6500300","中和區"
"235013","186-VK","2017/06/17 14:48:58","新北市中和區景平路552號","121.50228","24.99483","6500300","中和區"
"235031","255-BX","2017/06/17 14:49:09","新北市中和區新生街188號","121.483713333333","24.9996616666667","6500300","中和區"
"235008","293-VK","2017/06/17 14:49:02","新北市中和區捷運路155號","121.506465","24.9910716666667","6500300","中和區"
"235036","301-VK","2017/06/17 14:48:49","新北市中和區板南路335號","121.49424","24.99791","6500300","中和區"
"235007","352-BY","2017/06/17 14:49:09","新北市中和區安和路17號","121.511156666667","24.993865","6500300","中和區"
"235015","376-QA","2017/06/17 14:49:05","新北市中和區中興街180巷52弄3號","121.49856","24.9883083333333","6500300","中和區"
"235032","377-QA","2017/06/17 14:49:07","新北市中和區福祥路71號","121.499186666667","25.0050216666667","6500300","中和區"
"235025","378-QA","2017/06/17 14:49:04","新北市中和區員山路263號","121.481235","24.999215","6500300","中和區"
"235014","4979-A6","2017/06/17 14:49:02","新北市中和區景平路241巷82弄2號","121.507308333333","24.9919983333333","6500300","中和區"
"235006","551-UM","2017/06/17 14:49:03","新北市中和區安平路62-1號","121.510491666667","24.995955","6500300","中和區"
"235034","558-UM","2017/06/17 14:48:59","新北市中和區連勝街33號","121.49835","24.997875","6500300","中和區"
"235018","640-BX","2017/06/17 14:49:06","新北市中和區莒光路63號","121.472301666667","25.0039583333333","6500300","中和區"
"235024","647-TV","2017/06/17 14:49:11","新北市中和區中山路二段523巷37號","121.48232","25.0033283333333","6500300","中和區"
"235011","732-UM","2017/06/17 14:48:48","新北市中和區捷運路125號","121.507205","24.9905666666667","6500300","中和區"
"235035","783-BX","2017/06/17 14:48:53","新北市中和區連城路469巷73號","121.48348","24.99412","6500300","中和區"
"235026","800-TS","2017/06/17 14:49:01","新北市中和區中山路二段349號","121.491638333333","25.0028533333333","6500300","中和區"
"235021","801-TS","2017/06/17 14:49:02","新北市中和區員山路150-30號","121.481356666667","24.99825","6500300","中和區"
"235016","805-TS","2017/06/17 14:48:56","新北市中和區興南路二段117巷17號","121.50588","24.9839066666667","6500300","中和區"
"235012","896-TW","2017/06/17 14:49:06","新北市中和區忠孝街99-3號","121.512101666667","24.986205","6500300","中和區"
"235017","900-TW","2017/06/17 14:49:04","新北市中和區國光街215巷29號","121.467276666667","25.0004733333333","6500300","中和區"
"235005","157-BY","2017/06/17 14:48:53","新北市中和區景安路2號","121.507876666667","24.9991666666667","6500300","中和區"
"235001","AAC-213","2017/06/17 14:49:10","新北市中和區自立路15巷2號","121.522568333333","24.9959983333333","6500300","中和區"
"235023","AAC-215","2017/06/17 14:49:09","新北市中和區圓通路305巷5弄42號","121.494768333333","24.99027","6500300","中和區"
"220013","072-UY","2017/06/17 14:48:54","新北市板橋區民族路270巷47號","121.469211666667","25.0057366666667","6500100","板橋區"
"220034","073-UY","2017/06/17 14:49:03","新北市板橋區國光路31號","121.457145","25.01759","6500100","板橋區"
"220105","075-UY","2017/06/17 14:49:11","新北市板橋區文化路二段620號","121.47837","25.03568","6500100","板橋區"
"220017","AAD-861","2017/06/17 14:48:54","新北市板橋區縣民大道一段64巷30號","121.455641666667","25.0034733333333","6500100","板橋區"
"247007","339-TH","2017/06/17 14:48:53","新北市蘆洲區中山一路267號","121.472555","25.0799733333333","6501400","蘆洲區"
"247001","336-TH","2017/06/17 14:48:59","新北市蘆洲區長安街307號","121.45785","25.0853916666667","6501400","蘆洲區"
"247015","001-UY","2017/06/17 14:49:01","新北市蘆洲區光華路151號","121.465693333333","25.08201","6501400","蘆洲區"
"228005","097-TW","2017/06/17 14:49:00","新北市貢寮區美豐里雞母嶺街6-6號","121.902083333333","25.0642133333333","6502600","貢寮區"
"228004","212-TW","2017/06/17 14:49:07","新北市貢寮區福隆里裕隆街1號","121.947225","25.0151716666667","6502600","貢寮區"
"208004","AAC-292","2017/06/17 14:48:50","新北市金山區三界壇路13號","121.61905","25.2342516666667","6502700","金山區"
"207002","749-BX","2017/06/17 14:49:05","新北市萬里區崁腳里崁腳路73號","121.647603333333","25.1595716666667","6502800","萬里區"
"207001","463-BY","2017/06/17 14:48:54","新北市萬里區雙興里二坪路10號","121.647425","25.175445","6502800","萬里區"
"252005","073-UM","2017/06/17 14:49:04","新北市三芝區橫山里大坑23-5號","121.523703333333","25.2554983333333","6502100","三芝區"
"236068","105-UM","2017/06/17 14:49:01","新北市土城區明德路一段101號","121.465551666667","24.98283","6501300","土城區"
"236041","107-UM","2017/06/17 14:48:59","新北市土城區裕民路92巷25弄1號","121.449671666667","24.9860683333333","6501300","土城區"
"236075","166-UM","2017/06/17 14:48:54","新北市土城區中央路四段185巷53號","121.416543333333","24.955755","6501300","土城區"
"236029","253-BX","2017/06/17 14:48:59","新北市土城區忠義路26巷19號","121.439815","24.9698416666667","6501300","土城區"
"236025","269-VK","2017/06/17 14:49:06","新北市土城區慶安街62號","121.440883333333","24.9730483333333","6501300","土城區"
"236013","270-VK","2017/06/17 14:48:54","新北市土城區金城路二段356號","121.461741666667","24.9851033333333","6501300","土城區"
"236035","271-VK","2017/06/17 14:49:06","新北市土城區明德路一段235巷13弄2號","121.463356666667","24.977595","6501300","土城區"
"236017","401-BY","2017/06/17 14:48:53","新北市土城區延吉街253巷17號","121.468001666667","24.98418","6501300","土城區"
"236057","912-UM","2017/06/17 14:49:07","新北市土城區金城路一段150-1號","121.446075","24.9747083333333","6501300","土城區"
"236045","913-UM","2017/06/17 14:49:06","新北市土城區廣福街68巷18弄1號","121.459461666667","24.9904866666667","6501300","土城區"
"236061","915-UM","2017/06/17 14:49:02","新北市土城區延壽路11號","121.471291666667","24.9905233333333","6501300","土城區"
"236054","AAC-216","2017/06/17 14:48:54","新北市土城區裕民路169-1號","121.453138333333","24.985085","6501300","土城區"
"220027","145-BY","2017/06/17 14:49:01","新北市板橋區中正路183巷46號","121.454968333333","25.0160083333333","6500100","板橋區"
"220042","146-RM","2017/06/17 14:48:53","新北市板橋區長江路二段57號","121.464593333333","25.03135","6500100","板橋區"
"220028","200-UY","2017/06/17 14:48:32","新北市板橋區大觀路二段37巷61號","121.449526666667","25.0025166666667","6500100","板橋區"
"220030","610-BX","2017/06/17 14:49:07","新北市板橋區大觀路三段160巷34弄2號","121.43008","24.994005","6500100","板橋區"
"220050","245-BX","2017/06/17 14:49:09","新北市板橋區莊敬路234號","121.473298333333","25.0214133333333","6500100","板橋區"
"220016","255-TC","2017/06/17 12:10:04","新北市板橋區民生路二段36-1號","121.472493333333","25.0165966666667","6500100","板橋區"
"220039","257-TC","2017/06/17 14:49:08","新北市板橋區綠堤街45號","121.455385","25.025975","6500100","板橋區"
"220043","267-BY","2017/06/17 14:49:06","新北市板橋區溪頭街76號","121.458576666667","25.0295816666667","6500100","板橋區"
"220020","277-BY","2017/06/17 14:49:06","新北市板橋區金門街215巷35號","121.433191666667","24.9897366666667","6500100","板橋區"
"220012","280-UM","2017/06/17 14:49:12","新北市板橋區實踐路76-2號","121.463888333333","25.0055466666667","6500100","板橋區"
"220019","283-VK","2017/06/17 14:49:03","新北市板橋區信義路279巷21號","121.464346666667","24.9902166666667","6500100","板橋區"
"220038","285-UM","2017/06/17 14:49:02","新北市板橋區龍泉街131號","121.457425","25.0239466666667","6500100","板橋區"
"220001","285-VK","2017/06/17 14:48:57","新北市板橋區中山路二段60巷1弄23號","121.475041666667","25.0157416666667","6500100","板橋區"
"220031","286-VK","2017/06/17 14:49:00","新北市板橋區龍興街65巷2號","121.443691666667","25.00145","6500100","板橋區"
"220029","287-VK","2017/06/17 14:49:03","新北市板橋區大觀路一段31號","121.450048333333","25.0083666666667","6500100","板橋區"
"220009","293-UM","2017/06/17 14:49:05","新北市板橋區觀光街1巷13號","121.471838333333","25.01531","6500100","板橋區"
"220032","296-UM","2017/06/17 14:49:02","新北市板橋區溪崑二街136號","121.425936666667","24.9876383333333","6500100","板橋區"
"220023","297-UM","2017/06/17 14:49:02","新北市板橋區大勇街10巷2號","121.45391","25.0170166666667","6500100","板橋區"
"220046","299-UM","2017/06/17 14:49:08","新北市板橋區文化路一段285巷36號","121.463528333333","25.0195533333333","6500100","板橋區"
"220004","303-R5","2017/06/17 14:49:01","新北市板橋區四川路二段60號","121.452661666667","24.99488","6500100","板橋區"
"220010","305-R5","2017/06/17 14:49:01","新北市板橋區光復街33巷9號","121.481865","25.019","6500100","板橋區"
"220041","307-R5","2017/06/17 14:49:05","新北市板橋區四維路231號","121.463725","25.0274333333333","6500100","板橋區"
"220047","317-R6","2017/06/17 14:49:02","新北市板橋區裕民街93巷4號","121.460411666667","25.0277633333333","6500100","板橋區"
"220037","491-VK","2017/06/17 14:48:12","新北市板橋區仁化街182號","121.47851","25.0339433333333","6500100","板橋區"
"220104","560-BX","2017/06/17 14:48:59","新北市板橋區新生街29巷15弄5號","121.456275","25.021905","6500100","板橋區"
"220052","561-BX","2017/06/17 14:49:11","新北市板橋區陽明街29巷11號","121.464893333333","25.0218916666667","6500100","板橋區"
"220011","609-BX","2017/06/17 14:48:59","新北市板橋區中山路二段326號","121.480905","25.0196433333333","6500100","板橋區"
"220040","637-BX","2017/06/17 14:49:11","新北市板橋區懷德街133號","121.479081666667","25.0305683333333","6500100","板橋區"
"220005","686-BX","2017/06/17 14:48:59","新北市板橋區和平路安樂巷36號","121.461736666667","24.9933833333333","6500100","板橋區"
"220025","687-BX","2017/06/17 14:48:52","新北市板橋區僑中一街104號","121.446568333333","25.011695","6500100","板橋區"
"220002","741-BX","2017/06/17 14:49:00","新北市板橋區忠孝路忠義巷15弄96號","121.465401666667","25.0057766666667","6500100","板橋區"
"220003","827-TW","2017/06/17 14:48:58","新北市板橋區仁愛路62巷17弄1號","121.46004","24.9981833333333","6500100","板橋區"
"220014","829-TW","2017/06/17 14:48:59","新北市板橋區長安街331巷93弄9號","121.472153333333","25.012415","6500100","板橋區"
"220051","830-TW","2017/06/17 14:49:09","新北市板橋區仁化街5號","121.474731666667","25.031735","6500100","板橋區"
"220045","831-TW","2017/06/17 14:48:57","新北市板橋區民生路二段226巷31弄2號","121.471181666667","25.0221516666667","6500100","板橋區"
"220022","895-R6","2017/06/17 14:49:05","新北市板橋區府後街1巷10號","121.459425","25.0110133333333","6500100","板橋區"
"220021","985-R7","2017/06/17 14:49:01","新北市板橋區大仁街105號","121.45272","25.0156716666667","6500100","板橋區"
"220018","AAC-253","2017/06/17 14:49:04","新北市板橋區民族路214號","121.468456666667","25.00748","6500100","板橋區"
