"lineid","car","time","location","longitude","latitude","cityid","cityname"
"234028","746-BX","2017/06/17 14:59:01","新北市八里區商港路120號","121.392833333333","25.1500866666667","6500400","永和區"
"234025","9371-KE","2017/06/17 14:58:58","新北市永和區水源街33巷5號","121.510846666667","25.00415","6500400","永和區"
"248017","225-UY","2017/06/17 14:16:44","新北市五股區壟路16號","121.415473333333","25.0855083333333","6501500","五股區"
"231001","001-UM","2017/06/17 14:58:55","新北市新店區中正路255號","121.53892","24.973525","6500600","新店區"
"231002","002-UM","2017/06/17 14:59:11","新北市新店區中正路501-5號","121.533645","24.9839066666667","6500600","新店區"
"231025","0291-UT","2017/06/17 14:58:58","新北市新店區大同街17號","121.539045","24.9803383333333","6500600","新店區"
"231028","046-UY","2017/06/17 14:59:05","新北市新店區安豐路46號","121.500073333333","24.9549533333333","6500600","新店區"
"231030","047-UY","2017/06/17 14:59:06","新北市新店區安民街339號","121.516961666667","24.9748233333333","6500600","新店區"
"231029","106-UY","2017/06/17 14:58:54","新北市新店區錦秀路33號","121.479241666667","24.9438733333333","6500600","新店區"
"231018","107-UY","2017/06/17 14:59:04","新北市新店區中央六街8號","121.530135","24.9744483333333","6500600","新店區"
"231012","108-UY","2017/06/17 14:59:07","新北市新店區中興路二段252號","121.547463333333","24.9759133333333","6500600","新店區"
"231020","187-VK","2017/06/17 14:58:49","新北市新店區永福路54號","121.558081666667","24.9287","6500600","新店區"
"231026","256-BX","2017/06/17 14:58:55","新北市新店區中正路111號","121.54247","24.9705466666667","6500600","新店區"
"231034","268-BY","2017/06/17 14:59:05","新北市新店區玫瑰路4-1號","121.493591666667","24.9513633333333","6500600","新店區"
"231017","AAD-862","2017/06/17 14:58:59","新北市新店區銀河路75號","121.578618333333","24.95815","6500600","新店區"
"231036","512-UM","2017/06/17 14:59:04","新北市新店區安祥路102巷46弄89號","121.487285","24.963195","6500600","新店區"
"231023","513-UM","2017/06/17 14:58:58","新北市新店區檳榔路109號","121.544495","24.9615283333333","6500600","新店區"
"231035","515-UM","2017/06/17 14:59:00","新北市新店區新和街59巷17號","121.519236666667","24.9859766666667","6500600","新店區"
"231006","617-UM","2017/06/17 14:58:53","新北市新店區中興路一段168號","121.542836666667","24.9643233333333","6500600","新店區"
"231003","641-BX","2017/06/17 14:58:51","新北市新店區中興路二段224號","121.547931666667","24.975075","6500600","新店區"
"231039","718-UY","2017/06/17 14:59:08","新北市新店區北新路二段96號","121.542976666667","24.9731266666667","6500600","新店區"
"231033","720-UM","2017/06/17 14:59:01","新北市新店區安泰路60巷67號","121.484081666667","24.9449766666667","6500600","新店區"
"231005","897-TW","2017/06/17 14:59:06","新北市新店區順安街74號","121.541158333333","24.9866783333333","6500600","新店區"
"231004","899-TW","2017/06/17 14:59:10","新北市新店區民族路41號","121.540633333333","24.9787066666667","6500600","新店區"
"231037","AKT-0513","2017/06/17 14:59:00","新北市新店區安民街241號","121.517221666667","24.9721183333333","6500600","新店區"
"235030","003-UY","2017/06/17 14:59:06","新北市中和區光華街7號","121.504381666667","25.0043716666667","6500300","中和區"
"235017","031-BX","2017/06/17 14:59:04","新北市中和區興南路一段93巷53號","121.510183333333","24.9873716666667","6500300","中和區"
"235020","096-UM","2017/06/17 14:59:07","新北市中和區中山路三段136巷10弄2號","121.474166666667","25.0069033333333","6500300","中和區"
"235003","097-UM","2017/06/17 14:58:53","新北市中和區安樂路189-1號","121.514753333333","24.9982033333333","6500300","中和區"
"235029","098-UM","2017/06/17 14:58:52","新北市中和區福美路245號","121.499205","25.005205","6500300","中和區"
"235004","150-BY","2017/06/17 14:58:56","新北市中和區保健路19巷2弄1號","121.508396666667","24.998475","6500300","中和區"
"235022","151-BY","2017/06/17 14:59:07","新北市中和區員山路148巷9號","121.481758333333","24.9971316666667","6500300","中和區"
"235019","183-VK","2017/06/17 14:59:04","新北市中和區德光路80號","121.469101666667","25.0036466666667","6500300","中和區"
"235002","185-VK","2017/06/17 14:58:53","新北市中和區自強路56號","121.520108333333","24.9947033333333","6500300","中和區"
"235013","186-VK","2017/06/17 14:58:58","新北市中和區景平路385巷85號","121.500971666667","24.99428","6500300","中和區"
"235031","255-BX","2017/06/17 14:59:09","新北市中和區新生街220巷19號","121.482795","24.9984383333333","6500300","中和區"
"235008","293-VK","2017/06/17 14:59:02","新北市中和區興南路一段146號","121.50842","24.987","6500300","中和區"
"235036","301-VK","2017/06/17 14:58:49","新北市中和區中正路416號","121.491908333333","24.9940866666667","6500300","中和區"
"235007","352-BY","2017/06/17 14:59:04","新北市中和區興南路二段159巷7號","121.505276666667","24.9830816666667","6500300","中和區"
"235015","376-QA","2017/06/17 14:59:05","新北市中和區復興路299號","121.501521666667","24.9901466666667","6500300","中和區"
"235032","377-QA","2017/06/17 14:59:07","新北市中和區中山路二段257號","121.49748","25.00241","6500300","中和區"
"235014","4979-A6","2017/06/17 14:59:02","新北市中和區景平路155號","121.513556666667","24.9922183333333","6500300","中和區"
"235006","551-UM","2017/06/17 14:59:03","新北市新店區安和路三段1-1號","121.517281666667","24.9796716666667","6500300","中和區"
"235034","558-UM","2017/06/17 14:58:59","新北市中和區連勝街39號","121.498166666667","24.9976783333333","6500300","中和區"
"235018","640-BX","2017/06/17 14:59:06","新北市中和區莒光路213-3號","121.468661666667","24.9944","6500300","中和區"
"235024","647-TV","2017/06/17 14:58:51","新北市中和區員山路463號","121.480456666667","25.0044583333333","6500300","中和區"
"235011","732-UM","2017/06/17 14:59:08","新北市中和區和平街97-1號","121.505275","24.9922083333333","6500300","中和區"
"235026","800-TS","2017/06/17 14:59:01","新北市中和區永和路103巷21號","121.494813333333","25.00672","6500300","中和區"
"235016","805-TS","2017/06/17 14:58:56","新北市中和區華新街144巷18號","121.507575","24.9831333333333","6500300","中和區"
"235012","896-TW","2017/06/17 14:59:06","新北市中和區忠孝街1巷2-1號","121.50915","24.9830316666667","6500300","中和區"
"235017","900-TW","2017/06/17 14:59:04","新北市中和區國光街215巷9-2號","121.466568333333","25.0014166666667","6500300","中和區"
"235001","AAC-213","2017/06/17 14:58:49","新北市中和區秀朗路三段24號","121.526483333333","24.9964233333333","6500300","中和區"
"235023","AAC-215","2017/06/17 14:59:09","新北市中和區圓通路333號","121.491988333333","24.990465","6500300","中和區"
"220013","072-UY","2017/06/17 14:58:53","新北市板橋區海山路27號","121.46776","25.00901","6500100","板橋區"
"220034","073-UY","2017/06/17 14:59:03","新北市板橋區南雅西路二段36號","121.45291","25.0099616666667","6500100","板橋區"
"220105","075-UY","2017/06/17 14:59:11","新北市板橋區民治街71巷1弄5號","121.480191666667","25.0327716666667","6500100","板橋區"
"220017","AAD-861","2017/06/17 14:58:54","新北市板橋區南雅南路二段11-29號","121.453788333333","25.0015066666667","6500100","板橋區"
"228005","097-TW","2017/06/17 14:59:00","新北市貢寮區美豐里雞母嶺街6-6號","121.902061666667","25.0642033333333","6502600","貢寮區"
"228004","212-TW","2017/06/17 14:59:07","新北市貢寮區福隆里興隆街21-2號","121.933903333333","25.0186116666667","6502600","貢寮區"
"227010","400-TW","2017/06/17 14:58:52","新北市雙溪區三貂里政光路3-1號","121.85094","25.063085","6502500","雙溪區"
"208004","AAC-292","2017/06/17 14:59:10","新北市金山區法鼓路555號","121.613916666667","25.2393516666667","6502700","金山區"
"207002","749-BX","2017/06/17 14:59:04","新北市萬里區崁腳里崁腳路42號","121.651701666667","25.1611516666667","6502800","萬里區"
"207001","463-BY","2017/06/17 14:57:34","新北市萬里區雙興里麗水路3-2號","121.652776666667","25.1825066666667","6502800","萬里區"
"252005","073-UM","2017/06/17 14:59:04","新北市三芝區埔坪里埔頭坑80號","121.509833333333","25.2539533333333","6502100","三芝區"
"236068","105-UM","2017/06/17 14:59:01","新北市土城區明德路二段213號","121.446233333333","24.9838","6501300","土城區"
"236041","107-UM","2017/06/17 14:58:59","新北市土城區學府路一段258號","121.451303333333","24.9844966666667","6501300","土城區"
"236075","166-UM","2017/06/17 14:58:57","新北市土城區中央路四段125巷2弄17-1號","121.416365","24.95678","6501300","土城區"
"236029","253-BX","2017/06/17 14:58:59","新北市土城區慶利街17號","121.439268333333","24.97389","6501300","土城區"
"236025","269-VK","2017/06/17 14:59:11","新北市土城區中正路74巷2弄1號","121.444673333333","24.9750116666667","6501300","土城區"
"236013","270-VK","2017/06/17 14:58:54","新北市土城區永豐路31巷2號","121.462916666667","24.9881366666667","6501300","土城區"
"236035","271-VK","2017/06/17 14:59:06","新北市土城區仁愛路54巷18號","121.461611666667","24.9783","6501300","土城區"
"236017","401-BY","2017/06/17 14:58:54","新北市土城區金城路三段116巷11弄3號","121.467428333333","24.9869766666667","6501300","土城區"
"236057","912-UM","2017/06/17 14:59:07","新北市土城區金城路二段200號","121.454753333333","24.9816733333333","6501300","土城區"
"236045","913-UM","2017/06/17 14:59:01","新北市土城區青雲路315號","121.458965","24.9789283333333","6501300","土城區"
"236061","915-UM","2017/06/17 14:59:02","新北市土城區延和路41巷2弄2號","121.465996666667","24.9896966666667","6501300","土城區"
"236054","AAC-216","2017/06/17 14:58:54","新北市土城區學成路162號","121.448091666667","24.9891416666667","6501300","土城區"
"221002","707-TV","2017/06/17 14:59:05","新北市汐止區莊敬街33-1號","121.65686","25.0610033333333","6501100","汐止區"
"220027","145-BY","2017/06/17 14:59:01","新北市板橋區南雅西路二段145巷10號","121.451733333333","25.01194","6500100","板橋區"
"220042","146-RM","2017/06/17 14:58:53","新北市板橋區長江路三段52號","121.473265","25.0339066666667","6500100","板橋區"
"220028","200-UY","2017/06/17 14:50:35","新北市板橋區大觀路二段37巷29號","121.448268333333","25.0026766666667","6500100","板橋區"
"220030","610-BX","2017/06/17 14:59:07","新北市板橋區溪崑二街33號","121.428523333333","24.9911216666667","6500100","板橋區"
"220050","245-BX","2017/06/17 14:59:09","新北市板橋區縣民大道三段91號","121.475751666667","25.02191","6500100","板橋區"
"220016","255-TC","2017/06/17 12:10:04","新北市板橋區民生路二段36-1號","121.472493333333","25.0165966666667","6500100","板橋區"
"220039","257-TC","2017/06/17 14:59:08","新北市板橋區幸福路32巷2弄31號","121.460941666667","25.021855","6500100","板橋區"
"220043","267-BY","2017/06/17 14:54:49","新北市板橋區新海路135巷5號","121.460466666667","25.023375","6500100","板橋區"
"220020","277-BY","2017/06/17 14:59:06","新北市板橋區篤行路二段77巷1號","121.432021666667","24.991845","6500100","板橋區"
"220012","280-UM","2017/06/17 14:58:52","新北市板橋區漢生東路280號","121.47065","25.010035","6500100","板橋區"
"220019","283-VK","2017/06/17 14:59:02","新北市板橋區五權街30巷26-2號","121.463948333333","24.9931233333333","6500100","板橋區"
"220038","285-UM","2017/06/17 14:59:01","新北市板橋區龍泉街108巷138號","121.456298333333","25.0238616666667","6500100","板橋區"
"220001","285-VK","2017/06/17 14:58:57","新北市板橋區永豐街67號","121.473853333333","25.0185916666667","6500100","板橋區"
"220031","286-VK","2017/06/17 14:59:00","新北市板橋區僑中二街10巷14號","121.446406666667","25.01104","6500100","板橋區"
"220029","287-VK","2017/06/17 14:59:03","新北市板橋區僑中一街80巷12弄2號","121.448056666667","25.0130266666667","6500100","板橋區"
"220009","293-UM","2017/06/17 14:59:05","新北市板橋區民生路二段17號","121.472433333333","25.01638","6500100","板橋區"
"220032","296-UM","2017/06/17 14:59:03","新北市板橋區溪崑二街103巷12號","121.42705","24.988765","6500100","板橋區"
"220023","297-UM","2017/06/17 14:59:02","新北市板橋區金華街10巷48弄3號","121.457191666667","25.0198483333333","6500100","板橋區"
"220046","299-UM","2017/06/17 14:59:05","新北市板橋區光正街45巷29號","121.461646666667","25.016035","6500100","板橋區"
"220010","305-R5","2017/06/17 14:59:01","新北市板橋區中山路二段494號","121.485545","25.02221","6500100","板橋區"
"220041","307-R5","2017/06/17 14:59:05","新北市板橋區裕民街133巷1號","121.459186666667","25.02708","6500100","板橋區"
"220047","317-R6","2017/06/17 14:59:02","新北市板橋區新海路392號","121.458878333333","25.0264883333333","6500100","板橋區"
"220037","491-VK","2017/06/17 14:57:52","新北市板橋區文聖街138號","121.47851","25.0280333333333","6500100","板橋區"
"220052","561-BX","2017/06/17 14:58:51","新北市板橋區自由路40號","121.465665","25.0231983333333","6500100","板橋區"
"220011","609-BX","2017/06/17 14:59:06","新北市板橋區三民路一段89號","121.479451666667","25.0216533333333","6500100","板橋區"
"220040","637-BX","2017/06/17 14:59:00","新北市板橋區懷德街174巷28號","121.478251666667","25.0292133333333","6500100","板橋區"
"220005","686-BX","2017/06/17 14:58:59","新北市板橋區信義路201號","121.45921","24.991615","6500100","板橋區"
"220025","687-BX","2017/06/17 14:59:12","新北市板橋區僑中一街124巷20弄1號","121.446195","25.0141083333333","6500100","板橋區"
"220002","741-BX","2017/06/17 14:59:02","新北市板橋區實踐路93巷55號","121.466893333333","25.0048333333333","6500100","板橋區"
"220003","827-TW","2017/06/17 14:58:58","新北市板橋區仁愛路88號","121.461","24.9996216666667","6500100","板橋區"
"220014","829-TW","2017/06/17 14:59:03","新北市板橋區中山路一段206巷56號","121.471596666667","25.0130083333333","6500100","板橋區"
"220051","830-TW","2017/06/17 14:59:09","新北市板橋區懷德街66巷22號","121.476831666667","25.0319916666667","6500100","板橋區"
"220045","831-TW","2017/06/17 14:58:57","新北市板橋區莒光路40巷9號","121.470376666667","25.0236183333333","6500100","板橋區"
"220022","895-R6","2017/06/17 14:59:01","新北市板橋區南雅南路一段7巷22弄11號","121.455658333333","25.0045466666667","6500100","板橋區"
"220021","985-R7","2017/06/17 14:59:01","新北市板橋區南雅西路二段2-1號","121.45319","25.0088083333333","6500100","板橋區"
"220018","AAC-253","2017/06/17 14:59:04","新北市板橋區民族路107號","121.466786666667","25.0082","6500100","板橋區"
