"lineid","car","time","location","longitude","latitude","cityid","cityname"
"249005","172-UM","2017/06/17 16:38:56","新北市八里區挖子尾街6號","121.415483333333","25.16426","6502300","八里區"
"231046","278-BY","2017/06/17 16:39:05","新北市新店區灣潭路60號","121.539448333333","24.9422083333333","6500600","新店區"
"241011","013-R5","2017/06/17 16:38:48","新北市三重區仁愛街43巷37號","121.498191666667","25.0720216666667","6500200","三重區"
"241028","022-UY","2017/06/17 16:38:52","新北市三重區中正南路26號","121.493626666667","25.0602883333333","6500200","三重區"
"241008","059-VK","2017/06/17 16:38:57","新北市三重區永安北路一段27巷17號","121.477093333333","25.0754316666667","6500200","三重區"
"241009","060-VK","2017/06/17 16:39:06","新北市三重區三和路四段203巷63號","121.483523333333","25.0798283333333","6500200","三重區"
"241031","061-VK","2017/06/17 16:38:55","新北市三重區重新路四段35號","121.488183333333","25.0577466666667","6500200","三重區"
"241015","062-VK","2017/06/17 16:39:00","新北市三重區文化北路41-1號","121.498846666667","25.06522","6500200","三重區"
"241017","063-VK","2017/06/17 16:39:03","新北市三重區中正北路11號","121.492565","25.0614466666667","6500200","三重區"
"241024","065-VK","2017/06/17 16:38:49","新北市三重區中正北路315巷6弄68號","121.47651","25.0726","6500200","三重區"
"241026","066-VK","2017/06/17 16:39:01","新北市三重區福和街33號","121.501451666667","25.06171","6500200","三重區"
"241002","090-VK","2017/06/17 16:39:05","新北市三重區仁義街245號","121.496116666667","25.0826966666667","6500200","三重區"
"241003","091-VK","2017/06/17 16:38:56","新北市三重區五華街71巷80號","121.493845","25.0837","6500200","三重區"
"241030","156-TC","2017/06/17 16:38:56","新北市三重區環河南路286號","121.488886666667","25.0489816666667","6500200","三重區"
"241005","262-UM","2017/06/17 16:38:55","新北市三重區碧華街165號","121.486895","25.0823416666667","6500200","三重區"
"241013","265-UM","2017/06/17 16:38:47","新北市三重區三和路三段101巷6號","121.494555","25.0726183333333","6500200","三重區"
"241016","266-UM","2017/06/17 16:39:10","新北市三重區自強路一段160巷3弄12號","121.494735","25.0654833333333","6500200","三重區"
"241022","267-UM","2017/06/17 16:38:58","新北市三重區新北大道一段100巷35號","121.485353333333","25.0628216666667","6500200","三重區"
"241018","268-UM","2017/06/17 16:39:04","新北市三重區六張街79號","121.49339","25.0701033333333","6500200","三重區"
"241032","269-UM","2017/06/17 16:39:03","新北市三重區中山路40巷1-1號","121.485746666667","25.0613516666667","6500200","三重區"
"241025","271-UM","2017/06/17 16:39:02","新北市三重區中正北路428巷13號","121.47449","25.0701433333333","6500200","三重區"
"241007","398-BY","2017/06/17 16:39:05","新北市三重區仁美街86號","121.48589","25.0796483333333","6500200","三重區"
"241020","412-TH","2017/06/17 16:38:56","新北市三重區車路頭街66號","121.484323333333","25.0727283333333","6500200","三重區"
"241004","475-VK","2017/06/17 16:39:02","新北市三重區五福街4號","121.493161666667","25.0816883333333","6500200","三重區"
"241019","478-VK","2017/06/17 16:38:59","新北市三重區力行路一段23巷16號","121.488515","25.0675966666667","6500200","三重區"
"241014","543-UM","2017/06/17 16:38:57","新北市三重區龍濱路40號","121.50275","25.0684016666667","6500200","三重區"
"241023","545-UM","2017/06/17 16:39:08","新北市三重區忠孝路三段50巷45號","121.482896666667","25.064375","6500200","三重區"
"241001","547-UM","2017/06/17 16:39:01","新北市三重區仁愛街202號","121.493815","25.0774583333333","6500200","三重區"
"241006","AAD-863","2017/06/17 16:39:02","新北市三重區車路頭街140號","121.483951666667","25.0755733333333","6500200","三重區"
"241012","887-TS","2017/06/17 16:39:06","新北市三重區仁興街3巷46號","121.500896666667","25.0741966666667","6500200","三重區"
"241029","942-UM","2017/06/17 16:39:07","新北市三重區集美街126巷42號","121.490783333333","25.0540683333333","6500200","三重區"
"241033","AAC-255","2017/06/17 16:39:02","新北市三重區光復路90-1號","121.472101666667","25.057755","6500200","三重區"
"235062","800-TS","2017/06/17 16:20:02","新北市中和區員山路36巷16-3號","121.485031666667","24.9913866666667","6500300","中和區"
"247008","339-TH","2017/06/17 16:39:04","新北市蘆洲區永安南路二段232號","121.460566666667","25.0794916666667","6501400","蘆洲區"
"247002","336-TH","2017/06/17 16:39:00","新北市五股區中興路三段163號","121.449403333333","25.0806566666667","6501400","蘆洲區"
"247014","057-VK","2017/06/17 16:39:01","新北市蘆洲區中正路516巷5號","121.460983333333","25.097755","6501400","蘆洲區"
"247004","056-VK","2017/06/17 16:38:57","新北市五股區中興路二段182巷50號","121.455001666667","25.0813616666667","6501400","蘆洲區"
"228003","097-TW","2017/06/17 15:32:33","新北市貢寮區貢寮里朝陽街1-2號","121.912353333333","25.0212383333333","6502600","貢寮區"
"228002","585-TW","2017/06/17 16:38:56","新北市貢寮區貢寮里朝陽街1-2號","121.91228","25.0212933333333","6502600","貢寮區"
"224008","275-VK","2017/06/17 16:38:56","新北市瑞芳區明燈路二段89號","121.809765","25.1082866666667","6501200","瑞芳區"
"224007","273-VK","2017/06/17 16:39:00","新北市瑞芳區月眉路58號","121.760616666667","25.1110833333333","6501200","瑞芳區"
"224005","271-BY","2017/06/17 16:38:52","新北市瑞芳區洞頂路160號","121.860851666667","25.117495","6501200","瑞芳區"
"227002","642-TC","2017/06/17 16:38:49","新北市雙溪區外柑里外柑腳58號","121.807898333333","25.0178066666667","6502500","雙溪區"
"227010","400-TW","2017/06/17 16:38:54","新北市雙溪區牡丹里中正路97號","121.86195","25.0471033333333","6502500","雙溪區"
"251014","180-VK","2017/06/17 16:39:06","新北市淡水區新市一路一段361號","121.436218333333","25.1861616666667","6501000","淡水區"
"251008","181-VK","2017/06/17 16:38:55","新北市淡水區樹梅坑9號","121.47285","25.1425983333333","6501000","淡水區"
"251016","442-VK","2017/06/17 16:39:04","新北市淡水區北新路138號","121.44849","25.1784","6501000","淡水區"
"252005","073-UM","2017/06/17 15:42:02","新北市三芝區埔坪里埔頭坑41號","121.504588333333","25.2644633333333","6502100","三芝區"
"252002","178-VK","2017/06/17 16:38:48","新北市三芝區晴光街1號","121.51039","25.2578883333333","6502100","三芝區"
"252001","292-VK","2017/06/17 16:38:58","新北市三芝區埔坪里埔頭坑41號","121.504526666667","25.264605","6502100","三芝區"
"242044","172-VK","2017/06/17 04:30:52","新北市新莊區三和路12-21號","121.44198","25.03875","6500500","新莊區"
"239003","360-BY","2017/06/17 16:39:05","新北市鶯歌區二甲路12-2號","121.345583333333","24.935015","6500800","鶯歌區"
