"lineid","car","time","location","longitude","latitude","cityid","cityname"
"234011","9373-KE","2017/06/17 16:47:20","新北市永和區福和路1號","121.525673333333","25.0095216666667","6500400","永和區"
"249005","172-UM","2017/06/17 16:48:56","新北市八里區大堀湖2-3號","121.422603333333","25.1538983333333","6502300","八里區"
"249001","173-UM","2017/06/17 16:49:05","新北市八里區挖子尾街6號","121.41546","25.16426","6502300","八里區"
"249004","303-UY","2017/06/17 16:49:03","新北市八里區文昌路101號","121.408563333333","25.15909","6502300","八里區"
"249003","593-UM","2017/06/17 16:49:03","新北市八里區中山路二段249號","121.403013333333","25.1490633333333","6502300","八里區"
"231046","278-BY","2017/06/17 16:49:05","新北市新店區灣潭路29-5號","121.539606666667","24.9386766666667","6500600","新店區"
"241011","013-R5","2017/06/17 16:49:08","新北市三重區仁愛街53巷77號","121.498178333333","25.07232","6500200","三重區"
"241028","022-UY","2017/06/17 16:48:52","新北市三重區光興街91號","121.497403333333","25.0599733333333","6500200","三重區"
"241008","059-VK","2017/06/17 16:48:57","新北市三重區永安北路一段17巷22-4號","121.477158333333","25.0750933333333","6500200","三重區"
"241009","060-VK","2017/06/17 16:49:06","新北市三重區三和路四段203巷237號","121.487096666667","25.0808716666667","6500200","三重區"
"241031","061-VK","2017/06/17 16:48:54","新北市三重區新北大道一段15巷2號","121.488023333333","25.0605283333333","6500200","三重區"
"241015","062-VK","2017/06/17 16:49:00","新北市三重區文化北路47號","121.498901666667","25.0654666666667","6500200","三重區"
"241017","063-VK","2017/06/17 16:48:56","新北市三重區國隆路8巷35號","121.492628333333","25.06345","6500200","三重區"
"241024","065-VK","2017/06/17 16:49:09","新北市三重區中正北路317巷34號","121.476091666667","25.07312","6500200","三重區"
"241026","066-VK","2017/06/17 16:49:01","新北市三重區文化南路17號","121.50004","25.06216","6500200","三重區"
"241002","090-VK","2017/06/17 16:49:05","新北市三重區仁義街241巷10號","121.496591666667","25.0828016666667","6500200","三重區"
"241003","091-VK","2017/06/17 16:48:56","新北市三重區五華街87巷25號","121.49298","25.0839016666667","6500200","三重區"
"241030","156-TC","2017/06/17 16:48:56","新北市三重區中正南路271號","121.492686666667","25.0526266666667","6500200","三重區"
"241005","262-UM","2017/06/17 16:48:55","新北市三重區仁安街37號","121.48433","25.0841166666667","6500200","三重區"
"241013","265-UM","2017/06/17 16:49:07","新北市三重區三和路三段101巷92號","121.497086666667","25.07327","6500200","三重區"
"241016","266-UM","2017/06/17 16:48:50","新北市三重區大同北路117號","121.494138333333","25.0643116666667","6500200","三重區"
"241022","267-UM","2017/06/17 16:48:58","新北市三重區中華路113號","121.48364","25.0635683333333","6500200","三重區"
"241018","268-UM","2017/06/17 16:49:04","新北市三重區安樂街60號","121.49526","25.0694416666667","6500200","三重區"
"241032","269-UM","2017/06/17 16:49:03","新北市三重區三光街47號","121.484211666667","25.0609083333333","6500200","三重區"
"241025","271-UM","2017/06/17 16:49:02","新北市三重區中正北路530巷8號","121.471981666667","25.070915","6500200","三重區"
"241007","398-BY","2017/06/17 16:49:02","新北市三重區三和路四段173號","121.48293","25.0787933333333","6500200","三重區"
"241020","412-TH","2017/06/17 16:48:56","新北市三重區忠孝路二段35號","121.48587","25.07107","6500200","三重區"
"241004","475-VK","2017/06/17 16:49:01","新北市三重區仁愛街423-3號","121.490248333333","25.08158","6500200","三重區"
"241019","478-VK","2017/06/17 16:49:00","新北市三重區力行路一段179巷3號","121.48468","25.0697966666667","6500200","三重區"
"241014","543-UM","2017/06/17 16:48:57","新北市三重區長壽街120巷19弄9號","121.502491666667","25.0691566666667","6500200","三重區"
"241023","545-UM","2017/06/17 16:49:08","新北市三重區新北大道一段206巷15號","121.482473333333","25.0625316666667","6500200","三重區"
"241001","547-UM","2017/06/17 16:49:04","新北市三重區仁政街57號","121.492888333333","25.0772416666667","6500200","三重區"
"241006","AAD-863","2017/06/17 16:49:02","新北市三重區力行路二段182-3號","121.483428333333","25.07743","6500200","三重區"
"241012","887-TS","2017/06/17 16:49:06","新北市三重區仁興街11巷49號","121.500966666667","25.0744316666667","6500200","三重區"
"241029","942-UM","2017/06/17 16:49:07","新北市三重區集美街112巷39號","121.490655","25.054345","6500200","三重區"
"241033","AAC-255","2017/06/17 16:49:01","新北市三重區新北大道二段129號","121.466265","25.061005","6500200","三重區"
"235062","800-TS","2017/06/17 16:42:17","新北市中和區員山路36巷16-3號","121.485096666667","24.9914366666667","6500300","中和區"
"247006","341-TH","2017/06/17 16:48:56","新北市蘆洲區永安南路二段132-1號","121.462568333333","25.0785683333333","6501400","蘆洲區"
"247008","339-TH","2017/06/17 16:49:04","新北市蘆洲區中山一路174號","121.474326666667","25.081315","6501400","蘆洲區"
"247024","337-TH","2017/06/17 16:49:06","新北市蘆洲區長興路255號","121.460515","25.0876133333333","6501400","蘆洲區"
"247002","336-TH","2017/06/17 16:49:00","新北市五股區成泰路三段362號","121.45165","25.0986766666667","6501400","蘆洲區"
"247014","057-VK","2017/06/17 16:49:01","新北市蘆洲區三民路89號","121.474476666667","25.08453","6501400","蘆洲區"
"247004","056-VK","2017/06/17 16:48:57","新北市蘆洲區長榮路106號","121.461818333333","25.08413","6501400","蘆洲區"
"247016","001-UY","2017/06/17 16:48:56","新北市蘆洲區正和街3號","121.470411666667","25.0828383333333","6501400","蘆洲區"
"228003","097-TW","2017/06/17 16:49:05","新北市貢寮區貢寮里朝陽街1-2號","121.912338333333","25.0212816666667","6502600","貢寮區"
"228001","212-TW","2017/06/17 16:48:57","新北市貢寮區貢寮里朝陽街1-2號","121.912165","25.0212783333333","6502600","貢寮區"
"228002","585-TW","2017/06/17 16:48:56","新北市貢寮區貢寮里朝陽街120巷1號","121.908043333333","25.0228716666667","6502600","貢寮區"
"224010","AGQ-8101","2017/06/17 08:51:36","新北市瑞芳區中山路198號","121.801156666667","25.1069666666667","6501200","瑞芳區"
"224006","676-BX","2017/06/17 16:49:04","新北市瑞芳區大寮路356-1號","121.784826666667","25.1032516666667","6501200","瑞芳區"
"224009","285-BY","2017/06/17 16:49:08","新北市瑞芳區中山路251號","121.797698333333","25.10959","6501200","瑞芳區"
"224008","275-VK","2017/06/17 16:48:56","新北市瑞芳區明燈路二段89號","121.809798333333","25.1083383333333","6501200","瑞芳區"
"224007","273-VK","2017/06/17 16:48:56","新北市瑞芳區中央路48巷162號","121.759293333333","25.1034383333333","6501200","瑞芳區"
"224005","271-BY","2017/06/17 16:48:52","新北市瑞芳區明里路90號","121.867755","25.12205","6501200","瑞芳區"
"227002","642-TC","2017/06/17 16:49:09","新北市雙溪區外柑里外柑腳71號","121.807125","25.01758","6502500","雙溪區"
"227010","400-TW","2017/06/17 16:48:54","新北市雙溪區牡丹里五分10號","121.86657","25.047095","6502500","雙溪區"
"251014","180-VK","2017/06/17 16:49:06","新北市淡水區興仁路3號","121.451046666667","25.21522","6501000","淡水區"
"251008","181-VK","2017/06/17 16:48:55","新北市淡水區樹梅坑9號","121.47275","25.142675","6501000","淡水區"
"251012","441-VK","2017/06/17 16:49:07","新北市淡水區中正路二段31號","121.419698333333","25.1815683333333","6501000","淡水區"
"251016","442-VK","2017/06/17 16:49:04","新北市淡水區水頭42號","121.478226666667","25.18507","6501000","淡水區"
"251006","561-UM","2017/06/17 16:48:59","新北市淡水區中正路二段18號","121.419728333333","25.1811033333333","6501000","淡水區"
"251007","577-R6","2017/06/17 16:49:03","新北市淡水區中正路一段156巷1號","121.420851666667","25.1800766666667","6501000","淡水區"
"251011","650-BX","2017/06/17 16:48:56","新北市淡水區中正路二段31號","121.419356666667","25.181675","6501000","淡水區"
"252005","073-UM","2017/06/17 15:42:02","新北市三芝區埔坪里埔頭坑41號","121.504588333333","25.2644633333333","6502100","三芝區"
"252002","178-VK","2017/06/17 16:49:09","新北市三芝區埔坪里埔頭坑78號","121.508786666667","25.254285","6502100","三芝區"
"252001","292-VK","2017/06/17 16:48:58","新北市三芝區茂長里陳厝坑2-1號","121.508293333333","25.2668383333333","6502100","三芝區"
"242029","986-R7","2017/06/17 16:49:04","新北市新莊區新泰路255巷83號","121.44224","25.0390383333333","6500500","新莊區"
"242023","613-BX","2017/06/17 16:48:53","新北市新莊區新泰路255巷83號","121.442175","25.0390883333333","6500500","新莊區"
"242036","566-BX","2017/06/17 16:49:10","新北市新莊區新泰路357巷3弄57號","121.441931666667","25.0390416666667","6500500","新莊區"
"242031","415-TV","2017/06/17 16:49:02","新北市新莊區新泰路357巷3弄57號","121.44203","25.0393416666667","6500500","新莊區"
"242061","362-BY","2017/06/17 16:48:52","新北市新莊區三和路12-21號","121.442221666667","25.038665","6500500","新莊區"
"242044","172-VK","2017/06/17 04:30:52","新北市新莊區三和路12-21號","121.44198","25.03875","6500500","新莊區"
"242034","347-TH","2017/06/17 00:18:03","新北市新莊區三和路12-17號","121.4419","25.0375116666667","6500500","新莊區"
"242017","348-TH","2017/06/17 16:48:49","新北市新莊區新泰路357巷3弄57號","121.442323333333","25.0394766666667","6500500","新莊區"
"238018","571-TV","2017/06/17 16:48:50","新北市樹林區中山路三段204號","121.387263333333","24.9681683333333","6500700","樹林區"
"239008","527-UM","2017/06/17 16:49:07","新北市鶯歌區二甲路12-2號","121.345583333333","24.935015","6500800","鶯歌區"
"239003","360-BY","2017/06/17 16:49:05","新北市鶯歌區二甲路13-16號","121.345415","24.935015","6500800","鶯歌區"
"239002","359-BY","2017/06/16 20:21:12","新北市鶯歌區二甲路13號","121.344398333333","24.9353233333333","6500800","鶯歌區"
