"lineid","car","time","location","longitude","latitude","cityid","cityname"
"234011","9373-KE","2017/06/17 16:47:20","新北市永和區福和路1號","121.525673333333","25.0095216666667","6500400","永和區"
"249005","172-UM","2017/06/17 17:18:56","新北市八里區荖阡坑路50-1號","121.411681666667","25.1222266666667","6502300","八里區"
"249001","173-UM","2017/06/17 17:19:05","新北市八里區中華路二段165巷3號","121.407656666667","25.150825","6502300","八里區"
"249004","303-UY","2017/06/17 17:19:03","新北市八里區文化街78號","121.42165","25.1600533333333","6502300","八里區"
"249002","305-UY","2017/06/17 17:19:04","新北市八里區龍米路二段117巷29-1號","121.446083333333","25.1429516666667","6502300","八里區"
"249003","593-UM","2017/06/17 17:19:03","新北市八里區商港路80號","121.395468333333","25.1463433333333","6502300","八里區"
"232011","375-UM","2017/06/17 17:18:49","新北市坪林區北宜路八段558號","121.718241666667","24.9092266666667","6502000","坪林區"
"244013","069-UM","2017/06/17 17:19:02","新北市林口區粉寮69號","121.405015","25.090845","6501700","林口區"
"244019","403-UM","2017/06/17 17:15:51","新北市林口區仁愛路二段172號","121.380971666667","25.073995","6501700","林口區"
"244023","483-VK","2017/06/17 17:18:50","新北市林口區仁愛路一段665號","121.387791666667","25.0764866666667","6501700","林口區"
"244017","485-VK","2017/06/17 17:18:51","新北市林口區粉寮69號","121.405063333333","25.090825","6501700","林口區"
"244011","701-TV","2017/06/17 17:19:05","新北市林口區粉寮路31-2號","121.403695","25.0872266666667","6501700","林口區"
"244021","838-TS","2017/06/17 17:19:06","新北市林口區粉寮路二段92號","121.404636666667","25.0885033333333","6501700","林口區"
"241011","013-R5","2017/06/17 17:19:08","新北市三重區河邊北街108號","121.503783333333","25.0708366666667","6500200","三重區"
"241028","022-UY","2017/06/17 17:18:52","新北市三重區仁化商場3號","121.493458333333","25.0595583333333","6500200","三重區"
"241008","059-VK","2017/06/17 17:18:57","新北市三重區下竹圍街22號","121.481","25.07547","6500200","三重區"
"241009","060-VK","2017/06/17 17:19:06","新北市三重區仁愛街618號","121.483586666667","25.080675","6500200","三重區"
"241015","062-VK","2017/06/17 17:19:00","新北市三重區福德北路82號","121.501813333333","25.0662616666667","6500200","三重區"
"241017","063-VK","2017/06/17 17:18:56","新北市三重區新北大道一段2號","121.491021666667","25.0613433333333","6500200","三重區"
"241024","065-VK","2017/06/17 17:19:09","新北市三重區中正北路191巷3弄15號","121.478188333333","25.0697066666667","6500200","三重區"
"241026","066-VK","2017/06/17 17:19:01","新北市三重區文化南路31號","121.500116666667","25.061875","6500200","三重區"
"241002","090-VK","2017/06/17 17:19:05","新北市三重區自強路五段25號","121.49323","25.080855","6500200","三重區"
"241003","091-VK","2017/06/17 17:18:56","新北市三重區富福街58號","121.491898333333","25.0844816666667","6500200","三重區"
"241030","156-TC","2017/06/17 17:18:56","新北市三重區成功路73巷36號","121.48971","25.05237","6500200","三重區"
"241005","262-UM","2017/06/17 17:18:55","新北市三重區永安北路二段25巷5號","121.482346666667","25.0816833333333","6500200","三重區"
"241013","265-UM","2017/06/17 17:19:07","新北市三重區仁福街26號","121.496715","25.0746116666667","6500200","三重區"
"241016","266-UM","2017/06/17 17:18:50","新北市三重區新北大道一段7號","121.489633333333","25.0612383333333","6500200","三重區"
"241022","267-UM","2017/06/17 17:18:58","新北市三重區中正北路118巷10號","121.485248333333","25.06468","6500200","三重區"
"241018","268-UM","2017/06/17 17:19:04","新北市三重區正義北路278-1號","121.495496666667","25.0690816666667","6500200","三重區"
"241032","269-UM","2017/06/17 17:19:03","新北市三重區新北大道一段133巷12號","121.482438333333","25.0609733333333","6500200","三重區"
"241025","271-UM","2017/06/17 17:19:02","新北市三重區中正北路291號","121.474746666667","25.07111","6500200","三重區"
"241007","398-BY","2017/06/17 17:19:02","新北市三重區三和路四段324號","121.483918333333","25.0782083333333","6500200","三重區"
"241020","412-TH","2017/06/17 17:18:56","新北市三重區自強路三段73號","121.486881666667","25.07359","6500200","三重區"
"241004","475-VK","2017/06/17 17:19:01","新北市三重區五華街122巷13號","121.491301666667","25.082825","6500200","三重區"
"241019","478-VK","2017/06/17 17:18:59","新北市三重區力行路一段62號","121.484353333333","25.0693916666667","6500200","三重區"
"241014","543-UM","2017/06/17 17:18:57","新北市三重區長榮路6號","121.500095","25.0685466666667","6500200","三重區"
"241023","545-UM","2017/06/17 17:18:48","新北市三重區三民街188號","121.481776666667","25.0657783333333","6500200","三重區"
"241001","547-UM","2017/06/17 17:19:01","新北市三重區仁愛街281號","121.492658333333","25.07892","6500200","三重區"
"241006","AAD-863","2017/06/17 17:19:07","新北市三重區車路頭街139巷14號","121.484351666667","25.0761383333333","6500200","三重區"
"241012","887-TS","2017/06/17 17:19:06","新北市三重區仁興街31巷39號","121.500255","25.0755083333333","6500200","三重區"
"241029","942-UM","2017/06/17 17:19:07","新北市三重區重安街15-1號","121.490446666667","25.0578233333333","6500200","三重區"
"241033","AAC-255","2017/06/17 17:19:01","新北市三重區中興北街191號","121.46905","25.0565133333333","6500200","三重區"
"235071","783-BX","2017/06/17 17:19:01","新北市中和區員山路36巷16-3號","121.485278333333","24.9910816666667","6500300","中和區"
"235062","800-TS","2017/06/17 16:42:17","新北市中和區員山路36巷16-3號","121.485096666667","24.9914366666667","6500300","中和區"
"247020","893-R6","2017/06/17 17:19:02","新北市蘆洲區民族路331-17號","121.473235","25.09191","6501400","蘆洲區"
"247010","546-UM","2017/06/17 17:19:00","新北市蘆洲區中山一路120巷7弄13號","121.477206666667","25.08206","6501400","蘆洲區"
"247018","500-BY","2017/06/17 17:19:04","新北市蘆洲區民權路96巷1弄1號","121.474363333333","25.0882183333333","6501400","蘆洲區"
"247006","341-TH","2017/06/17 17:18:56","新北市蘆洲區永安南路二段154號","121.46187","25.078985","6501400","蘆洲區"
"247008","339-TH","2017/06/17 17:19:04","新北市蘆洲區永安北路一段72巷58號","121.476018333333","25.0769016666667","6501400","蘆洲區"
"247024","337-TH","2017/06/17 17:19:06","新北市蘆洲區長榮路262號","121.460351666667","25.0860633333333","6501400","蘆洲區"
"247002","336-TH","2017/06/17 17:19:00","新北市蘆洲區永樂街38巷45弄2號","121.45809","25.0898883333333","6501400","蘆洲區"
"247014","057-VK","2017/06/17 17:19:01","新北市蘆洲區成功路201巷4號","121.470726666667","25.0837333333333","6501400","蘆洲區"
"247004","056-VK","2017/06/17 17:17:37","新北市蘆洲區中原路56號","121.458965","25.082315","6501400","蘆洲區"
"247012","007-UY","2017/06/17 17:18:48","新北市蘆洲區信義路319巷12號","121.47772","25.08627","6501400","蘆洲區"
"247022","002-UY","2017/06/17 17:19:04","新北市蘆洲區三民路128巷35號","121.469963333333","25.0895416666667","6501400","蘆洲區"
"247016","001-UY","2017/06/17 17:18:56","新北市蘆洲區光華路22巷9號","121.469075","25.0838583333333","6501400","蘆洲區"
"228003","097-TW","2017/06/17 17:19:05","新北市貢寮區福隆里興隆街24-1號","121.944353333333","25.0166416666667","6502600","貢寮區"
"228001","212-TW","2017/06/17 17:18:57","新北市貢寮區仁理村仁和路1號","121.92415","25.0477833333333","6502600","貢寮區"
"228002","585-TW","2017/06/17 17:18:56","新北市貢寮區雙玉里下雙溪街24號","121.920878333333","25.00999","6502600","貢寮區"
"224010","AGQ-8101","2017/06/17 08:51:36","新北市瑞芳區中山路198號","121.801156666667","25.1069666666667","6501200","瑞芳區"
"224006","676-BX","2017/06/17 17:19:04","新北市瑞芳區大寮路2號","121.78558","25.10033","6501200","瑞芳區"
"224009","285-BY","2017/06/17 17:18:47","新北市瑞芳區汽車路145號","121.8386","25.10981","6501200","瑞芳區"
"224008","275-VK","2017/06/17 17:18:56","新北市瑞芳區侯硐路148號","121.826321666667","25.0839333333333","6501200","瑞芳區"
"224005","271-BY","2017/06/17 17:18:52","新北市瑞芳區洞頂路136號","121.862328333333","25.1243416666667","6501200","瑞芳區"
"227002","642-TC","2017/06/17 17:18:49","新北市雙溪區上林里內平林90號","121.827555","25.0274983333333","6502500","雙溪區"
"227010","400-TW","2017/06/17 17:18:33","新北市雙溪區三貂里定福路2號","121.851865","25.06625","6502500","雙溪區"
"251004","009-UM","2017/06/17 17:19:09","新北市淡水區中正東路二段88巷15號","121.458963333333","25.1503816666667","6501000","淡水區"
"251002","012-UM","2017/06/17 17:19:05","新北市淡水區中正路二段31號","121.41906","25.1816766666667","6501000","淡水區"
"251014","180-VK","2017/06/17 17:19:06","新北市淡水區公埔子43號","121.464163333333","25.2290716666667","6501000","淡水區"
"251008","181-VK","2017/06/17 17:18:54","新北市淡水區大同路293號","121.467638333333","25.1422616666667","6501000","淡水區"
"251010","413-VK","2017/06/17 17:19:04","新北市淡水區中正路二段22巷3號","121.419866666667","25.1815333333333","6501000","淡水區"
"251012","441-VK","2017/06/17 17:19:07","新北市淡水區中山北路一段156號","121.444078333333","25.1779083333333","6501000","淡水區"
"251016","442-VK","2017/06/17 17:19:04","新北市淡水區鄒厝崙5號","121.46917","25.1888133333333","6501000","淡水區"
"251005","443-VK","2017/06/17 17:19:08","新北市淡水區鄧公路19-1號","121.450301666667","25.1700033333333","6501000","淡水區"
"251006","561-UM","2017/06/17 17:18:59","新北市淡水區大智街30號","121.442231666667","25.174355","6501000","淡水區"
"251009","575-R6","2017/06/17 17:18:56","新北市淡水區文化路57號","121.438935","25.1727133333333","6501000","淡水區"
"251007","577-R6","2017/06/17 17:19:03","新北市淡水區民生路47-4號","121.461936666667","25.1379933333333","6501000","淡水區"
"251011","650-BX","2017/06/17 17:18:56","新北市淡水區坪頂路131號","121.464701666667","25.161545","6501000","淡水區"
"251003","673-BX","2017/06/17 17:19:09","新北市淡水區中正路二段31號","121.41951","25.181485","6501000","淡水區"
"252005","073-UM","2017/06/17 15:42:02","新北市三芝區埔坪里埔頭坑41號","121.504588333333","25.2644633333333","6502100","三芝區"
"252002","178-VK","2017/06/17 17:18:48","新北市三芝區忠孝街1-15號","121.505538333333","25.253895","6502100","三芝區"
"252001","292-VK","2017/06/17 17:18:58","新北市三芝區埔頭里埔頭15-6號","121.4958","25.2598966666667","6502100","三芝區"
"242021","AAC-296","2017/06/17 17:18:57","新北市新莊區中平路82巷29號","121.445963333333","25.0449733333333","6500500","新莊區"
"242029","986-R7","2017/06/17 17:19:04","新北市新莊區幸福路615號","121.45184","25.0491966666667","6500500","新莊區"
"242048","751-BX","2017/06/17 17:19:10","新北市新莊區中正路524號","121.431301666667","25.0317066666667","6500500","新莊區"
"242025","615-BX","2017/06/17 17:19:05","新北市新莊區中平路111號","121.44467","25.0463983333333","6500500","新莊區"
"242023","613-BX","2017/06/17 17:18:53","新北市新莊區中平路82巷2號","121.4448","25.044835","6500500","新莊區"
"242027","612-BX","2017/06/17 17:19:06","新北市新莊區中平路82巷36-2號","121.446381666667","25.0449833333333","6500500","新莊區"
"242036","566-BX","2017/06/17 17:19:10","新北市新莊區新樹路16-1號","121.43923","25.0305533333333","6500500","新莊區"
"242042","497-BY","2017/06/17 17:19:07","新北市新莊區新樹路12-1號","121.43986","25.0315433333333","6500500","新莊區"
"242004","442-UM","2017/06/17 17:19:04","新北市新莊區中平路82巷2號","121.444883333333","25.044855","6500500","新莊區"
"242046","441-UM","2017/06/17 17:18:54","新北市新莊區新樹路67巷32號","121.440421666667","25.0302783333333","6500500","新莊區"
"242051","440-UM","2017/06/17 17:19:03","新北市新莊區環河路636-7號","121.436825","25.0109716666667","6500500","新莊區"
"242031","415-TV","2017/06/17 17:19:02","新北市新莊區新泰路464號","121.443246666667","25.0448916666667","6500500","新莊區"
"242002","413-TV","2017/06/17 17:19:06","新北市新莊區中環路一段287號","121.44216","25.0319716666667","6500500","新莊區"
"242039","400-BY","2017/06/17 17:18:51","新北市新莊區新樹路29號","121.440366666667","25.0323566666667","6500500","新莊區"
"242061","362-BY","2017/06/17 17:18:52","新北市新莊區新泰路357巷3弄45號","121.441965","25.0402","6500500","新莊區"
"242058","353-BY","2017/06/17 17:19:05","新北市新莊區新泰路357巷3弄37號","121.44231","25.0403833333333","6500500","新莊區"
"242011","132-UY","2017/06/17 17:19:02","新北市新莊區中誠街48號","121.451225","25.0480816666667","6500500","新莊區"
"242019","135-UY","2017/06/17 17:18:48","新北市新莊區中港路323號","121.452525","25.0449833333333","6500500","新莊區"
"242044","172-VK","2017/06/17 17:18:51","新北市新莊區富國路106號","121.421866666667","25.025335","6500500","新莊區"
"242007","173-VK","2017/06/17 15:28:34","新北市新莊區三和路12-21號","121.442063333333","25.0386683333333","6500500","新莊區"
"242013","175-VK","2017/06/17 17:19:04","新北市新莊區新泰路500號","121.442473333333","25.0460283333333","6500500","新莊區"
"242056","176-VK","2017/06/17 17:18:58","新北市新莊區中正路400號","121.441956666667","25.0341483333333","6500500","新莊區"
"242034","347-TH","2017/06/17 17:19:06","新北市新莊區瓊林路46-4號","121.44727","25.0293766666667","6500500","新莊區"
"242017","348-TH","2017/06/17 17:18:49","新北市新莊區新泰路488號","121.442511666667","25.0457666666667","6500500","新莊區"
"242053","349-TH","2017/06/17 17:18:52","新北市新莊區新莊路664-2號","121.442098333333","25.0329366666667","6500500","新莊區"
"242015","350-TH","2017/06/17 17:18:50","新北市新莊區建中街154號","121.444756666667","25.0364766666667","6500500","新莊區"
"242009","351-TH","2017/06/17 17:19:02","新北市新莊區中原路656號","121.443138333333","25.0544283333333","6500500","新莊區"
"238015","755-BX","2017/06/17 17:18:57","新北市樹林區大安路351號","121.416285","24.990335","6500700","樹林區"
"238023","601-UM","2017/06/17 17:19:08","新北市樹林區啟智街156巷3號","121.414811666667","24.98758","6500700","樹林區"
"238019","599-UM","2017/06/17 17:19:07","新北市樹林區八德街170號","121.421681666667","24.9781383333333","6500700","樹林區"
"238018","571-TV","2017/06/17 17:19:10","新北市樹林區博愛街253號","121.424358333333","24.984845","6500700","樹林區"
"238024","5061-A6","2017/06/17 17:18:53","新北市樹林區博愛街238號","121.422846666667","24.98793","6500700","樹林區"
"238022","312-TH","2017/06/17 17:19:02","新北市樹林區忠孝街31號","121.423721666667","24.9822183333333","6500700","樹林區"
"238021","311-TH","2017/06/17 17:19:00","新北市樹林區西圳街165巷20弄26號","121.395541666667","24.96004","6500700","樹林區"
"238025","303-VK","2017/06/17 17:18:56","新北市樹林區中山路一段249號","121.420435","24.986465","6500700","樹林區"
"238017","283-BY","2017/06/17 17:18:54","新北市樹林區大安路295號","121.41809","24.9926466666667","6500700","樹林區"
"238014","282-BY","2017/06/17 17:18:56","新北市樹林區東佳路218號","121.410646666667","24.9817866666667","6500700","樹林區"
"238020","268-VK","2017/06/17 17:19:00","新北市樹林區大安路47號","121.423773333333","24.99915","6500700","樹林區"
"238026","172-UY","2017/06/17 17:18:48","新北市樹林區東順街79巷2號","121.409623333333","24.97648","6500700","樹林區"
"238016","169-UY","2017/06/17 17:19:11","新北市樹林區中華路190-6號","121.410256666667","24.9805183333333","6500700","樹林區"
"239007","AAC-297","2017/06/17 17:18:55","新北市鶯歌區光復街10-2號","121.351635","24.9552916666667","6500800","鶯歌區"
"239006","891-R6","2017/06/17 17:19:02","新北市鶯歌區福昌街32號","121.332646666667","24.9610533333333","6500800","鶯歌區"
"239008","527-UM","2017/06/17 17:19:07","新北市鶯歌區西湖街289巷10號","121.340645","24.969035","6500800","鶯歌區"
"239005","526-UM","2017/06/17 17:18:52","新北市鶯歌區福德三街10號","121.32984","24.9676216666667","6500800","鶯歌區"
"239001","417-VK","2017/06/17 17:19:00","新北市鶯歌區尖山路204號","121.343795","24.947075","6500800","鶯歌區"
"239003","360-BY","2017/06/17 17:19:05","新北市鶯歌區德昌街141號","121.33252","24.9600883333333","6500800","鶯歌區"
"239002","359-BY","2017/06/17 17:19:07","新北市鶯歌區南昌街24號","121.349701666667","24.9541533333333","6500800","鶯歌區"
"239004","193-VK","2017/06/17 17:18:56","新北市鶯歌區文化路324巷1-37號","121.352265","24.9459516666667","6500800","鶯歌區"
