"lineid","car","time","location","longitude","latitude","cityid","cityname"
"234026","9371-KE","2017/06/17 17:48:55","新北市永和區永平路180巷5號","121.510813333333","25.00963","6500400","永和區"
"234011","9373-KE","2017/06/17 16:47:20","新北市永和區福和路1號","121.525673333333","25.0095216666667","6500400","永和區"
"249005","172-UM","2017/06/17 17:48:56","新北市八里區荖阡坑路34-2號","121.402516666667","25.1307","6502300","八里區"
"249001","173-UM","2017/06/17 17:49:05","新北市八里區龍米路二段133號","121.44514","25.1476566666667","6502300","八里區"
"249004","303-UY","2017/06/17 17:49:03","新北市八里區中華路一段81巷24號","121.419618333333","25.1537116666667","6502300","八里區"
"249002","305-UY","2017/06/17 17:49:04","新北市八里區龍形五街37巷8-3號","121.448721666667","25.13361","6502300","八里區"
"249003","593-UM","2017/06/17 17:49:03","新北市八里區中山路二段123號","121.405451666667","25.1518716666667","6502300","八里區"
"248014","025-BX","2017/06/17 17:49:02","新北市五股區中興路二段63巷17號","121.460333333333","25.0756983333333","6501500","五股區"
"248006","077-UY","2017/06/17 17:48:58","新北市五股區中興路二段37巷28號","121.460223333333","25.0751533333333","6501500","五股區"
"248020","225-UY","2017/06/17 17:48:48","新北市五股區中興路二段83巷26-6號","121.459836666667","25.075325","6501500","五股區"
"248002","678-BX","2017/06/17 17:49:04","新北市五股區中興路二段37巷28號","121.460165","25.074955","6501500","五股區"
"232011","375-UM","2017/06/17 17:48:49","新北市坪林區北宜路八段152號","121.707053333333","24.9344316666667","6502000","坪林區"
"244013","069-UM","2017/06/17 17:49:02","新北市林口區中正路525巷6號","121.38278","25.0770433333333","6501700","林口區"
"244019","403-UM","2017/06/17 17:48:51","新北市林口區公園路168號","121.372421666667","25.0720316666667","6501700","林口區"
"244023","483-VK","2017/06/17 17:49:10","新北市林口區興林路151巷2號","121.389101666667","25.0733433333333","6501700","林口區"
"244017","485-VK","2017/06/17 17:49:03","新北市林口區忠孝路405號","121.370273333333","25.07074","6501700","林口區"
"244009","656-BX","2017/06/17 17:49:00","新北市林口區中北三街55號","121.384836666667","25.0857066666667","6501700","林口區"
"244011","701-TV","2017/06/17 17:49:05","新北市林口區竹林路2號","121.386586666667","25.07695","6501700","林口區"
"244025","837-TS","2017/06/17 17:49:05","新北市林口區文化三路一段191巷20號","121.361231666667","25.070535","6501700","林口區"
"244021","838-TS","2017/06/17 17:49:06","新北市林口區仁愛路一段139巷7號","121.398753333333","25.07144","6501700","林口區"
"243013","AAD-798","2017/06/17 17:48:55","新北市泰山區錢厝坑1-4號","121.405478333333","25.0527083333333","6501600","泰山區"
"222003","436-BY","2017/06/17 17:49:03","新北市深坑區阿柔洋60-1號","121.60859","24.9985333333333","6501800","深坑區"
"222002","659-BX","2017/06/17 17:48:49","新北市深坑區平埔街14號","121.615488333333","25.0014233333333","6501800","深坑區"
"231046","278-BY","2017/06/17 17:48:49","新北市新店區下石厝路21號","121.53228","24.9273966666667","6500600","新店區"
"241028","022-UY","2017/06/17 17:48:52","新北市林口區太平里180號","121.366415","25.1345233333333","6500200","三重區"
"241024","065-VK","2017/06/17 17:48:49","新北市三重區車路頭街62巷27號","121.483535","25.072495","6500200","三重區"
"241005","262-UM","2017/06/17 17:48:56","新北市三重區碧華街350號","121.490528333333","25.0840016666667","6500200","三重區"
"241013","265-UM","2017/06/17 17:48:47","新北市三重區龍濱路190號","121.501048333333","25.0732616666667","6500200","三重區"
"241016","266-UM","2017/06/17 17:48:50","新北市三重區重新路二段116號","121.496493333333","25.0615583333333","6500200","三重區"
"241019","478-VK","2017/06/17 17:48:59","新北市三重區力行路一段38巷10號","121.484975","25.0662333333333","6500200","三重區"
"241014","543-UM","2017/06/17 17:48:57","新北市三重區龍濱路190號","121.501178333333","25.0731866666667","6500200","三重區"
"241023","545-UM","2017/06/17 17:48:48","新北市三重區重陽路二段8號","121.486598333333","25.061945","6500200","三重區"
"241033","AAC-255","2017/06/17 17:49:01","新北市三重區重新路五段640-1號","121.468183333333","25.0443433333333","6500200","三重區"
"235064","005-UY","2017/06/17 17:49:01","新北市中和區員山路36巷16-3號","121.48509","24.9913883333333","6500300","中和區"
"235063","006-UY","2017/06/17 17:48:56","新北市中和區員山路36巷16-3號","121.485128333333","24.99116","6500300","中和區"
"235061","378-QA","2017/06/17 15:29:36","新北市中和區員山路36巷13號","121.48444","24.9910866666667","6500300","中和區"
"235071","783-BX","2017/06/17 17:49:01","新北市中和區員山路36巷16-2號","121.485308333333","24.9910883333333","6500300","中和區"
"235062","800-TS","2017/06/17 17:48:57","新北市中和區員山路36巷16-3號","121.485131666667","24.991305","6500300","中和區"
"247020","893-R6","2017/06/17 17:49:02","新北市蘆洲區民義街71巷15號","121.472626666667","25.0905016666667","6501400","蘆洲區"
"247010","546-UM","2017/06/17 17:49:00","新北市蘆洲區民族路16號","121.475976666667","25.084105","6501400","蘆洲區"
"247018","500-BY","2017/06/17 17:49:04","新北市蘆洲區復興路113號","121.477265","25.088065","6501400","蘆洲區"
"247006","341-TH","2017/06/17 17:48:56","新北市蘆洲區九芎街140號","121.464946666667","25.078975","6501400","蘆洲區"
"247008","339-TH","2017/06/17 17:49:04","新北市蘆洲區中山一路210號","121.473355","25.0806766666667","6501400","蘆洲區"
"247024","337-TH","2017/06/17 17:49:06","新北市蘆洲區光榮路46號","121.461105","25.0883916666667","6501400","蘆洲區"
"247002","336-TH","2017/06/17 17:49:00","新北市蘆洲區環堤大道224號","121.458241666667","25.0926266666667","6501400","蘆洲區"
"247014","057-VK","2017/06/17 17:49:01","新北市五股區中興路三段2巷10號","121.448318333333","25.0837383333333","6501400","蘆洲區"
"247012","007-UY","2017/06/17 17:49:08","新北市蘆洲區民族路252號","121.47898","25.0887783333333","6501400","蘆洲區"
"247022","002-UY","2017/06/17 17:49:04","新北市蘆洲區中正路262號","121.465616666667","25.0897716666667","6501400","蘆洲區"
"247016","001-UY","2017/06/17 17:48:56","新北市蘆洲區中正路185巷78弄15號","121.46586","25.0846483333333","6501400","蘆洲區"
"226004","312-R5","2017/06/17 17:48:56","新北市平溪區石底里公園街18-3號","121.733328333333","25.0257183333333","6502400","平溪區"
"228003","097-TW","2017/06/17 17:49:05","新北市貢寮區真理里美艷山街6-2號","121.928923333333","25.0607066666667","6502600","貢寮區"
"228001","212-TW","2017/06/17 17:48:57","新北市貢寮區仁理村仁愛路95-1號","121.927708333333","25.0554666666667","6502600","貢寮區"
"228002","585-TW","2017/06/17 17:48:56","新北市貢寮區福隆里外隆林街14-1號","121.95917","25.0036683333333","6502600","貢寮區"
"224010","AGQ-8101","2017/06/17 17:48:55","新北市瑞芳區明燈路二段2巷8號","121.814266666667","25.1083083333333","6501200","瑞芳區"
"224006","676-BX","2017/06/17 17:49:04","新北市瑞芳區傑魚坑路183號","121.78845","25.108295","6501200","瑞芳區"
"224002","639-TC","2017/06/17 15:57:22","新北市瑞芳區明燈路二段44-1號","121.809513333333","25.1082366666667","6501200","瑞芳區"
"224009","285-BY","2017/06/17 17:49:07","新北市瑞芳區金光路316巷19號","121.850445","25.10829","6501200","瑞芳區"
"224008","275-VK","2017/06/17 17:48:58","新北市瑞芳區明燈路一段118號","121.818648333333","25.108935","6501200","瑞芳區"
"224005","271-BY","2017/06/17 17:48:52","新北市瑞芳區豎崎路32-5號","121.824063333333","25.1210483333333","6501200","瑞芳區"
"253006","032-BX","2017/06/17 17:49:07","新北市石門區中央路6號","121.566545","25.2913716666667","6502200","石門區"
"208001","742-BX","2017/06/17 17:49:05","新北市金山區磺清路135號","121.639495","25.227725","6502700","金山區"
"208003","665-BX","2017/06/17 17:49:05","新北市金山區磺清路135號","121.639483333333","25.22775","6502700","金山區"
"251004","009-UM","2017/06/17 17:49:09","新北市淡水區民權路131號","121.460053333333","25.1367533333333","6501000","淡水區"
"251002","012-UM","2017/06/17 17:49:05","新北市淡水區中山路88號","121.442966666667","25.17055","6501000","淡水區"
"251014","180-VK","2017/06/17 17:49:06","新北市淡水區公埔子16-6號","121.481005","25.2245716666667","6501000","淡水區"
"251008","181-VK","2017/06/17 17:48:54","新北市淡水區八勢路一段139號","121.46713","25.1578433333333","6501000","淡水區"
"251010","413-VK","2017/06/17 17:49:04","新北市淡水區中正路二段55號","121.417388333333","25.1861166666667","6501000","淡水區"
"251012","441-VK","2017/06/17 17:49:07","新北市淡水區北新路二段15號","121.476255","25.1856433333333","6501000","淡水區"
"251016","442-VK","2017/06/17 17:49:04","新北市淡水區埤島39-15號","121.452726666667","25.195865","6501000","淡水區"
"251005","443-VK","2017/06/17 17:48:48","新北市淡水區學府路96號","121.44928","25.1711016666667","6501000","淡水區"
"251001","559-UM","2017/06/17 17:49:08","台北市北投區中央北路四段583巷8號","121.46549","25.1249633333333","6501000","淡水區"
"251006","561-UM","2017/06/17 17:48:59","新北市淡水區新生街39號","121.440141666667","25.1748","6501000","淡水區"
"251009","575-R6","2017/06/17 17:48:56","新北市淡水區中山路108巷3號","121.442053333333","25.171045","6501000","淡水區"
"251007","577-R6","2017/06/17 17:49:03","新北市淡水區民生路16巷20號","121.461461666667","25.1373683333333","6501000","淡水區"
"251011","650-BX","2017/06/17 17:45:36","新北市淡水區吳(仔)厝9號","121.479183333333","25.1467666666667","6501000","淡水區"
"251003","673-BX","2017/06/17 17:49:09","新北市淡水區大忠街19號","121.443761666667","25.1760266666667","6501000","淡水區"
"207003","550-UM","2017/06/17 17:49:04","新北市萬里區野柳里東澳路66號","121.692801666667","25.2009466666667","6502800","萬里區"
"207004","225-TW","2017/06/17 17:49:05","新北市萬里區萬里里瑪鋉頂街100-1號","121.687985","25.1805283333333","6502800","萬里區"
"252005","073-UM","2017/06/17 15:42:02","新北市三芝區埔坪里埔頭坑41號","121.504588333333","25.2644633333333","6502100","三芝區"
"252002","178-VK","2017/06/17 17:48:48","新北市三芝區智成街73號","121.504513333333","25.2559633333333","6502100","三芝區"
"252001","292-VK","2017/06/17 17:48:18","新北市三芝區中山路一段8號","121.50065","25.2587716666667","6502100","三芝區"
"237004","078-UY","2017/06/17 17:49:02","新北市三峽區中山路55號","121.367681666667","24.93466","6500900","三峽區"
"237009","210-TH","2017/06/17 17:49:05","新北市三峽區大勇路3巷43號","121.367388333333","24.936735","6500900","三峽區"
"237013","252-BX","2017/06/17 17:48:51","新北市三峽區愛國路34巷1號","121.374593333333","24.9327883333333","6500900","三峽區"
"237012","275-BY","2017/06/17 17:49:08","新北市三峽區文化路117號","121.370216666667","24.936075","6500900","三峽區"
"237008","302-VK","2017/06/17 17:49:00","新北市三峽區中園街237-1號","121.366815","24.9194433333333","6500900","三峽區"
"237014","433-BY","2017/06/17 17:48:47","新北市三峽區文化路120巷3號","121.371035","24.93647","6500900","三峽區"
"237006","5529-G3","2017/06/17 17:49:00","新北市三峽區介壽路二段136巷102號","121.392038333333","24.93342","6500900","三峽區"
"237011","572-TV","2017/06/17 17:49:03","新北市三峽區光明路67號","121.375736666667","24.92863","6500900","三峽區"
"237016","649-BX","2017/06/17 17:49:04","新北市三峽區白雞30-14號","121.372403333333","24.912265","6500900","三峽區"
"237010","706-TV","2017/06/17 17:49:01","新北市三峽區文化路185號","121.367025","24.9357266666667","6500900","三峽區"
"237005","AKY-6261","2017/06/17 17:48:58","新北市三峽區中山路274號","121.361463333333","24.9377516666667","6500900","三峽區"
"236073","105-UM","2017/06/17 17:48:49","新北市土城區青雲路322巷12號","121.45769","24.976875","6501300","土城區"
"236043","107-UM","2017/06/17 17:48:48","新北市土城區城林路6巷80號","121.438515","24.97974","6501300","土城區"
"236079","166-UM","2017/06/17 17:48:49","新北市土城區中央路三段124號","121.435006666667","24.9660933333333","6501300","土城區"
"236031","253-BX","2017/06/17 17:49:01","新北市土城區城林路6巷80號","121.438405","24.979755","6501300","土城區"
"236027","269-VK","2017/06/17 17:49:02","新北市土城區承天路1號","121.435825","24.9665233333333","6501300","土城區"
"236015","270-VK","2017/06/17 17:49:08","新北市土城區城林路6巷80號","121.43846","24.9797716666667","6501300","土城區"
"236038","271-VK","2017/06/17 17:48:49","新北市土城區城林路6巷80號","121.438523333333","24.97961","6501300","土城區"
"236049","913-UM","2017/06/17 17:48:51","新北市土城區城林路6巷80號","121.438448333333","24.9796033333333","6501300","土城區"
"236063","915-UM","2017/06/17 17:49:02","新北市土城區城林路6巷80號","121.438338333333","24.9797716666667","6501300","土城區"
"236055","AAC-216","2017/06/17 17:48:47","新北市土城區城林路6巷80號","121.438471666667","24.97965","6501300","土城區"
"242021","AAC-296","2017/06/17 17:48:57","新北市新莊區中華路一段182號","121.452658333333","25.0425383333333","6500500","新莊區"
"242029","986-R7","2017/06/17 17:49:04","新北市新莊區復興路一段45號","121.44707","25.042085","6500500","新莊區"
"242048","751-BX","2017/06/17 17:49:10","新北市新莊區萬安街60巷3號","121.420651666667","25.0235133333333","6500500","新莊區"
"242025","615-BX","2017/06/17 17:49:05","新北市新莊區新北大道二段177號","121.4641","25.061005","6500500","新莊區"
"242023","613-BX","2017/06/17 17:49:05","新北市新莊區復興路二段147號","121.457793333333","25.0445383333333","6500500","新莊區"
"242027","612-BX","2017/06/17 17:49:06","新北市新莊區福壽街138號","121.457721666667","25.0517616666667","6500500","新莊區"
"242036","566-BX","2017/06/17 17:48:50","新北市新莊區後港一路89號","121.427671666667","25.0267833333333","6500500","新莊區"
"242042","497-BY","2017/06/17 17:49:07","新北市泰山區貴陽街29號","121.422215","25.0330916666667","6500500","新莊區"
"242004","442-UM","2017/06/17 17:49:04","新北市新莊區思源路177巷5弄20號","121.458313333333","25.045085","6500500","新莊區"
"242046","441-UM","2017/06/17 17:48:54","新北市新莊區建國一路42號","121.433966666667","25.0313066666667","6500500","新莊區"
"242051","440-UM","2017/06/17 17:49:03","新北市新莊區西盛街257巷21號","121.428888333333","25.01587","6500500","新莊區"
"242031","415-TV","2017/06/17 17:49:02","新北市新莊區新泰路357巷1弄43號","121.442835","25.039935","6500500","新莊區"
"242002","413-TV","2017/06/17 17:49:06","新北市新莊區景德路140號","121.45098","25.03419","6500500","新莊區"
"242039","400-BY","2017/06/17 17:48:51","新北市新莊區富國路131號","121.424628333333","25.0244883333333","6500500","新莊區"
"242061","362-BY","2017/06/17 17:48:57","新北市新莊區瓊林南路103巷8弄19號","121.435251666667","25.0114133333333","6500500","新莊區"
"242058","353-BY","2017/06/17 17:49:05","新北市新莊區中正路879-15號","121.417465","25.02598","6500500","新莊區"
"242011","132-UY","2017/06/17 17:49:02","新北市新莊區中港路752號","121.450355","25.0585966666667","6500500","新莊區"
"242019","135-UY","2017/06/17 17:49:08","新北市新莊區中港路259號","121.45381","25.0432583333333","6500500","新莊區"
"242044","172-VK","2017/06/17 17:48:52","新北市新莊區富國路17號","121.418513333333","25.026445","6500500","新莊區"
"242007","173-VK","2017/06/17 17:49:09","新北市新莊區福樂街118巷10號","121.457491666667","25.04805","6500500","新莊區"
"242013","175-VK","2017/06/17 17:49:04","新北市新莊區中誠街142巷15弄1號","121.44868","25.048315","6500500","新莊區"
"242056","176-VK","2017/06/17 17:49:02","新北市新莊區瓊林路40巷30號","121.44676","25.0302166666667","6500500","新莊區"
"242034","347-TH","2017/06/17 17:49:06","新北市新莊區新莊路672號","121.441478333333","25.0327316666667","6500500","新莊區"
"242017","348-TH","2017/06/17 17:48:49","新北市新莊區中和街39號","121.448066666667","25.0442533333333","6500500","新莊區"
"242053","349-TH","2017/06/17 17:48:52","新北市新莊區新樹路699巷53號","121.433206666667","25.00095","6500500","新莊區"
"242015","350-TH","2017/06/17 17:49:10","新北市新莊區新泰路462號","121.443258333333","25.0448283333333","6500500","新莊區"
"242009","351-TH","2017/06/17 17:49:02","新北市新莊區昌明街28號","121.456776666667","25.0522966666667","6500500","新莊區"
"238015","755-BX","2017/06/17 17:48:57","新北市樹林區樹德街136巷11號","121.419613333333","24.9933683333333","6500700","樹林區"
"238023","601-UM","2017/06/17 17:48:48","新北市樹林區三福街62號","121.405033333333","25.016265","6500700","樹林區"
"238019","599-UM","2017/06/17 17:49:07","新北市樹林區太順街7號","121.420021666667","24.9801616666667","6500700","樹林區"
"238018","571-TV","2017/06/17 17:48:50","新北市樹林區博愛街26號","121.427546666667","24.992695","6500700","樹林區"
"238024","5061-A6","2017/06/17 17:48:53","新北市樹林區太平路247巷30號","121.422076666667","24.9746","6500700","樹林區"
"238022","312-TH","2017/06/17 17:49:01","新北市樹林區太元街30號","121.417951666667","24.9801766666667","6500700","樹林區"
"238021","311-TH","2017/06/17 17:49:00","新北市樹林區柑園街一段253巷26號","121.396841666667","24.95362","6500700","樹林區"
"238025","303-VK","2017/06/17 17:48:56","新北市樹林區三俊街21號","121.41169","25.0154883333333","6500700","樹林區"
"238017","283-BY","2017/06/17 17:48:54","新北市樹林區三德街1號","121.412725","25.0128633333333","6500700","樹林區"
"238014","282-BY","2017/06/17 17:48:56","新北市樹林區保安街一段317號","121.417683333333","24.9977683333333","6500700","樹林區"
"238020","268-VK","2017/06/17 17:49:00","新北市樹林區三俊街290號","121.422611666667","25.014195","6500700","樹林區"
"238026","172-UY","2017/06/17 17:49:04","新北市樹林區新興街19巷34弄18號","121.402103333333","24.9729066666667","6500700","樹林區"
"238016","169-UY","2017/06/17 17:48:51","新北市樹林區復興路262號","121.418298333333","24.9887933333333","6500700","樹林區"
"239007","AAC-297","2017/06/17 17:48:56","新北市鶯歌區鶯桃路94巷17號","121.340243333333","24.9541116666667","6500800","鶯歌區"
"239006","891-R6","2017/06/17 17:49:01","新北市鶯歌區鶯桃路413巷28號","121.331281666667","24.9636583333333","6500800","鶯歌區"
"239008","527-UM","2017/06/17 17:49:07","新北市鶯歌區國際一路76號","121.335633333333","24.9779383333333","6500800","鶯歌區"
"239005","526-UM","2017/06/17 17:48:52","新北市鶯歌區鳳吉五街21號","121.327086666667","24.97254","6500800","鶯歌區"
"239001","417-VK","2017/06/17 17:48:59","新北市鶯歌區中正三路398號","121.325948333333","24.9346966666667","6500800","鶯歌區"
"239003","360-BY","2017/06/17 17:49:04","新北市鶯歌區永吉街45號","121.335566666667","24.957115","6500800","鶯歌區"
"239002","359-BY","2017/06/17 17:49:07","新北市鶯歌區國華路31號","121.342956666667","24.95562","6500800","鶯歌區"
"239004","193-VK","2017/06/17 17:48:56","新北市鶯歌區尖山路40號","121.350983333333","24.9504116666667","6500800","鶯歌區"
"221036","130-UY","2017/06/17 17:48:49","新北市汐止區汐萬路一段81號","121.654793333333","25.069825","6501100","汐止區"
"221010","269-BY","2017/06/17 17:49:00","新北市汐止區汐萬路二段109號","121.648221666667","25.08364","6501100","汐止區"
"221012","278-VK","2017/06/17 17:48:57","新北市汐止區汐萬路一段129號","121.65387","25.071075","6501100","汐止區"
"221023","279-VK","2017/06/17 15:16:23","新北市汐止區康寧街901號","121.651783333333","25.07501","6501100","汐止區"
"221032","280-BY","2017/06/17 17:48:47","新北市汐止區中興路62號","121.635541666667","25.0614833333333","6501100","汐止區"
"221027","281-BY","2017/06/17 17:49:00","新北市汐止區汐萬路一段266號","121.650911666667","25.0740183333333","6501100","汐止區"
"221038","297-VK","2017/06/17 17:48:51","新北市汐止區汐萬路一段312號","121.650598333333","25.07545","6501100","汐止區"
"221029","298-VK","2017/06/17 17:49:02","新北市汐止區康寧街901號","121.651711666667","25.074905","6501100","汐止區"
"221021","299-VK","2017/06/17 15:13:32","新北市汐止區汐萬路一段256巷3號","121.652061666667","25.0747916666667","6501100","汐止區"
"221035","622-UM","2017/06/17 17:48:59","新北市汐止區汐萬路一段244-1號","121.65131","25.0735916666667","6501100","汐止區"
"221025","623-UM","2017/06/17 17:49:03","新北市汐止區新台五路一段260-1號","121.657583333333","25.06392","6501100","汐止區"
"221018","753-BX","2017/06/17 17:48:51","新北市汐止區忠孝東路348號","121.665585","25.0697216666667","6501100","汐止區"
