"lineid","car","time","location","longitude","latitude","cityid","cityname"
"234026","9371-KE","2017/06/17 18:08:55","新北市永和區永和路一段1號","121.513055","25.005065","6500400","永和區"
"234011","9373-KE","2017/06/17 16:47:20","新北市永和區福和路1號","121.525673333333","25.0095216666667","6500400","永和區"
"249005","172-UM","2017/06/17 18:08:55","新北市八里區荖阡坑路15號","121.401615","25.1398133333333","6502300","八里區"
"249001","173-UM","2017/06/17 18:09:05","新北市八里區龍米路二段30號","121.448595","25.1400466666667","6502300","八里區"
"249004","303-UY","2017/06/17 18:09:03","新北市八里區龍米路二段150號","121.436438333333","25.156395","6502300","八里區"
"249002","305-UY","2017/06/17 18:09:04","新北市八里區龍米路一段356巷48號","121.451981666667","25.1300916666667","6502300","八里區"
"249003","593-UM","2017/06/17 18:09:03","新北市八里區中華路二段165巷19弄26號","121.41042","25.1517816666667","6502300","八里區"
"248014","025-BX","2017/06/17 18:09:02","新北市五股區成泰路一段188號","121.435455","25.0775733333333","6501500","五股區"
"248016","026-BX","2017/06/17 18:08:46","新北市五股區成泰路三段221巷16號","121.445755","25.0934516666667","6501500","五股區"
"248006","077-UY","2017/06/17 18:08:58","新北市五股區中興路二段82號","121.460866666667","25.0772383333333","6501500","五股區"
"248008","095-VK","2017/06/17 18:09:04","新北市蘆洲區永安南路二段294號","121.457235","25.0817666666667","6501500","五股區"
"248020","225-UY","2017/06/17 18:08:48","新北市蘆洲區永平街32巷45弄36號","121.455081666667","25.0954016666667","6501500","五股區"
"248002","678-BX","2017/06/17 18:09:04","新北市五股區成泰路三段101-1號","121.444225","25.0900966666667","6501500","五股區"
"248010","682-TV","2017/06/17 18:09:01","新北市五股區成泰路一段212號","121.436355","25.0791666666667","6501500","五股區"
"232011","375-UM","2017/06/17 18:08:49","新北市坪林區下坑子口5-9號","121.713206666667","24.9425366666667","6502000","坪林區"
"244013","069-UM","2017/06/17 18:09:02","新北市林口區中山路38號","121.395513333333","25.0783383333333","6501700","林口區"
"244019","403-UM","2017/06/17 18:08:51","新北市林口區文化一路一段26號","121.370401666667","25.0688533333333","6501700","林口區"
"244023","483-VK","2017/06/17 18:08:50","新北市林口區東湖路126號","121.384246666667","25.0733066666667","6501700","林口區"
"244017","485-VK","2017/06/17 18:09:03","新北市林口區忠孝路372號","121.369168333333","25.0713733333333","6501700","林口區"
"244009","656-BX","2017/06/17 18:09:00","新北市林口區佳林路56巷43號","121.385066666667","25.0807516666667","6501700","林口區"
"244011","701-TV","2017/06/17 18:09:05","新北市林口區粉寮路一段53號","121.396728333333","25.0778016666667","6501700","林口區"
"244025","837-TS","2017/06/17 18:09:05","新北市林口區文明街182號","121.361398333333","25.072765","6501700","林口區"
"244021","838-TS","2017/06/17 18:09:06","新北市林口區自強五街23號","121.400205","25.0757916666667","6501700","林口區"
"243013","AAD-798","2017/06/17 18:08:55","新北市泰山區犁頭窠18號","121.422146666667","25.0518833333333","6501600","泰山區"
"222003","436-BY","2017/06/17 18:09:03","新北市深坑區腳坑2-1號","121.610446666667","24.99494","6501800","深坑區"
"222002","659-BX","2017/06/17 18:08:49","新北市深坑區文化街35號","121.619173333333","25.00156","6501800","深坑區"
"222001","696-SL","2017/06/17 18:08:57","新北市深坑區北深路二段151號","121.614148333333","25.0021766666667","6501800","深坑區"
"231040","001-UM","2017/06/17 18:09:07","新北市新店區安華路28-1號","121.519493333333","24.9607716666667","6500600","新店區"
"231056","0291-UT","2017/06/17 18:08:57","新北市新店區安華路28-1號","121.519298333333","24.9607633333333","6500600","新店區"
"231059","046-UY","2017/06/17 18:08:56","新北市新店區安華路28-1號","121.519526666667","24.9607233333333","6500600","新店區"
"231061","047-UY","2017/06/17 18:09:08","新北市新店區安華路28-1號","121.5192","24.9612333333333","6500600","新店區"
"231060","106-UY","2017/06/17 18:09:00","新北市新店區安華路28-1號","121.519623333333","24.9607183333333","6500600","新店區"
"231052","187-VK","2017/06/17 18:08:56","新北市新店區安華路28-1號","121.519458333333","24.9612666666667","6500600","新店區"
"231046","278-BY","2017/06/17 18:08:49","新北市新店區下石厝路29-1號","121.534336666667","24.9290666666667","6500600","新店區"
"231058","3712-VJ","2017/06/17 18:08:59","新北市新店區安華路28-1號","121.519216666667","24.9607933333333","6500600","新店區"
"231055","3713-VJ","2017/06/17 18:08:55","新北市新店區安華路28-1號","121.519215","24.960825","6500600","新店區"
"231065","512-UM","2017/06/17 18:08:51","新北市新店區安華路28-1號","121.519243333333","24.9613766666667","6500600","新店區"
"231054","513-UM","2017/06/17 18:08:50","新北市新店區安華路28-1號","121.519623333333","24.9611516666667","6500600","新店區"
"231045","617-UM","2017/06/17 18:08:58","新北市新店區安華路28-1號","121.519371666667","24.9610516666667","6500600","新店區"
"231049","719-UM","2017/06/17 16:32:33","新北市新店區安華路28-1號","121.519486666667","24.961195","6500600","新店區"
"231043","899-TW","2017/06/17 18:09:04","新北市新店區安華路28-1號","121.51915","24.9609233333333","6500600","新店區"
"241028","022-UY","2017/06/17 18:08:51","新北市三重區疏洪西路399號","121.469003333333","25.06364","6500200","三重區"
"241019","478-VK","2017/06/17 18:08:59","新北市八里區商港路120號","121.392976666667","25.149985","6500200","三重區"
"241033","AAC-255","2017/06/17 18:09:01","新北市三重區中興北街52-1號","121.468786666667","25.05057","6500200","三重區"
"235064","005-UY","2017/06/17 18:09:01","新北市中和區中正路395號","121.489375","24.99411","6500300","中和區"
"235063","006-UY","2017/06/17 18:08:56","新北市中和區員山路36巷16-3號","121.485155","24.9912766666667","6500300","中和區"
"235056","096-UM","2017/06/17 18:08:58","新北市中和區連城路469巷68號","121.483365","24.994075","6500300","中和區"
"235065","098-UM","2017/06/17 18:09:06","新北市中和區橋和路2-1號","121.488475","25.0049566666667","6500300","中和區"
"235040","150-BY","2017/06/17 18:08:49","新北市中和區和城路一段271巷1號","121.48546","24.9917133333333","6500300","中和區"
"235058","151-BY","2017/06/17 18:08:58","新北市中和區圓通路367巷33弄4號","121.493915","24.98549","6500300","中和區"
"235055","183-VK","2017/06/17 18:09:01","新北市中和區員山路36巷16-3號","121.485086666667","24.9912","6500300","中和區"
"235038","185-VK","2017/06/17 18:09:03","新北市中和區景平路200號","121.515476666667","24.9923766666667","6500300","中和區"
"235067","255-BX","2017/06/17 17:55:04","新北市中和區和城路一段271巷1號","121.48552","24.9919316666667","6500300","中和區"
"235043","352-BY","2017/06/17 18:09:05","新北市中和區中正路637巷60弄61號","121.485391666667","24.99281","6500300","中和區"
"235051","376-QA","2017/06/17 15:56:07","新北市中和區員山路36巷13號","121.484075","24.990835","6500300","中和區"
"235061","378-QA","2017/06/17 18:08:58","新北市中和區和城路一段271巷1號","121.485561666667","24.9920383333333","6500300","中和區"
"235050","4979-A6","2017/06/17 15:49:14","新北市中和區員山路36巷13號","121.48436","24.99107","6500300","中和區"
"235069","4980-A6","2017/06/17 18:08:57","新北市中和區員山路36巷16-6號","121.485253333333","24.9921616666667","6500300","中和區"
"235070","558-UM","2017/06/17 18:09:04","新北市中和區員山路36巷16-2號","121.485243333333","24.9915783333333","6500300","中和區"
"235045","565-BX","2017/06/17 18:08:57","新北市中和區員山路36巷13號","121.484245","24.9910016666667","6500300","中和區"
"235054","640-BX","2017/06/17 18:08:53","新北市土城區延壽路44巷1-1號","121.470395","24.9919016666667","6500300","中和區"
"235071","783-BX","2017/06/17 18:09:01","新北市中和區員山路36巷16-3號","121.48528","24.9911166666667","6500300","中和區"
"235062","800-TS","2017/06/17 18:08:57","新北市中和區民樂路81號","121.484768333333","25.00141","6500300","中和區"
"235052","805-TS","2017/06/17 18:09:07","新北市中和區中正路637巷52弄1號","121.485401666667","24.9933883333333","6500300","中和區"
"235037","AAC-213","2017/06/17 18:08:55","新北市中和區中正路273-2號","121.495661666667","24.993565","6500300","中和區"
"235059","AAC-215","2017/06/17 18:09:02","新北市中和區員山路36巷16-3號","121.485003333333","24.9912766666667","6500300","中和區"
"247006","341-TH","2017/06/17 18:08:56","新北市五股區中直路15號","121.423471666667","25.1110733333333","6501400","蘆洲區"
"247008","339-TH","2017/06/17 18:09:04","新北市五股區成泰路四段22巷6-4號","121.453986666667","25.10524","6501400","蘆洲區"
"247014","057-VK","2017/06/17 18:09:01","新北市林口區太平里180號","121.366565","25.1346383333333","6501400","蘆洲區"
"247022","002-UY","2017/06/17 18:09:04","新北市五股區更洲路47號","121.455475","25.078165","6501400","蘆洲區"
"226004","312-R5","2017/06/17 18:08:56","新北市平溪區靜安路二段196號","121.723431666667","25.0219066666667","6502400","平溪區"
"228003","097-TW","2017/06/17 18:09:05","新北市貢寮區真理里美艷山街6-2號","121.928991666667","25.0607","6502600","貢寮區"
"228001","212-TW","2017/06/17 18:08:57","新北市貢寮區真理里新港街26巷55弄2-1號","121.927381666667","25.0528633333333","6502600","貢寮區"
"228002","585-TW","2017/06/17 18:08:56","新北市貢寮區福連里福興街37-2號","121.99231","25.011695","6502600","貢寮區"
"224006","676-BX","2017/06/17 18:09:04","新北市瑞芳區三爪子坑路106巷1-11號","121.808193333333","25.1051583333333","6501200","瑞芳區"
"224002","639-TC","2017/06/17 18:08:53","新北市瑞芳區三爪子坑路94-9號","121.808948333333","25.105295","6501200","瑞芳區"
"224011","420-VK","2017/06/17 18:09:03","新北市瑞芳區明燈路二段2巷8號","121.813933333333","25.1083","6501200","瑞芳區"
"224009","285-BY","2017/06/17 18:08:47","新北市瑞芳區金光路115號","121.853563333333","25.1062516666667","6501200","瑞芳區"
"224008","275-VK","2017/06/17 18:08:56","新北市瑞芳區三爪子坑路335號","121.818775","25.10507","6501200","瑞芳區"
"224007","273-VK","2017/06/17 18:09:04","新北市瑞芳區大寮路84號","121.780483333333","25.10126","6501200","瑞芳區"
"224005","271-BY","2017/06/17 18:08:52","新北市瑞芳區深澳路63號","121.818006666667","25.1292766666667","6501200","瑞芳區"
"227002","642-TC","2017/06/17 18:09:11","新北市雙溪區雙溪里太平路19號","121.864225","25.03538","6502500","雙溪區"
"253006","032-BX","2017/06/17 18:09:07","新北市石門區老梅路52巷21號","121.546446666667","25.2885616666667","6502200","石門區"
"253005","295-VK","2017/06/17 18:09:02","新北市石門區福安街27號","121.568835","25.2923066666667","6502200","石門區"
"208001","742-BX","2017/06/17 18:09:05","新北市金山區磺港里磺港路113號","121.646215","25.2266933333333","6502700","金山區"
"208003","665-BX","2017/06/17 18:09:05","新北市金山區民生路4號","121.649643333333","25.2246916666667","6502700","金山區"
"251004","009-UM","2017/06/17 18:09:09","新北市淡水區民族路87號","121.462798333333","25.13396","6501000","淡水區"
"251002","012-UM","2017/06/17 18:09:05","新北市淡水區中正東路一段12號","121.452266666667","25.1627866666667","6501000","淡水區"
"251014","180-VK","2017/06/17 18:09:06","新北市淡水區南平14-2號","121.485893333333","25.2207616666667","6501000","淡水區"
"251008","181-VK","2017/06/17 18:08:55","新北市淡水區中正東路二段5巷1號","121.458508333333","25.159","6501000","淡水區"
"251010","413-VK","2017/06/17 18:09:04","新北市淡水區中正路二段50巷10號","121.419863333333","25.1834","6501000","淡水區"
"251012","441-VK","2017/06/17 18:09:07","新北市淡水區北新路三段162號","121.492376666667","25.191925","6501000","淡水區"
"251016","442-VK","2017/06/17 18:09:04","新北市淡水區下圭柔山13號","121.451316666667","25.2008983333333","6501000","淡水區"
"251005","443-VK","2017/06/17 18:09:08","新北市淡水區水源街一段122巷23號","121.447208333333","25.17117","6501000","淡水區"
"251001","559-UM","2017/06/17 18:09:08","新北市淡水區自強路110-8號","121.461663333333","25.1313616666667","6501000","淡水區"
"251006","561-UM","2017/06/17 18:08:59","新北市淡水區新民街76巷36弄1號","121.439448333333","25.1780383333333","6501000","淡水區"
"251009","575-R6","2017/06/17 18:08:56","新北市淡水區大忠街34巷10號","121.443411666667","25.175455","6501000","淡水區"
"251011","650-BX","2017/06/17 18:08:56","新北市淡水區三空泉9-2號","121.474478333333","25.163565","6501000","淡水區"
"251003","673-BX","2017/06/17 18:09:09","新北市淡水區北新路180號","121.449318333333","25.1786066666667","6501000","淡水區"
"207003","550-UM","2017/06/17 18:09:04","新北市萬里區野柳里港西路10號","121.685071666667","25.2039733333333","6502800","萬里區"
"207004","225-TW","2017/06/17 18:09:04","新北市萬里區中幅里中福路111號","121.6766","25.1687816666667","6502800","萬里區"
"252005","073-UM","2017/06/17 15:42:02","新北市三芝區埔坪里埔頭坑41號","121.504588333333","25.2644633333333","6502100","三芝區"
"252002","178-VK","2017/06/17 18:08:48","新北市三芝區中山路二段43號","121.502995","25.2550683333333","6502100","三芝區"
"252003","249-BX","2017/06/17 18:08:55","新北市三芝區埔頭里埔頭43-3號","121.499971666667","25.2614683333333","6502100","三芝區"
"252001","292-VK","2017/06/17 18:08:58","新北市三芝區中興街二段2號","121.498298333333","25.2565966666667","6502100","三芝區"
"208002","170-UY","2017/06/17 18:08:59","新北市金山區三界壇路99巷25號","121.617533333333","25.2271566666667","6502700","金山區"
"237004","078-UY","2017/06/17 18:09:02","新北市三峽區大埔路162號","121.370625","24.897675","6500900","三峽區"
"237007","153-BY","2017/06/17 18:09:03","新北市三峽區中正路二段342號","121.365881666667","24.91028","6500900","三峽區"
"237009","210-TH","2017/06/17 18:09:05","新北市三峽區大仁路53號","121.365373333333","24.9374533333333","6500900","三峽區"
"237013","252-BX","2017/06/17 18:08:51","新北市三峽區長泰街42號","121.378375","24.9321933333333","6500900","三峽區"
"237012","275-BY","2017/06/17 18:09:08","新北市三峽區民生街19巷7弄38號","121.377426666667","24.9354533333333","6500900","三峽區"
"237008","302-VK","2017/06/17 18:09:00","新北市三峽區白雞44-31號","121.377578333333","24.9098766666667","6500900","三峽區"
"237014","433-BY","2017/06/17 18:09:08","新北市三峽區復興路163號","121.370346666667","24.9384466666667","6500900","三峽區"
"237006","5529-G3","2017/06/17 18:09:00","新北市三峽區溪東路89號","121.40133","24.9346633333333","6500900","三峽區"
"237011","572-TV","2017/06/17 18:09:03","新北市三峽區溪東路21巷1號","121.399623333333","24.9351333333333","6500900","三峽區"
"237016","649-BX","2017/06/17 18:09:04","新北市三峽區紫新路48號","121.421935","24.9221083333333","6500900","三峽區"
"237010","706-TV","2017/06/17 18:09:00","新北市三峽區民族街91號","121.369418333333","24.92916","6500900","三峽區"
"237005","AKY-6261","2017/06/17 18:08:58","新北市三峽區文化路65巷10號","121.371991666667","24.9356483333333","6500900","三峽區"
"236073","105-UM","2017/06/17 18:08:49","新北市土城區石門路32巷2號","121.457788333333","24.96483","6501300","土城區"
"236043","107-UM","2017/06/17 18:08:48","新北市土城區裕生路82巷2號","121.447568333333","24.9859616666667","6501300","土城區"
"236079","166-UM","2017/06/17 18:09:09","新北市土城區永寧路32巷26號","121.428506666667","24.960775","6501300","土城區"
"236031","253-BX","2017/06/17 18:09:01","新北市土城區城林路6巷80號","121.438418333333","24.9797583333333","6501300","土城區"
"236027","269-VK","2017/06/17 18:09:02","新北市土城區承天路18號","121.439331666667","24.9635683333333","6501300","土城區"
"236015","270-VK","2017/06/17 18:09:08","新北市土城區學府路一段169號","121.452668333333","24.985515","6501300","土城區"
"236038","271-VK","2017/06/17 18:08:49","新北市土城區青雲路449號","121.45881","24.97516","6501300","土城區"
"236023","401-BY","2017/06/17 18:08:51","新北市土城區城林路6巷80號","121.438623333333","24.9797216666667","6501300","土城區"
"236059","912-UM","2017/06/17 18:09:01","新北市土城區永寧路1號","121.430548333333","24.9648066666667","6501300","土城區"
"236049","913-UM","2017/06/17 18:08:51","新北市土城區明德路一段365-1號","121.453593333333","24.979005","6501300","土城區"
"236063","915-UM","2017/06/17 18:09:01","新北市土城區金城路二段23-1號","121.447758333333","24.9762166666667","6501300","土城區"
"236055","AAC-216","2017/06/17 18:09:07","新北市土城區中華路二段100號","121.438138333333","24.9743666666667","6501300","土城區"
"242021","AAC-296","2017/06/17 18:08:37","新北市新莊區中正路150號","121.451638333333","25.0360366666667","6500500","新莊區"
"242029","986-R7","2017/06/17 18:09:04","新北市新莊區中平路154號","121.444655","25.0471883333333","6500500","新莊區"
"242048","751-BX","2017/06/17 18:08:50","新北市新莊區萬安街7號","121.421623333333","25.0248966666667","6500500","新莊區"
"242025","615-BX","2017/06/17 18:09:05","新北市新莊區五權一路120號","121.460193333333","25.0683816666667","6500500","新莊區"
"242023","613-BX","2017/06/17 18:08:53","新北市新莊區幸福路67號","121.45714","25.0493716666667","6500500","新莊區"
"242027","612-BX","2017/06/17 18:09:06","新北市新莊區思源路373號","121.459821666667","25.0510116666667","6500500","新莊區"
"242036","566-BX","2017/06/17 18:09:09","新北市新莊區後港一路65巷9弄2號","121.426176666667","25.02708","6500500","新莊區"
"242042","497-BY","2017/06/17 18:09:07","新北市新莊區天祥街39號","121.417016666667","25.0286983333333","6500500","新莊區"
"242004","442-UM","2017/06/17 18:09:04","新北市新莊區自由街12號","121.455755","25.04756","6500500","新莊區"
"242046","441-UM","2017/06/17 18:08:54","新北市新莊區福營路283號","121.427271666667","25.02922","6500500","新莊區"
"242051","440-UM","2017/06/17 18:09:03","新北市新莊區民本街25巷11號","121.42886","25.0194716666667","6500500","新莊區"
"242031","415-TV","2017/06/17 18:09:10","新北市新莊區新泰路277巷30號","121.444393333333","25.0402716666667","6500500","新莊區"
"242002","413-TV","2017/06/17 18:09:05","新北市新莊區新莊路56號","121.457876666667","25.0368133333333","6500500","新莊區"
"242039","400-BY","2017/06/17 18:08:51","新北市新莊區民安東路35號","121.428755","25.0209383333333","6500500","新莊區"
"242061","362-BY","2017/06/17 18:08:57","新北市新莊區新樹路226號","121.433565","25.0198133333333","6500500","新莊區"
"242058","353-BY","2017/06/17 18:09:05","新北市新莊區新北大道七段180號","121.415198333333","25.031395","6500500","新莊區"
"242011","132-UY","2017/06/17 18:09:02","新北市新莊區中港路中慶巷47號","121.448696666667","25.05374","6500500","新莊區"
"242019","135-UY","2017/06/17 18:09:07","新北市新莊區明中街51巷1號","121.456776666667","25.039725","6500500","新莊區"
"242044","172-VK","2017/06/17 18:08:51","新北市新莊區雙鳳路157號","121.412808333333","25.0269166666667","6500500","新莊區"
"242007","173-VK","2017/06/17 18:08:29","新北市新莊區自信街75巷14號","121.455943333333","25.0488266666667","6500500","新莊區"
"242013","175-VK","2017/06/17 18:09:04","新北市新莊區中和街125巷1號","121.447135","25.0485533333333","6500500","新莊區"
"242056","176-VK","2017/06/17 18:08:58","新北市新莊區豐年街豐1巷41號","121.44791","25.031395","6500500","新莊區"
"242034","347-TH","2017/06/17 18:09:06","新北市新莊區新豐街65號","121.446321666667","25.03354","6500500","新莊區"
"242017","348-TH","2017/06/17 18:08:49","新北市新莊區中和街60巷17號","121.448756666667","25.044845","6500500","新莊區"
"242053","349-TH","2017/06/17 18:08:52","新北市新莊區光華街50號","121.42858","25.0117016666667","6500500","新莊區"
"242015","350-TH","2017/06/17 18:09:10","新北市新莊區中平路132巷22號","121.445808333333","25.0467066666667","6500500","新莊區"
"242009","351-TH","2017/06/17 18:09:02","新北市新莊區昌平街59巷36號","121.453705","25.0532083333333","6500500","新莊區"
"238015","755-BX","2017/06/17 18:08:57","新北市樹林區文德街3巷41號","121.417943333333","24.9916833333333","6500700","樹林區"
"238023","601-UM","2017/06/17 18:08:54","新北市樹林區龍興街31巷19號","121.403711666667","25.016115","6500700","樹林區"
"238019","599-UM","2017/06/17 18:09:07","新北市樹林區水源街15號","121.425123333333","24.9830033333333","6500700","樹林區"
"238018","571-TV","2017/06/17 18:08:50","新北市樹林區樹新路221號","121.431133333333","25.000455","6500700","樹林區"
"238024","5061-A6","2017/06/17 18:08:53","新北市樹林區中山路三段186號","121.38727","24.9690066666667","6500700","樹林區"
"238022","312-TH","2017/06/17 18:09:01","新北市樹林區太平路150巷7號","121.418095","24.9778233333333","6500700","樹林區"
"238021","311-TH","2017/06/17 18:09:00","新北市樹林區柑園街一段33巷6-5號","121.404208333333","24.9593166666667","6500700","樹林區"
"238025","303-VK","2017/06/17 18:08:56","新北市樹林區保安街二段103號","121.415703333333","25.0012816666667","6500700","樹林區"
"238017","283-BY","2017/06/17 18:08:54","新北市樹林區三俊街2號","121.410846666667","25.01515","6500700","樹林區"
"238014","282-BY","2017/06/17 18:09:05","新北市樹林區千歲街61巷40弄17號","121.42611","24.9992433333333","6500700","樹林區"
"238020","268-VK","2017/06/17 18:09:00","新北市樹林區三龍街94巷24號","121.414356666667","25.0175316666667","6500700","樹林區"
"238026","172-UY","2017/06/17 18:09:04","新北市樹林區佳園路一段4號","121.392645","24.9716716666667","6500700","樹林區"
"238016","169-UY","2017/06/17 18:08:51","新北市樹林區復興路295巷20弄5號","121.419203333333","24.9884083333333","6500700","樹林區"
"239007","AAC-297","2017/06/17 18:08:55","新北市鶯歌區尖山埔路64號","121.348493333333","24.9510766666667","6500800","鶯歌區"
"239006","891-R6","2017/06/17 18:09:01","新北市鶯歌區鶯桃路383號","121.333508333333","24.9635716666667","6500800","鶯歌區"
"239008","527-UM","2017/06/17 18:09:07","新北市鶯歌區國際一路14號","121.336185","24.97657","6500800","鶯歌區"
"239005","526-UM","2017/06/17 18:08:52","新北市鶯歌區鶯桃路668巷74-1號","121.329918333333","24.9717483333333","6500800","鶯歌區"
"239001","417-VK","2017/06/17 18:08:59","新北市鶯歌區國中街62號","121.342018333333","24.9431466666667","6500800","鶯歌區"
"239003","360-BY","2017/06/17 18:09:04","新北市鶯歌區福安街58號","121.335515","24.965245","6500800","鶯歌區"
"239002","359-BY","2017/06/17 18:09:07","新北市鶯歌區國慶街21號","121.349601666667","24.9561466666667","6500800","鶯歌區"
"239004","193-VK","2017/06/17 18:08:56","新北市鶯歌區尖山路166巷25號","121.345026666667","24.9489333333333","6500800","鶯歌區"
"221036","130-UY","2017/06/17 18:09:08","新北市汐止區大同路三段42號","121.667218333333","25.076755","6501100","汐止區"
"221015","131-UY","2017/06/17 18:08:44","新北市汐止區鄉長路二段99號","121.664961666667","25.0859566666667","6501100","汐止區"
"221010","269-BY","2017/06/17 18:09:00","新北市汐止區汐萬路二段275巷3弄1號","121.645278333333","25.0888233333333","6501100","汐止區"
"221012","278-VK","2017/06/17 18:08:57","新北市汐止區保一街67號","121.674331666667","25.07999","6501100","汐止區"
"221023","279-VK","2017/06/17 15:16:23","新北市汐止區康寧街901號","121.651783333333","25.07501","6501100","汐止區"
"221032","280-BY","2017/06/17 18:09:07","新北市汐止區力行街16號","121.617018333333","25.050795","6501100","汐止區"
"221027","281-BY","2017/06/17 18:09:00","新北市汐止區和平街3-1號","121.663343333333","25.070635","6501100","汐止區"
"221038","297-VK","2017/06/17 18:08:51","新北市汐止區水源路一段238巷5弄1號","121.653988333333","25.0607","6501100","汐止區"
"221029","298-VK","2017/06/17 18:09:02","新北市汐止區樟樹二路134號","121.639966666667","25.0657433333333","6501100","汐止區"
"221021","299-VK","2017/06/17 15:13:32","新北市汐止區汐萬路一段256巷3號","121.652061666667","25.0747916666667","6501100","汐止區"
"221035","622-UM","2017/06/17 18:08:59","新北市汐止區大同路二段268號","121.65462","25.066195","6501100","汐止區"
"221025","623-UM","2017/06/17 18:09:03","新北市汐止區秀峰路151巷1號","121.660846666667","25.062","6501100","汐止區"
"221002","707-TV","2017/06/17 18:08:54","新北市汐止區福德一路197號","121.635466666667","25.0656366666667","6501100","汐止區"
"221018","753-BX","2017/06/17 18:08:51","新北市汐止區招商街19巷25號","121.667643333333","25.0682283333333","6501100","汐止區"
