"lineid","car","time","location","longitude","latitude","cityid","cityname"
"234046","148-BY","2017/06/17 20:08:55","新北市永和區成功路一段16巷5號","121.526598333333","25.0054283333333","6500400","永和區"
"234013","149-BY","2017/06/17 20:08:56","新北市永和區永貞路387號","121.507963333333","25.0087383333333","6500400","永和區"
"234007","207-UY","2017/06/17 20:08:55","新北市永和區保順路37巷8號","121.503088333333","25.0104733333333","6500400","永和區"
"234081","298-R6","2017/06/17 20:08:56","新北市永和區林森路112巷12弄8號","121.522625","25.004535","6500400","永和區"
"234038","336-UY","2017/06/17 20:08:52","新北市永和區成功路一段76號","121.526663333333","25.003215","6500400","永和區"
"234064","337-UY","2017/06/17 20:08:56","新北市永和區永元路95巷1號","121.522295","25.001865","6500400","永和區"
"234086","338-UY","2017/06/17 20:08:52","新北市永和區福和路82-1號","121.52287","25.008105","6500400","永和區"
"234070","552-UM","2017/06/17 20:08:54","新北市永和區福和路237巷1-1號","121.518508333333","25.007235","6500400","永和區"
"234054","553-UM","2017/06/17 20:09:06","新北市永和區博愛街20巷1號","121.517958333333","25.015705","6500400","永和區"
"234017","745-BX","2017/06/17 20:09:02","新北市永和區永和路二段243號","121.515768333333","25.0148733333333","6500400","永和區"
"234030","746-BX","2017/06/17 20:08:51","新北市永和區民權路49巷35號","121.521951666667","24.9975916666667","6500400","永和區"
"234061","AAD-866","2017/06/17 20:09:03","新北市永和區中正路283巷57號","121.515581666667","24.9989266666667","6500400","永和區"
"234042","862-TW","2017/06/17 20:09:00","新北市永和區雙和街14號","121.509498333333","25.0019733333333","6500400","永和區"
"234050","863-TW","2017/06/17 20:09:09","新北市永和區環河西路二段101號","121.506401666667","25.01478","6500400","永和區"
"234011","9373-KE","2017/06/17 20:08:54","新北市永和區仁愛路352巷92弄16號","121.50133","25.0082316666667","6500400","永和區"
"249005","172-UM","2017/06/17 20:08:55","新北市八里區下罟子50-1號","121.383775","25.1381116666667","6502300","八里區"
"249001","173-UM","2017/06/17 20:08:57","新北市八里區中華路二段312號","121.403723333333","25.1483983333333","6502300","八里區"
"249004","303-UY","2017/06/17 20:08:58","新北市八里區中山路一段217巷76號","121.412205","25.1576933333333","6502300","八里區"
"249002","305-UY","2017/06/17 20:09:05","新北市八里區龍米路一段51號","121.45649","25.1193233333333","6502300","八里區"
"249003","593-UM","2017/06/17 20:09:00","新北市八里區中山路二段540巷26號","121.397278333333","25.1468633333333","6502300","八里區"
"248014","025-BX","2017/06/17 20:08:54","新北市五股區五福路14巷29號","121.4354","25.0889916666667","6501500","五股區"
"248016","026-BX","2017/06/17 20:09:06","新北市五股區成泰路三段577巷80弄72號","121.448938333333","25.1047616666667","6501500","五股區"
"248008","095-VK","2017/06/17 20:09:04","新北市五股區中興路一段1巷12弄21號","121.469391666667","25.0707233333333","6501500","五股區"
"248020","225-UY","2017/06/17 20:09:08","新北市五股區凌雲路二段10號","121.445741666667","25.1025133333333","6501500","五股區"
"248012","247-BX","2017/06/17 19:38:37","新北市五股區民義路一段85-2號","121.433941666667","25.085265","6501500","五股區"
"248004","655-BX","2017/06/17 20:09:00","新北市五股區成泰路一段105號","121.43581","25.0711633333333","6501500","五股區"
"248002","678-BX","2017/06/17 20:09:04","新北市五股區成泰路三段311-2號","121.447928333333","25.094885","6501500","五股區"
"248010","682-TV","2017/06/17 20:09:01","新北市五股區成泰路一段7巷11號","121.433086666667","25.06681","6501500","五股區"
"234023","9380-KE","2017/06/17 20:08:55","新北市永和區永和路二段28號","121.514653333333","25.01063","6500400","永和區"
"234077","969-R7","2017/06/17 20:08:54","新北市永和區民光街20巷1號","121.515833333333","24.9958433333333","6500400","永和區"
"234074","AAC-211","2017/06/17 20:08:50","新北市永和區豫溪街132號","121.520953333333","25.0103016666667","6500400","永和區"
"234067","AAC-212","2017/06/17 20:09:07","新北市永和區永貞路335號","121.509553333333","25.0070783333333","6500400","永和區"
"234003","AAC-295","2017/06/17 20:06:59","新北市永和區中正路664號","121.516801666667","25.0088783333333","6500400","永和區"
"244019","403-UM","2017/06/17 20:08:51","新北市林口區太平里180號","121.36658","25.1346216666667","6501700","林口區"
"243013","AAD-798","2017/06/17 20:08:59","新北市泰山區明志路三段74巷25弄2號","121.423726666667","25.0416966666667","6501600","泰山區"
"243009","297-R6","2017/06/17 20:08:54","新北市泰山區泰林路二段142巷9號","121.434726666667","25.060205","6501600","泰山區"
"243015","380-SR","2017/06/17 20:08:55","新北市泰山區明志路二段10號","121.429965","25.0535666666667","6501600","泰山區"
"243014","421-VK","2017/06/17 20:08:56","新北市泰山區明志路一段37號","121.433641666667","25.0653916666667","6501600","泰山區"
"243016","539-UM","2017/06/17 20:08:46","新北市泰山區貴陽街3號","121.421118333333","25.0334983333333","6501600","泰山區"
"243010","548-UM","2017/06/17 20:09:08","新北市泰山區明志路二段136巷19號","121.42617","25.0518783333333","6501600","泰山區"
"243011","549-UM","2017/06/17 20:09:06","新北市泰山區明志路三段182巷24號","121.42351","25.039405","6501600","泰山區"
"243012","646-TV","2017/06/17 20:08:59","新北市泰山區楓江路67-5號","121.436615","25.0632916666667","6501600","泰山區"
"222003","436-BY","2017/06/17 20:09:03","新北市深坑區埔新街67號","121.620116666667","25.00229","6501800","深坑區"
"222002","659-BX","2017/06/17 20:08:49","新北市深坑區北深路二段220號","121.612551666667","25.0013066666667","6501800","深坑區"
"222001","696-SL","2017/06/17 20:08:57","新北市深坑區北深路三段187號","121.601368333333","25.0036583333333","6501800","深坑區"
"231040","001-UM","2017/06/17 20:09:07","新北市新店區中正路110號","121.542995","24.9707116666667","6500600","新店區"
"231041","002-UM","2017/06/17 20:08:59","新北市新店區中正路504號","121.533775","24.9825716666667","6500600","新店區"
"231056","0291-UT","2017/06/17 20:08:57","新北市新店區北新路二段187-1號","121.54255","24.9777683333333","6500600","新店區"
"231059","046-UY","2017/06/17 20:08:56","新北市新店區安康路二段142巷20號","121.51161","24.96249","6500600","新店區"
"231061","047-UY","2017/06/17 20:09:08","新北市新店區安興路33-1號","121.515811666667","24.97039","6500600","新店區"
"231060","106-UY","2017/06/17 20:09:00","新北市新店區安康路三段131號","121.489936666667","24.9517966666667","6500600","新店區"
"231051","107-UY","2017/06/17 20:09:08","新北市新店區中央二街5巷3號","121.529058333333","24.9729316666667","6500600","新店區"
"231048","108-UY","2017/06/17 20:08:59","新北市新店區永華街61號","121.544711666667","24.9755","6500600","新店區"
"231052","187-VK","2017/06/17 20:08:55","新北市新店區新烏路三段140號","121.552163333333","24.9028816666667","6500600","新店區"
"231057","256-BX","2017/06/17 20:08:56","新北市新店區花園一路一段2號","121.55312","24.932375","6500600","新店區"
"231063","268-BY","2017/06/17 20:08:55","新北市新店區黎明路56巷1號","121.502363333333","24.947755","6500600","新店區"
"231050","AAD-862","2017/06/17 20:08:52","新北市新店區北宜路二段360-1號","121.564746666667","24.9523416666667","6500600","新店區"
"231055","3713-VJ","2017/06/17 20:09:07","新北市新店區中華路42巷37號","121.541288333333","24.96927","6500600","新店區"
"231067","4772-VM","2017/06/17 20:09:03","新北市新店區秀山路64號","121.531748333333","24.960385","6500600","新店區"
"231065","512-UM","2017/06/17 20:08:51","新北市新店區安祥路106巷343號","121.472853333333","24.9593233333333","6500600","新店區"
"231054","513-UM","2017/06/17 20:08:50","新北市新店區檳榔路34號","121.541456666667","24.9638483333333","6500600","新店區"
"231064","515-UM","2017/06/17 20:08:59","新北市新店區安光路8-1號","121.514078333333","24.96391","6500600","新店區"
"231045","617-UM","2017/06/17 20:08:58","新北市新店區北宜路二段5號","121.547681666667","24.9519766666667","6500600","新店區"
"231042","641-BX","2017/06/17 20:09:02","新北市新店區中興路二段224號","121.548093333333","24.9751433333333","6500600","新店區"
"231068","718-UY","2017/06/17 20:09:02","新北市新店區北新路二段178號","121.54298","24.9760133333333","6500600","新店區"
"231049","719-UM","2017/06/17 20:09:09","新北市新店區明德路11號","121.542303333333","24.9767683333333","6500600","新店區"
"231062","720-UM","2017/06/17 20:08:48","新北市新店區安康路一段266巷4號","121.519845","24.963965","6500600","新店區"
"231044","897-TW","2017/06/17 20:09:07","新北市新店區寶元路一段15巷11號","121.542016666667","24.9871483333333","6500600","新店區"
"231043","899-TW","2017/06/17 20:09:04","新北市新店區中正路309號","121.536621666667","24.9749766666667","6500600","新店區"
"231066","AKT-0513","2017/06/17 20:08:53","新北市新店區柴埕路52巷10號","121.51194","24.9649966666667","6500600","新店區"
"241011","013-R5","2017/06/17 20:08:48","新北市三重區三和路三段47巷12號","121.495975","25.07169","6500200","三重區"
"241028","022-UY","2017/06/17 20:09:01","新北市三重區仁化街130號","121.494541666667","25.0579816666667","6500200","三重區"
"241008","059-VK","2017/06/17 20:08:57","新北市三重區永福街197巷37弄20號","121.477661666667","25.07409","6500200","三重區"
"241009","060-VK","2017/06/17 20:09:06","新北市三重區力行路二段182-3號","121.483375","25.0776383333333","6500200","三重區"
"241031","061-VK","2017/06/17 20:08:54","新北市三重區過圳街9-1號","121.488831666667","25.0602133333333","6500200","三重區"
"241015","062-VK","2017/06/17 20:08:56","新北市三重區福德北路43號","121.502308333333","25.0649283333333","6500200","三重區"
"241017","063-VK","2017/06/17 20:08:56","新北市三重區大同北路221巷66號","121.492933333333","25.066675","6500200","三重區"
"241024","065-VK","2017/06/17 20:08:56","新北市三重區中正北路294號","121.480175","25.0689716666667","6500200","三重區"
"241026","066-VK","2017/06/17 20:09:02","新北市三重區福德南路61號","121.502593333333","25.060735","6500200","三重區"
"241002","090-VK","2017/06/17 20:09:05","新北市三重區仁忠街35號","121.495738333333","25.0819533333333","6500200","三重區"
"241003","091-VK","2017/06/17 20:08:58","新北市三重區仁愛街435號","121.490216666667","25.081975","6500200","三重區"
"241030","156-TC","2017/06/17 20:08:55","新北市三重區成功路145巷35號","121.487841666667","25.0531816666667","6500200","三重區"
"241005","262-UM","2017/06/17 20:08:55","新北市三重區五華街180巷32號","121.488021666667","25.0853566666667","6500200","三重區"
"241013","265-UM","2017/06/17 20:08:47","新北市三重區三和路三段139巷18號","121.493221666667","25.0738733333333","6500200","三重區"
"241016","266-UM","2017/06/17 20:09:04","新北市三重區中正北路23號","121.492278333333","25.06141","6500200","三重區"
"241022","267-UM","2017/06/17 20:08:55","新北市三重區過圳街31巷2號","121.489133333333","25.060565","6500200","三重區"
"241018","268-UM","2017/06/17 20:09:03","新北市三重區正義北路256巷79號","121.494191666667","25.068095","6500200","三重區"
"241032","269-UM","2017/06/17 20:08:47","新北市三重區捷運路65號","121.48337","25.0556566666667","6500200","三重區"
"241025","271-UM","2017/06/17 20:08:52","新北市三重區中正北路430-3號","121.474483333333","25.0707883333333","6500200","三重區"
"241007","398-BY","2017/06/17 20:08:49","新北市三重區三和路四段111-14號","121.486901666667","25.0776766666667","6500200","三重區"
"241020","412-TH","2017/06/17 20:08:55","新北市三重區大智街179巷13號","121.49037","25.0726766666667","6500200","三重區"
"241004","475-VK","2017/06/17 20:09:00","新北市三重區仁愛街406巷3號","121.490645","25.081285","6500200","三重區"
"241019","478-VK","2017/06/17 20:08:59","新北市三重區自強路二段20-1號","121.48965","25.06923","6500200","三重區"
"241014","543-UM","2017/06/17 20:08:58","新北市三重區安和路38號","121.500873333333","25.06927","6500200","三重區"
"241023","545-UM","2017/06/17 20:08:50","新北市三重區頂崁街221號","121.47706","25.0679683333333","6500200","三重區"
"241001","547-UM","2017/06/17 20:08:54","新北市三重區溪尾街24-1號","121.491128333333","25.0764516666667","6500200","三重區"
"241006","AAD-863","2017/06/17 20:09:00","新北市三重區力行路二段75號","121.482386666667","25.07557","6500200","三重區"
"241035","743-BX","2017/06/17 20:08:49","新北市三重區正義北路33巷48號","121.498988333333","25.0639416666667","6500200","三重區"
"241012","887-TS","2017/06/17 20:08:58","新北市三重區仁愛街125巷99號","121.498488333333","25.0763983333333","6500200","三重區"
"241029","942-UM","2017/06/17 20:08:58","新北市三重區光明路32巷16號","121.49173","25.0587433333333","6500200","三重區"
"235066","003-UY","2017/06/17 20:08:59","新北市中和區水源路127巷11號","121.508061666667","25.003805","6500300","中和區"
"235053","031-BX","2017/06/17 20:08:53","新北市中和區興南路一段105巷20弄4號","121.510313333333","24.9857333333333","6500300","中和區"
"235056","096-UM","2017/06/17 20:09:00","新北市中和區中山路三段170巷4弄2號","121.472823333333","25.0068566666667","6500300","中和區"
"235039","097-UM","2017/06/17 20:08:58","新北市中和區景平路278巷14弄16號","121.515031666667","24.9931883333333","6500300","中和區"
"235065","098-UM","2017/06/17 20:09:06","新北市中和區中山路二段183號","121.500523333333","25.0027616666667","6500300","中和區"
"235040","150-BY","2017/06/17 20:08:49","新北市中和區保健路29巷1-3號","121.508816666667","24.9979233333333","6500300","中和區"
"235058","151-BY","2017/06/17 20:08:57","新北市中和區員山路104號","121.481113333333","24.9954683333333","6500300","中和區"
"235055","183-VK","2017/06/17 20:09:01","新北市中和區德光路38-1號","121.470431666667","25.0048533333333","6500300","中和區"
"235038","185-VK","2017/06/17 20:09:08","新北市中和區自立路6號","121.522458333333","24.9965133333333","6500300","中和區"
"235044","293-VK","2017/06/17 20:08:57","新北市中和區南山路146巷15號","121.503315","24.992415","6500300","中和區"
"235072","301-VK","2017/06/17 20:08:54","新北市新店區安康路二段320巷6號","121.504641666667","24.959225","6500300","中和區"
"235051","376-QA","2017/06/17 20:09:01","新北市中和區景安路220巷2弄1號","121.50359","24.990755","6500300","中和區"
"235068","377-QA","2017/06/17 20:09:00","新北市中和區福美路301巷11號","121.497453333333","25.0043933333333","6500300","中和區"
"235050","4979-A6","2017/06/17 20:09:05","新北市中和區景新街308號","121.51139","24.991815","6500300","中和區"
"235069","4980-A6","2017/06/17 20:08:57","新北市中和區南山路127巷27弄26號","121.503358333333","24.9980183333333","6500300","中和區"
"235070","558-UM","2017/06/17 20:09:04","新北市中和區圓通路124號","121.498676666667","24.9958416666667","6500300","中和區"
"235054","640-BX","2017/06/17 20:09:05","新北市中和區莒光路147號","121.472686666667","25.0012683333333","6500300","中和區"
"235060","647-TV","2017/06/17 20:08:53","新北市中和區新生街30巷24號","121.482355","25.0039566666667","6500300","中和區"
"235052","805-TS","2017/06/17 20:09:07","新北市中和區華新街71號","121.508171666667","24.9839483333333","6500300","中和區"
"235048","896-TW","2017/06/17 20:08:50","新北市中和區景新街416號","121.512915","24.9889883333333","6500300","中和區"
"235041","157-BY","2017/06/17 20:09:06","新北市中和區永貞路221號","121.513705","25.0035","6500300","中和區"
"235037","AAC-213","2017/06/17 20:08:55","新北市中和區秀朗路三段10巷29弄5號","121.525075","24.99606","6500300","中和區"
"235059","AAC-215","2017/06/17 20:09:02","新北市中和區圓通路335巷33弄11號","121.493171666667","24.9892383333333","6500300","中和區"
"220065","072-UY","2017/06/17 20:09:05","新北市板橋區區運路19號","121.465585","25.0101133333333","6500100","板橋區"
"220106","075-UY","2017/06/17 20:08:54","新北市板橋區民治街96巷22號","121.478638333333","25.03225","6500100","板橋區"
"220069","AAD-861","2017/06/17 20:08:57","新北市板橋區大明街15巷6號","121.458598333333","25.00239","6500100","板橋區"
"247020","893-R6","2017/06/17 20:09:02","新北市蘆洲區民權路106巷5弄2-1號","121.474425","25.08907","6501400","蘆洲區"
"247010","546-UM","2017/06/17 20:09:04","新北市蘆洲區集賢路406號","121.480095","25.081845","6501400","蘆洲區"
"247018","500-BY","2017/06/17 20:08:52","新北市蘆洲區民族路344號","121.476653333333","25.0905483333333","6501400","蘆洲區"
"247006","341-TH","2017/06/17 20:08:55","新北市蘆洲區永安南路二段16巷18號","121.46799","25.077885","6501400","蘆洲區"
"247008","339-TH","2017/06/17 20:08:59","新北市蘆洲區集賢路300號","121.481678333333","25.0852866666667","6501400","蘆洲區"
"247024","337-TH","2017/06/17 20:08:55","新北市蘆洲區光明路88巷19號","121.463315","25.0870616666667","6501400","蘆洲區"
"247002","336-TH","2017/06/17 20:08:53","新北市蘆洲區長安街246巷25號","121.45844","25.08642","6501400","蘆洲區"
"247014","057-VK","2017/06/17 20:09:01","新北市蘆洲區和平路66號","121.46996","25.0793233333333","6501400","蘆洲區"
"247004","056-VK","2017/06/17 20:08:13","新北市蘆洲區永安南路二段328巷15弄6號","121.456395","25.0838083333333","6501400","蘆洲區"
"247012","007-UY","2017/06/17 20:08:56","新北市蘆洲區民族路250巷15號","121.480126666667","25.0891216666667","6501400","蘆洲區"
"247022","002-UY","2017/06/17 20:08:54","新北市蘆洲區三民路173號","121.471076666667","25.0872466666667","6501400","蘆洲區"
"247016","001-UY","2017/06/17 20:08:57","新北市蘆洲區光華路148號","121.46595","25.0822833333333","6501400","蘆洲區"
"224011","420-VK","2017/06/17 20:08:42","新北市瑞芳區崙頂路1-6號","121.847075","25.1047233333333","6501200","瑞芳區"
"208003","665-BX","2017/06/17 20:09:05","新北市金山區海興路35-2號","121.629495","25.2367133333333","6502700","金山區"
"251004","009-UM","2017/06/17 20:01:08","新北市淡水區民族路50巷34號","121.461243333333","25.1358633333333","6501000","淡水區"
"251002","012-UM","2017/06/17 20:08:55","新北市淡水區中正路334號","121.435706666667","25.1731566666667","6501000","淡水區"
"251014","180-VK","2017/06/17 20:09:06","新北市淡水區石頭厝1號","121.458725","25.23554","6501000","淡水區"
"251008","181-VK","2017/06/17 20:08:54","新北市淡水區淡海路72巷30弄1號","121.424396666667","25.182525","6501000","淡水區"
"251010","413-VK","2017/06/17 20:09:04","新北市淡水區新市二路二段2號","121.425323333333","25.1963433333333","6501000","淡水區"
"251012","441-VK","2017/06/17 20:08:54","新北市淡水區淡金路三段230號","121.44903","25.2052566666667","6501000","淡水區"
"251016","442-VK","2017/06/17 20:09:04","新北市淡水區番子田25-9號","121.456048333333","25.2308833333333","6501000","淡水區"
"251005","443-VK","2017/06/17 20:08:48","新北市淡水區學府路123號","121.450575","25.1730333333333","6501000","淡水區"
"251001","559-UM","2017/06/17 20:09:08","新北市淡水區新市二路四段265號","121.44575","25.1924883333333","6501000","淡水區"
"251006","561-UM","2017/06/17 20:08:59","新北市淡水區北新路141巷29號","121.448101666667","25.1795866666667","6501000","淡水區"
"251009","575-R6","2017/06/17 20:08:56","新北市淡水區清水街5號","121.445085","25.1703616666667","6501000","淡水區"
"251003","673-BX","2017/06/17 20:08:49","新北市淡水區中山北路一段271號","121.444618333333","25.1812433333333","6501000","淡水區"
"207003","550-UM","2017/06/17 20:09:04","新北市萬里區大鵬里萬里加投186號","121.642815","25.21563","6502800","萬里區"
"207004","225-TW","2017/06/17 20:09:04","新北市萬里區北基里愛三街13號","121.681856666667","25.1766816666667","6502800","萬里區"
"252005","073-UM","2017/06/17 15:42:02","新北市三芝區埔坪里埔頭坑41號","121.504588333333","25.2644633333333","6502100","三芝區"
"252002","178-VK","2017/06/17 20:09:08","新北市三芝區三民街39巷36號","121.505375","25.2573783333333","6502100","三芝區"
"252001","292-VK","2017/06/17 20:08:58","新北市三芝區公正街66號","121.499778333333","25.2574683333333","6502100","三芝區"
"208002","170-UY","2017/06/17 20:08:59","新北市金山區環金路178號","121.634873333333","25.21717","6502700","金山區"
"237007","153-BY","2017/06/17 20:09:03","新北市三峽區二鬮路136巷133號","121.356421666667","24.9106416666667","6500900","三峽區"
"237012","275-BY","2017/06/17 20:08:48","新北市三峽區安溪路321號","121.370911666667","24.9284933333333","6500900","三峽區"
"237008","302-VK","2017/06/17 20:08:59","新北市三峽區中華路65號","121.372206666667","24.9305333333333","6500900","三峽區"
"237014","433-BY","2017/06/17 20:09:07","新北市三峽區中正路一段67號","121.37525","24.9302483333333","6500900","三峽區"
"237006","5529-G3","2017/06/17 20:09:00","新北市三峽區中正路二段176巷84號","121.364333333333","24.9121666666667","6500900","三峽區"
"237005","AKY-6261","2017/06/17 20:08:58","新北市三峽區三樹路98巷113號","121.3827","24.9387283333333","6500900","三峽區"
"236073","105-UM","2017/06/17 20:08:49","新北市土城區承天路3-1號","121.435976666667","24.9660683333333","6501300","土城區"
"236043","107-UM","2017/06/17 20:09:08","新北市土城區學府路一段146號","121.454931666667","24.987135","6501300","土城區"
"236079","166-UM","2017/06/17 20:09:08","新北市土城區三民路7號","121.420486666667","24.9632333333333","6501300","土城區"
"236031","253-BX","2017/06/17 20:09:00","新北市土城區日新街8巷7號","121.445398333333","24.9873183333333","6501300","土城區"
"236027","269-VK","2017/06/17 20:09:06","新北市土城區明德路二段116號","121.444876666667","24.9842083333333","6501300","土城區"
"236015","270-VK","2017/06/17 20:09:04","新北市土城區廣興街39號","121.455076666667","24.9915016666667","6501300","土城區"
"236038","271-VK","2017/06/17 20:09:09","新北市土城區延吉街296巷1弄1號","121.46448","24.9843633333333","6501300","土城區"
"236023","401-BY","2017/06/17 20:09:03","新北市土城區延吉街111巷12弄10號","121.471646666667","24.9855966666667","6501300","土城區"
"236059","912-UM","2017/06/17 20:09:01","新北市土城區中央路一段330號","121.44319","24.9814133333333","6501300","土城區"
"236049","913-UM","2017/06/17 20:08:31","新北市土城區金城路三段149巷6號","121.468501666667","24.9886666666667","6501300","土城區"
"236063","915-UM","2017/06/17 20:09:01","新北市土城區延和路18巷14號","121.464518333333","24.987995","6501300","土城區"
"236055","AAC-216","2017/06/17 20:09:05","新北市土城區學府路一段148號","121.454788333333","24.9870033333333","6501300","土城區"
"242021","AAC-296","2017/06/17 20:09:00","新北市新莊區新泰路150巷10弄15號","121.448208333333","25.0380083333333","6500500","新莊區"
"242029","986-R7","2017/06/17 20:09:06","新北市新莊區中原路355號","121.444751666667","25.05431","6500500","新莊區"
"242048","751-BX","2017/06/17 20:08:50","新北市新莊區四維路152巷30號","121.421981666667","25.0225183333333","6500500","新莊區"
"242025","615-BX","2017/06/17 20:08:49","新北市新莊區五工三路78巷8號","121.459223333333","25.0652966666667","6500500","新莊區"
"242023","613-BX","2017/06/17 20:09:07","新北市新莊區化成路251號","121.46621","25.0537133333333","6500500","新莊區"
"242027","612-BX","2017/06/17 20:09:05","新北市新莊區中平路288-1號","121.445061666667","25.05109","6500500","新莊區"
"242036","566-BX","2017/06/17 20:08:49","新北市新莊區後港一路130巷9號","121.429678333333","25.0267533333333","6500500","新莊區"
"242042","497-BY","2017/06/17 20:09:07","新北市新莊區青山路一段85-1號","121.40519","25.0288233333333","6500500","新莊區"
"242004","442-UM","2017/06/17 20:08:57","新北市新莊區頭前路88-1號","121.464633333333","25.052525","6500500","新莊區"
"242046","441-UM","2017/06/17 20:08:43","新北市新莊區裕民街55巷1號","121.419283333333","25.0241233333333","6500500","新莊區"
"242051","440-UM","2017/06/17 20:09:05","新北市新莊區民安西路172巷4弄1號","121.425461666667","25.0160316666667","6500500","新莊區"
"242031","415-TV","2017/06/17 20:09:10","新北市新莊區忠孝街29巷4號","121.443625","25.0357416666667","6500500","新莊區"
"242002","413-TV","2017/06/17 20:09:05","新北市新莊區中正路48-2號","121.463965","25.0410383333333","6500500","新莊區"
"242061","362-BY","2017/06/17 20:08:49","新北市新莊區瓊林路瓊英巷9號","121.443383333333","25.0275366666667","6500500","新莊區"
"242058","353-BY","2017/06/17 20:09:07","新北市新莊區八德街145號","121.423588333333","25.0198383333333","6500500","新莊區"
"242011","132-UY","2017/06/17 20:09:02","新北市新莊區中信街67巷6號","121.448648333333","25.0507883333333","6500500","新莊區"
"242019","135-UY","2017/06/17 20:08:57","新北市新莊區民樂街63號","121.457743333333","25.041835","6500500","新莊區"
"242044","172-VK","2017/06/17 20:09:10","新北市新莊區中正路929巷7弄9號","121.411398333333","25.0204683333333","6500500","新莊區"
"242007","173-VK","2017/06/17 20:08:55","新北市新莊區福壽街184巷24號","121.459293333333","25.0530983333333","6500500","新莊區"
"242013","175-VK","2017/06/17 20:09:04","新北市新莊區幸福路678巷3弄2號","121.450516666667","25.0496183333333","6500500","新莊區"
"242056","176-VK","2017/06/17 20:09:04","新北市新莊區新莊路649巷15弄11號","121.445526666667","25.0316533333333","6500500","新莊區"
"242034","347-TH","2017/06/17 20:09:06","新北市新莊區中正路318巷16號","121.446423333333","25.0359366666667","6500500","新莊區"
"242017","348-TH","2017/06/17 20:08:48","新北市新莊區中港路360號","121.451988333333","25.0468433333333","6500500","新莊區"
"242053","349-TH","2017/06/17 20:08:52","新北市新莊區西盛街384號","121.427911666667","25.0130216666667","6500500","新莊區"
"242015","350-TH","2017/06/17 20:08:49","新北市新莊區中平路26巷11號","121.445371666667","25.0432733333333","6500500","新莊區"
"242009","351-TH","2017/06/17 20:09:02","新北市新莊區昌平街37號","121.4548","25.05224","6500500","新莊區"
"238023","601-UM","2017/06/17 20:09:08","新北市樹林區大安路537巷7弄9號","121.413206666667","24.9850216666667","6500700","樹林區"
"238021","311-TH","2017/06/17 20:09:07","新北市樹林區佳園路三段101巷138號","121.398188333333","24.950375","6500700","樹林區"
"221015","131-UY","2017/06/17 20:09:04","新北市汐止區建成路15號","121.6645","25.072485","6501100","汐止區"
"221010","269-BY","2017/06/17 20:09:00","新北市汐止區八連路一段78巷1號","121.642916666667","25.0812266666667","6501100","汐止區"
"221012","278-VK","2017/06/17 20:08:57","新北市汐止區汐平路二段62號","121.697031666667","25.062055","6501100","汐止區"
"221023","279-VK","2017/06/17 15:16:23","新北市汐止區康寧街901號","121.651783333333","25.07501","6501100","汐止區"
"221032","280-BY","2017/06/17 20:09:07","新北市汐止區弘道街11號","121.617066666667","25.0487183333333","6501100","汐止區"
"221027","281-BY","2017/06/17 20:08:49","新北市汐止區中正路133號","121.659975","25.0691966666667","6501100","汐止區"
"221038","297-VK","2017/06/17 20:08:51","新北市汐止區忠孝東路491號","121.66627","25.0741683333333","6501100","汐止區"
"221029","298-VK","2017/06/17 20:09:02","新北市汐止區樟樹一路119巷10弄1號","121.641231666667","25.0645333333333","6501100","汐止區"
"221021","299-VK","2017/06/17 19:44:31","新北市汐止區青山路41-1號","121.656665","25.0613716666667","6501100","汐止區"
"221035","622-UM","2017/06/17 20:08:52","新北市汐止區長江街57巷26號","121.656133333333","25.07246","6501100","汐止區"
"221025","623-UM","2017/06/17 20:09:03","新北市汐止區秀峰路64-1號","121.659785","25.06459","6501100","汐止區"
"221033","647-BX","2017/06/17 20:08:46","新北市汐止區東勢街201巷102號","121.633635","25.0430316666667","6501100","汐止區"
"221002","707-TV","2017/06/17 20:08:54","新北市汐止區工建路332號","121.63389","25.059875","6501100","汐止區"
"221018","753-BX","2017/06/17 20:08:51","新北市汐止區茄福街35巷17號","121.673083333333","25.06665","6501100","汐止區"
"220079","145-BY","2017/06/17 20:08:52","新北市板橋區南雅西路二段205號","121.451258333333","25.013355","6500100","板橋區"
"220093","146-RM","2017/06/17 20:08:53","新北市板橋區長江路二段216號","121.46777","25.0323083333333","6500100","板橋區"
"220080","200-UY","2017/06/17 20:09:06","新北市板橋區大觀路二段37巷41號","121.448833333333","25.0026733333333","6500100","板橋區"
"220082","610-BX","2017/06/17 20:09:03","新北市板橋區篤行路二段58號","121.431625","24.9924016666667","6500100","板橋區"
"220101","245-BX","2017/06/17 20:09:08","新北市板橋區萬板路180號","121.475646666667","25.0238533333333","6500100","板橋區"
"220068","255-TC","2017/06/17 12:10:04","新北市板橋區民生路二段36-1號","121.472493333333","25.0165966666667","6500100","板橋區"
"220090","257-TC","2017/06/17 20:08:54","新北市板橋區幸福路32巷4弄9號","121.461228333333","25.0214783333333","6500100","板橋區"
"220094","267-BY","2017/06/17 20:09:01","新北市板橋區陽明街22號","121.466348333333","25.021755","6500100","板橋區"
"220072","277-BY","2017/06/17 20:08:49","新北市板橋區金門街121巷29號","121.43419","24.9912183333333","6500100","板橋區"
"220064","280-UM","2017/06/17 20:08:52","新北市板橋區漢生東路193巷7-1號","121.470361666667","25.01188","6500100","板橋區"
"220071","283-VK","2017/06/17 20:08:52","新北市板橋區五權街30巷16號","121.464218333333","24.9932783333333","6500100","板橋區"
"220089","285-UM","2017/06/17 20:09:05","新北市板橋區互助街90號","121.460291666667","25.02624","6500100","板橋區"
"220053","285-VK","2017/06/17 20:08:54","新北市板橋區中山路2段267-1號","121.47753","25.0180733333333","6500100","板橋區"
"220083","286-VK","2017/06/17 20:09:03","新北市板橋區僑中二街12巷4號","121.44663","25.010705","6500100","板橋區"
"220081","287-VK","2017/06/17 20:09:06","新北市板橋區僑中一街80巷12弄2號","121.448001666667","25.0129133333333","6500100","板橋區"
"220061","293-UM","2017/06/17 20:08:54","新北市板橋區中山路二段15號","121.472168333333","25.0149766666667","6500100","板橋區"
"220084","296-UM","2017/06/17 20:09:03","新北市板橋區滿平街2巷10號","121.425348333333","24.9894983333333","6500100","板橋區"
"220075","297-UM","2017/06/17 20:09:07","新北市板橋區金華街10巷87-1號","121.458428333333","25.02044","6500100","板橋區"
"220097","299-UM","2017/06/17 20:08:53","新北市板橋區光正街18巷15號","121.462675","25.0178183333333","6500100","板橋區"
"220062","305-R5","2017/06/17 20:08:53","新北市板橋區中山路二段613號","121.485583333333","25.0225866666667","6500100","板橋區"
"220092","307-R5","2017/06/17 20:09:01","新北市板橋區文化路一段139號","121.461995","25.0155016666667","6500100","板橋區"
"220098","317-R6","2017/06/17 20:09:08","新北市板橋區新海路72巷19號","121.462405","25.0224033333333","6500100","板橋區"
"220088","491-VK","2017/06/17 20:07:39","新北市板橋區懷德街117號","121.478706666667","25.0311933333333","6500100","板橋區"
"220103","561-BX","2017/06/17 20:09:00","新北市板橋區自由路26巷2號","121.465783333333","25.0226766666667","6500100","板橋區"
"220068","568-UM","2017/06/17 20:09:06","新北市板橋區中山路二段359號","121.479635","25.0190616666667","6500100","板橋區"
"220091","637-BX","2017/06/17 20:09:04","新北市板橋區文聖街89巷27號","121.478478333333","25.030475","6500100","板橋區"
"220057","686-BX","2017/06/17 20:09:02","新北市板橋區四川路二段128號","121.450331666667","24.99362","6500100","板橋區"
"220054","741-BX","2017/06/17 20:09:03","新北市板橋區忠孝路201巷74號","121.464761666667","25.0043166666667","6500100","板橋區"
"220055","827-TW","2017/06/17 20:08:59","新北市板橋區仁愛路78號","121.46056","24.99944","6500100","板橋區"
"220067","829-TW","2017/06/17 20:09:05","新北市板橋區中山路一段206巷89號","121.471978333333","25.01321","6500100","板橋區"
"220102","830-TW","2017/06/17 20:09:09","新北市板橋區民治街126巷7號","121.47769","25.0313183333333","6500100","板橋區"
"220096","831-TW","2017/06/17 20:08:55","新北市板橋區莒光路127號","121.472816666667","25.023985","6500100","板橋區"
"220074","895-R6","2017/06/17 20:08:56","新北市板橋區文化路一段52巷29號","121.461546666667","25.0110216666667","6500100","板橋區"
"220073","985-R7","2017/06/17 20:09:04","新北市板橋區南雅西路二段2-1號","121.453156666667","25.0087566666667","6500100","板橋區"
"220070","AAC-253","2017/06/17 20:08:55","新北市板橋區實踐路61號","121.463778333333","25.0064266666667","6500100","板橋區"
