"lineid","car","time","location","longitude","latitude","cityid","cityname"
"234046","148-BY","2017/06/17 20:28:55","新北市永和區永利路137號","121.524105","25.0034433333333","6500400","永和區"
"234081","298-R6","2017/06/17 20:29:00","新北市永和區福和路7巷12弄8號","121.524943333333","25.00739","6500400","永和區"
"234038","336-UY","2017/06/17 20:28:59","新北市永和區民樂街31巷19弄6號","121.528398333333","25.0022466666667","6500400","永和區"
"234064","337-UY","2017/06/17 20:28:56","新北市永和區中正路435號","121.517153333333","25.00511","6500400","永和區"
"234086","338-UY","2017/06/17 20:29:07","新北市永和區永和路二段299號","121.516066666667","25.0160833333333","6500400","永和區"
"234054","553-UM","2017/06/17 20:28:59","新北市永和區光復街60巷25號","121.51782","25.0175166666667","6500400","永和區"
"234030","746-BX","2017/06/17 20:28:51","新北市永和區民族街81巷58號","121.520071666667","24.996495","6500400","永和區"
"234061","AAD-866","2017/06/17 20:29:08","新北市永和區得和路51-4號","121.516836666667","25.0001033333333","6500400","永和區"
"234042","862-TW","2017/06/17 20:29:00","新北市永和區安樂路248號","121.514748333333","25.0032166666667","6500400","永和區"
"234050","863-TW","2017/06/17 20:29:06","新北市永和區新生路138巷3弄3號","121.506448333333","25.01443","6500400","永和區"
"234011","9373-KE","2017/06/17 20:28:54","新北市永和區仁愛路352巷122弄13號","121.50067","25.0089133333333","6500400","永和區"
"249001","173-UM","2017/06/17 20:28:57","新北市八里區中山路三段106號","121.393278333333","25.14386","6502300","八里區"
"249004","303-UY","2017/06/17 20:28:58","新北市八里區中山路一段129巷27號","121.41403","25.158595","6502300","八里區"
"249002","305-UY","2017/06/17 20:29:05","新北市八里區龍米路二段125巷23號","121.445815","25.1455633333333","6502300","八里區"
"249003","593-UM","2017/06/17 20:29:00","新北市八里區華峰一街40號","121.398545","25.1465316666667","6502300","八里區"
"248002","678-BX","2017/06/17 20:29:04","新北市五股區新五路二段367號","121.444123333333","25.08826","6501500","五股區"
"234023","9380-KE","2017/06/17 20:28:54","新北市永和區竹林路37號","121.517926666667","25.0142066666667","6500400","永和區"
"234074","AAC-211","2017/06/17 20:28:50","新北市永和區環河東路二段88號","121.523718333333","25.010525","6500400","永和區"
"234067","AAC-212","2017/06/17 20:29:03","新北市永和區保平路238號","121.509296666667","25.0054533333333","6500400","永和區"
"234003","AAC-295","2017/06/17 20:26:59","新北市永和區中正路620號","121.517003333333","25.007805","6500400","永和區"
"244019","403-UM","2017/06/17 20:28:51","新北市林口區粉寮路37-7號","121.399416666667","25.0863816666667","6501700","林口區"
"243013","AAD-798","2017/06/17 20:28:55","新北市泰山區民國街18號","121.42573","25.0432416666667","6501600","泰山區"
"243009","297-R6","2017/06/17 20:28:56","新北市泰山區泰林路二段306巷6號","121.430991666667","25.0632633333333","6501600","泰山區"
"243015","380-SR","2017/06/17 20:28:55","新北市泰山區仁愛路59號","121.43285","25.0554316666667","6501600","泰山區"
"243014","421-VK","2017/06/17 20:28:56","新北市泰山區泰林路二段589號","121.421881666667","25.0634816666667","6501600","泰山區"
"243016","539-UM","2017/06/17 20:28:51","新北市泰山區新生路7號","121.426711666667","25.0457416666667","6501600","泰山區"
"243010","548-UM","2017/06/17 20:28:48","新北市泰山區明志路二段273巷5弄2號","121.427951666667","25.0473016666667","6501600","泰山區"
"243011","549-UM","2017/06/17 20:29:06","新北市泰山區壽山路134巷18號","121.418358333333","25.031035","6501600","泰山區"
"243012","646-TV","2017/06/17 20:29:00","新北市泰山區泰林路二段414巷2號","121.427521666667","25.064845","6501600","泰山區"
"222003","436-BY","2017/06/17 20:29:03","新北市深坑區深坑街32號","121.615263333333","25.0017716666667","6501800","深坑區"
"222002","659-BX","2017/06/17 20:29:09","新北市深坑區萬福路75巷11號","121.599713333333","25.0095433333333","6501800","深坑區"
"222001","696-SL","2017/06/17 20:28:57","新北市深坑區北深路三段345號","121.597165","25.00505","6501800","深坑區"
"231040","001-UM","2017/06/17 20:29:07","新北市新店區三民路155-1號","121.533891666667","24.973435","6500600","新店區"
"231041","002-UM","2017/06/17 20:28:59","新北市新店區中正路501-4號","121.533685","24.9837733333333","6500600","新店區"
"231056","0291-UT","2017/06/17 20:28:57","新北市新店區建安街33巷28號","121.53834","24.975445","6500600","新店區"
"231059","046-UY","2017/06/17 20:28:56","新北市新店區安豐路46號","121.50012","24.9549166666667","6500600","新店區"
"231061","047-UY","2017/06/17 20:28:48","新北市新店區新和街39號","121.519323333333","24.9849883333333","6500600","新店區"
"231060","106-UY","2017/06/17 20:29:00","新北市新店區錦秀路13號","121.479458333333","24.94478","6500600","新店區"
"231051","107-UY","2017/06/17 20:28:47","新北市新店區中央七街105號","121.525893333333","24.97755","6500600","新店區"
"231048","108-UY","2017/06/17 20:28:58","新北市新店區寶慶街58巷12號","121.542101666667","24.9872466666667","6500600","新店區"
"231052","187-VK","2017/06/17 20:28:56","新北市新店區松林路36號","121.546205","24.910285","6500600","新店區"
"231057","256-BX","2017/06/17 20:28:56","新北市新店區花園五路二段3號","121.55357","24.9342483333333","6500600","新店區"
"231063","268-BY","2017/06/17 20:28:55","新北市新店區安康路三段51號","121.492518333333","24.95223","6500600","新店區"
"231050","AAD-862","2017/06/17 20:28:52","新北市新店區博愛街8巷1號","121.541341666667","24.9735833333333","6500600","新店區"
"231058","3712-VJ","2017/06/17 20:28:59","新北市新店區自由街9號","121.535473333333","24.97502","6500600","新店區"
"231067","4772-VM","2017/06/17 20:29:03","新北市新店區溪洲路101-1號","121.53224","24.9622916666667","6500600","新店區"
"231065","512-UM","2017/06/17 20:28:51","新北市新店區安祥路102巷30弄31號","121.485083333333","24.9634283333333","6500600","新店區"
"231054","513-UM","2017/06/17 20:29:10","新北市新店區檳榔路63號","121.543641666667","24.9622416666667","6500600","新店區"
"231064","515-UM","2017/06/17 20:28:59","新北市新店區新和街33號","121.519208333333","24.9848783333333","6500600","新店區"
"231045","617-UM","2017/06/17 20:28:58","新北市新店區新坡一街85號","121.54917","24.9644516666667","6500600","新店區"
"231042","641-BX","2017/06/17 20:29:02","新北市新店區寶橋路238號","121.551585","24.9789516666667","6500600","新店區"
"231068","718-UY","2017/06/17 20:29:02","新北市新店區寶元路一段65號","121.542228333333","24.98577","6500600","新店區"
"231049","719-UM","2017/06/17 20:28:49","新北市新店區華城路6-1號","121.529378333333","24.9593916666667","6500600","新店區"
"231062","720-UM","2017/06/17 20:28:48","新北市新店區安泰路60巷41號","121.483811666667","24.946065","6500600","新店區"
"231044","897-TW","2017/06/17 20:29:07","新北市新店區民族路65號","121.539678333333","24.9782683333333","6500600","新店區"
"231043","899-TW","2017/06/17 20:29:04","新北市新店區民族路14-1號","121.541471666667","24.9788416666667","6500600","新店區"
"231066","AKT-0513","2017/06/17 20:28:53","新北市新店區安興路105號","121.514773333333","24.9777866666667","6500600","新店區"
"241011","013-R5","2017/06/17 20:29:08","新北市三重區龍門路42-1號","121.496316666667","25.0724816666667","6500200","三重區"
"241028","022-UY","2017/06/17 20:29:01","新北市三重區光興街93號","121.497336666667","25.0598783333333","6500200","三重區"
"241008","059-VK","2017/06/17 20:29:00","新北市三重區下竹圍街50號","121.481025","25.0746966666667","6500200","三重區"
"241009","060-VK","2017/06/17 20:29:06","新北市三重區永福街46-4號","121.481888333333","25.0780266666667","6500200","三重區"
"241031","061-VK","2017/06/17 20:28:54","新北市三重區三寧街22號","121.489463333333","25.0598733333333","6500200","三重區"
"241015","062-VK","2017/06/17 20:28:55","新北市三重區文化北路37號","121.499021666667","25.0650366666667","6500200","三重區"
"241017","063-VK","2017/06/17 20:28:56","新北市三重區自強路一段195號","121.491698333333","25.0682866666667","6500200","三重區"
"241024","065-VK","2017/06/17 20:28:56","新北市三重區三民街283巷4號","121.479103333333","25.06858","6500200","三重區"
"241026","066-VK","2017/06/17 20:29:02","新北市三重區環河南路21號","121.503568333333","25.062535","6500200","三重區"
"241002","090-VK","2017/06/17 20:29:05","新北市三重區仁義街211巷7號","121.497226666667","25.0819916666667","6500200","三重區"
"241003","091-VK","2017/06/17 20:28:57","新北市三重區富華街152號","121.492348333333","25.084375","6500200","三重區"
"241030","156-TC","2017/06/17 20:28:55","新北市三重區成功路70號","121.488545","25.05106","6500200","三重區"
"241005","262-UM","2017/06/17 20:28:55","新北市三重區碧華街328號","121.490205","25.0837583333333","6500200","三重區"
"241013","265-UM","2017/06/17 20:29:07","新北市三重區溪尾街5巷42號","121.492926666667","25.0747516666667","6500200","三重區"
"241016","266-UM","2017/06/17 20:29:04","新北市三重區正義北路188號","121.49626","25.066805","6500200","三重區"
"241022","267-UM","2017/06/17 20:28:55","新北市三重區重陽路二段19巷6號","121.487483333333","25.06254","6500200","三重區"
"241018","268-UM","2017/06/17 20:29:03","新北市三重區正義北路216巷8號","121.495831666667","25.0674633333333","6500200","三重區"
"241032","269-UM","2017/06/17 20:29:07","新北市三重區重陽路一段120巷48號","121.485068333333","25.0601266666667","6500200","三重區"
"241025","271-UM","2017/06/17 20:28:51","新北市三重區頂崁街210巷27號","121.475825","25.0682066666667","6500200","三重區"
"241007","398-BY","2017/06/17 20:28:49","新北市三重區自強路四段28號","121.488886666667","25.0767933333333","6500200","三重區"
"241020","412-TH","2017/06/17 20:28:56","新北市三重區忠孝路一段21巷5弄1號","121.491766666667","25.0723916666667","6500200","三重區"
"241004","475-VK","2017/06/17 20:28:59","新北市三重區自強路四段107號","121.491521666667","25.0798216666667","6500200","三重區"
"241019","478-VK","2017/06/17 20:28:59","新北市三重區重陽路四段81號","121.492628333333","25.0709566666667","6500200","三重區"
"241014","543-UM","2017/06/17 20:28:58","新北市三重區龍濱路64號","121.502393333333","25.0692283333333","6500200","三重區"
"241023","545-UM","2017/06/17 20:28:50","新北市三重區自由街19號","121.479803333333","25.0666116666667","6500200","三重區"
"241001","547-UM","2017/06/17 20:28:54","新北市三重區溪尾街66號","121.490378333333","25.077865","6500200","三重區"
"241006","AAD-863","2017/06/17 20:29:00","新北市三重區車路頭街137號","121.484153333333","25.0761783333333","6500200","三重區"
"241035","743-BX","2017/06/17 20:28:50","新北市三重區正義北路263號","121.495405","25.069825","6500200","三重區"
"241012","887-TS","2017/06/17 20:28:58","新北市三重區龍門路272號","121.501413333333","25.07398","6500200","三重區"
"241029","942-UM","2017/06/17 20:28:58","新北市三重區集美街235號","121.492155","25.0551866666667","6500200","三重區"
"235066","003-UY","2017/06/17 20:28:59","新北市中和區水源路102號","121.506091666667","25.003365","6500300","中和區"
"235039","097-UM","2017/06/17 20:28:58","新北市中和區自強路66號","121.519785","24.9942233333333","6500300","中和區"
"235065","098-UM","2017/06/17 20:29:06","新北市中和區福祥路66號","121.499248333333","25.0050266666667","6500300","中和區"
"235058","151-BY","2017/06/17 20:28:57","新北市三重區光復路二段178-1號","121.472268333333","25.0621833333333","6500300","中和區"
"235072","301-VK","2017/06/17 20:28:54","新北市中和區中正路637巷52弄1號","121.485538333333","24.9937766666667","6500300","中和區"
"235068","377-QA","2017/06/17 20:29:00","新北市中和區福祥路125號","121.4988","25.0067766666667","6500300","中和區"
"235050","4979-A6","2017/06/17 20:29:09","新北市中和區景新街160巷2號","121.505531666667","24.99717","6500300","中和區"
"235069","4980-A6","2017/06/17 20:28:57","新北市中和區中正路548號","121.487153333333","24.9946583333333","6500300","中和區"
"235037","AAC-213","2017/06/17 20:28:55","新北市中和區自立路46號","121.523053333333","24.9923116666667","6500300","中和區"
"235059","AAC-215","2017/06/17 20:29:02","新北市中和區員山路8-6號","121.484773333333","24.98127","6500300","中和區"
"220069","AAD-861","2017/06/17 20:28:57","新北市板橋區南雅南路二段116號","121.452626666667","25.0006483333333","6500100","板橋區"
"247020","893-R6","2017/06/17 20:29:02","新北市蘆洲區民族路426巷2號","121.473795","25.0919183333333","6501400","蘆洲區"
"247010","546-UM","2017/06/17 20:29:04","新北市蘆洲區信義路222巷24號","121.480116666667","25.0854466666667","6501400","蘆洲區"
"247018","500-BY","2017/06/17 20:28:51","新北市蘆洲區民族路327巷46號","121.474555","25.0909266666667","6501400","蘆洲區"
"247006","341-TH","2017/06/17 20:28:55","新北市蘆洲區光華路151號","121.465641666667","25.0821533333333","6501400","蘆洲區"
"247008","339-TH","2017/06/17 20:28:59","新北市蘆洲區重陽二街20-4號","121.482745","25.0846333333333","6501400","蘆洲區"
"247024","337-TH","2017/06/17 20:28:55","新北市蘆洲區中正路185巷78弄48號","121.465443333333","25.0853066666667","6501400","蘆洲區"
"247002","336-TH","2017/06/17 20:28:53","新北市蘆洲區環堤大道116號","121.45559","25.0869833333333","6501400","蘆洲區"
"247014","057-VK","2017/06/17 20:29:01","新北市蘆洲區成功路104號","121.472525","25.08226","6501400","蘆洲區"
"247004","056-VK","2017/06/17 20:28:53","新北市蘆洲區長安街297號","121.458071666667","25.08484","6501400","蘆洲區"
"247012","007-UY","2017/06/17 20:29:02","新北市蘆洲區中興街117-2號","121.482155","25.0892616666667","6501400","蘆洲區"
"247022","002-UY","2017/06/17 20:28:54","新北市蘆洲區中正路301號","121.466475","25.0882566666667","6501400","蘆洲區"
"247016","001-UY","2017/06/17 20:28:57","新北市蘆洲區光華路1號","121.469961666667","25.0835083333333","6501400","蘆洲區"
"224011","420-VK","2017/06/17 20:29:02","新北市瑞芳區明燈路二段64號","121.809571666667","25.10748","6501200","瑞芳區"
"251002","012-UM","2017/06/17 20:28:55","新北市淡水區公明街3號","121.442648333333","25.1694166666667","6501000","淡水區"
"251014","180-VK","2017/06/17 20:29:06","新北市淡水區石頭厝8-4號","121.460373333333","25.2377983333333","6501000","淡水區"
"251008","181-VK","2017/06/17 20:29:00","新北市淡水區淡海路180巷12-3號","121.420443333333","25.1844816666667","6501000","淡水區"
"251010","413-VK","2017/06/17 20:29:04","新北市淡水區沙崙路181巷15號","121.42399","25.18433","6501000","淡水區"
"251012","441-VK","2017/06/17 20:29:07","新北市淡水區興仁路98號","121.451881666667","25.2178966666667","6501000","淡水區"
"251016","442-VK","2017/06/17 20:29:03","新北市淡水區淡金路四段469號","121.45151","25.2238266666667","6501000","淡水區"
"251001","559-UM","2017/06/17 20:29:08","新北市淡水區北新路一段69-5號","121.452591666667","25.1808216666667","6501000","淡水區"
"251006","561-UM","2017/06/17 20:28:59","新北市淡水區商工路335號","121.466095","25.185595","6501000","淡水區"
"251011","650-BX","2017/06/17 20:28:56","新北市淡水區崁頂37-11號","121.438596666667","25.19412","6501000","淡水區"
"251003","673-BX","2017/06/17 20:28:49","新北市淡水區新民街64號","121.438811666667","25.17603","6501000","淡水區"
"252005","073-UM","2017/06/17 15:42:02","新北市三芝區埔坪里埔頭坑41號","121.504588333333","25.2644633333333","6502100","三芝區"
"252002","178-VK","2017/06/17 20:28:48","新北市三芝區中正路一段68號","121.503706666667","25.2576566666667","6502100","三芝區"
"252001","292-VK","2017/06/17 20:28:58","新北市三芝區中山路一段36號","121.500853333333","25.25746","6502100","三芝區"
"237007","153-BY","2017/06/17 20:29:03","新北市三峽區麻園8號","121.362298333333","24.9189016666667","6500900","三峽區"
"237006","5529-G3","2017/06/17 20:29:00","新北市三峽區中園街86巷22號","121.367223333333","24.92512","6500900","三峽區"
"236073","105-UM","2017/06/17 20:28:49","新北市土城區中山路13號","121.415816666667","24.962795","6501300","土城區"
"236015","270-VK","2017/06/17 20:29:08","新北市板橋區四川路二段245巷111號","121.453348333333","24.9929433333333","6501300","土城區"
"242021","AAC-296","2017/06/17 20:29:00","新北市新莊區和興街5號","121.447481666667","25.03898","6500500","新莊區"
"242029","986-R7","2017/06/17 20:28:46","新北市新莊區中華路二段159號","121.452786666667","25.0517083333333","6500500","新莊區"
"242048","751-BX","2017/06/17 20:28:57","新北市新莊區龍安路255號","121.419741666667","25.020095","6500500","新莊區"
"242025","615-BX","2017/06/17 20:28:49","新北市新莊區五工三路62巷30號","121.46026","25.0653666666667","6500500","新莊區"
"242023","613-BX","2017/06/17 20:29:03","新北市新莊區化成路858號","121.464776666667","25.0606966666667","6500500","新莊區"
"242027","612-BX","2017/06/17 20:29:05","新北市新莊區思源路339號","121.459495","25.0499266666667","6500500","新莊區"
"242036","566-BX","2017/06/17 20:29:09","新北市新莊區後港一路76巷3弄2號","121.427366666667","25.0258033333333","6500500","新莊區"
"242042","497-BY","2017/06/17 20:29:07","新北市新莊區中正路694巷75號","121.417178333333","25.029575","6500500","新莊區"
"242004","442-UM","2017/06/17 20:28:57","新北市新莊區化成路570號","121.466198333333","25.0542683333333","6500500","新莊區"
"242046","441-UM","2017/06/17 20:28:54","新北市新莊區裕民街83-6號","121.418495","25.0237383333333","6500500","新莊區"
"242051","440-UM","2017/06/17 20:29:03","新北市新莊區民安西路191號","121.426133333333","25.0154666666667","6500500","新莊區"
"242031","415-TV","2017/06/17 20:29:02","新北市新莊區三和路58-3號","121.437525","25.0399316666667","6500500","新莊區"
"242002","413-TV","2017/06/17 20:29:05","新北市新莊區中正路80號","121.457763333333","25.0373816666667","6500500","新莊區"
"242039","400-BY","2017/06/17 20:28:57","新北市新莊區民安路209號","121.426265","25.02228","6500500","新莊區"
"242061","362-BY","2017/06/17 20:28:49","新北市新莊區新樹路301號","121.433621666667","25.01966","6500500","新莊區"
"242058","353-BY","2017/06/17 20:29:07","新北市新莊區四維路183號","121.422075","25.02107","6500500","新莊區"
"242011","132-UY","2017/06/17 20:29:02","新北市新莊區中義街19號","121.450798333333","25.0511283333333","6500500","新莊區"
"242019","135-UY","2017/06/17 20:28:57","新北市新莊區銘德街33號","121.458333333333","25.0436466666667","6500500","新莊區"
"242044","172-VK","2017/06/17 20:29:10","新北市新莊區龍安路66-5號","121.414796666667","25.021285","6500500","新莊區"
"242007","173-VK","2017/06/17 20:28:49","新北市新莊區福壽街124巷27號","121.458813333333","25.051325","6500500","新莊區"
"242013","175-VK","2017/06/17 20:29:04","新北市新莊區中平路270巷7弄26號","121.44618","25.0509016666667","6500500","新莊區"
"242056","176-VK","2017/06/17 20:28:57","新北市新莊區新莊路751巷50號","121.442748333333","25.0314783333333","6500500","新莊區"
"242034","347-TH","2017/06/17 20:29:06","新北市新莊區新泰路181號","121.447498333333","25.0375333333333","6500500","新莊區"
"242017","348-TH","2017/06/17 20:29:09","新北市新莊區中港二街46號","121.450511666667","25.0459616666667","6500500","新莊區"
"242053","349-TH","2017/06/17 20:28:52","新北市新莊區民安西路229巷1號","121.426418333333","25.014225","6500500","新莊區"
"242015","350-TH","2017/06/17 20:29:10","新北市新莊區中平路36巷20號","121.445605","25.0435666666667","6500500","新莊區"
"242009","351-TH","2017/06/17 20:29:02","新北市新莊區昌盛街107-1號","121.456651666667","25.0500733333333","6500500","新莊區"
"238023","601-UM","2017/06/17 20:29:08","新北市樹林區育德街78-1號","121.387635","24.9682916666667","6500700","樹林區"
"221015","131-UY","2017/06/17 20:29:04","新北市汐止區建成路142巷19弄7號","121.662113333333","25.07387","6501100","汐止區"
"221010","269-BY","2017/06/17 20:29:00","新北市汐止區八連路二段450號","121.628543333333","25.10491","6501100","汐止區"
"221012","278-VK","2017/06/17 20:28:57","新北市汐止區大同路三段241號","121.672741666667","25.07659","6501100","汐止區"
"221023","279-VK","2017/06/17 15:16:23","新北市汐止區康寧街901號","121.651783333333","25.07501","6501100","汐止區"
"221032","280-BY","2017/06/17 20:29:07","新北市汐止區弘道街53巷30弄2號","121.618851666667","25.0499566666667","6501100","汐止區"
"221027","281-BY","2017/06/17 20:29:09","新北市汐止區中正路139號","121.659846666667","25.0691916666667","6501100","汐止區"
"221038","297-VK","2017/06/17 20:28:51","新北市汐止區忠孝東路483號","121.666115","25.0735483333333","6501100","汐止區"
"221029","298-VK","2017/06/17 20:29:02","新北市汐止區樟樹一路129巷31號","121.64049","25.06501","6501100","汐止區"
"221021","299-VK","2017/06/17 20:19:40","新北市汐止區水源路一段284號","121.654228333333","25.0583333333333","6501100","汐止區"
"221035","622-UM","2017/06/17 20:28:52","新北市汐止區長江街101-5號","121.658758333333","25.0730383333333","6501100","汐止區"
"221025","623-UM","2017/06/17 20:29:03","新北市汐止區水源路二段110巷1號","121.656688333333","25.05533","6501100","汐止區"
"221033","647-BX","2017/06/17 20:29:06","新北市汐止區林森街73巷3號","121.623688333333","25.04086","6501100","汐止區"
"221002","707-TV","2017/06/17 20:28:54","新北市汐止區福德一路86巷48號","121.63693","25.069095","6501100","汐止區"
"221018","753-BX","2017/06/17 20:28:51","新北市汐止區茄苳路223號","121.671033333333","25.06879","6501100","汐止區"
"220080","200-UY","2017/06/17 20:29:06","新北市板橋區大觀路二段179巷15號","121.445525","24.99985","6500100","板橋區"
"220068","255-TC","2017/06/17 12:10:04","新北市板橋區民生路二段36-1號","121.472493333333","25.0165966666667","6500100","板橋區"
"220089","285-UM","2017/06/17 20:26:46","新北市板橋區漢生西路197-1號","121.4633","25.02445","6500100","板橋區"
"220083","286-VK","2017/06/17 20:28:56","新北市板橋區僑中二街100巷32號","121.444671666667","25.00871","6500100","板橋區"
"220081","287-VK","2017/06/17 20:29:06","新北市板橋區僑中一街80巷1弄17號","121.446698333333","25.01192","6500100","板橋區"
"220097","299-UM","2017/06/17 20:28:53","新北市板橋區公館街18號","121.457318333333","25.0126016666667","6500100","板橋區"
"220103","561-BX","2017/06/17 20:29:00","新北市板橋區漢生東路33巷46號","121.466216666667","25.0178483333333","6500100","板橋區"
"220102","830-TW","2017/06/17 20:29:09","新北市板橋區民生路二段183號","121.469435","25.0204166666667","6500100","板橋區"
"220070","AAC-253","2017/06/17 20:28:54","新北市板橋區四川路二段245巷51號","121.452096666667","24.9924166666667","6500100","板橋區"
