"lineid","car","time","location","longitude","latitude","cityid","cityname"
"234081","298-R6","2017/06/17 20:38:56","新北市永和區永貞路8號","121.520888333333","25.0073433333333","6500400","永和區"
"234064","337-UY","2017/06/17 20:38:56","台北市文山區溪洲街82巷15號","121.534003333333","25.00857","6500400","永和區"
"234086","338-UY","2017/06/17 20:38:51","新北市永和區光復街42號","121.51674","25.0177866666667","6500400","永和區"
"234054","553-UM","2017/06/17 20:38:59","新北市永和區環河東路一段82號","121.519656666667","25.0164433333333","6500400","永和區"
"234030","746-BX","2017/06/17 20:38:51","新北市新店區安興路105號","121.515051666667","24.978105","6500400","永和區"
"234061","AAD-866","2017/06/17 20:39:08","新北市永和區安樂路194巷32號","121.516636666667","25.001145","6500400","永和區"
"234042","862-TW","2017/06/17 20:39:00","新北市永和區自由街3號","121.515058333333","25.0071516666667","6500400","永和區"
"249001","173-UM","2017/06/17 20:38:57","新北市八里區中山路三段415號","121.370245","25.13659","6502300","八里區"
"249004","303-UY","2017/06/17 20:38:58","新北市八里區中山路一段159號","121.412596666667","25.1588266666667","6502300","八里區"
"234023","9380-KE","2017/06/17 20:38:54","新北市永和區文化路139號","121.511075","25.0159383333333","6500400","永和區"
"234074","AAC-211","2017/06/17 20:38:50","新北市永和區竹林路121號","121.52019","25.0113333333333","6500400","永和區"
"234067","AAC-212","2017/06/17 20:39:03","新北市永和區保平路268巷51弄2號","121.507105","25.00635","6500400","永和區"
"244019","403-UM","2017/06/17 20:35:51","新北市林口區粉寮路二段160巷28號","121.40545","25.0909566666667","6501700","林口區"
"243009","297-R6","2017/06/17 20:39:02","新北市泰山區泰林路二段542巷3弄12號","121.422905","25.0643066666667","6501600","泰山區"
"243015","380-SR","2017/06/17 20:38:55","新北市泰山區福興三街21號","121.43454","25.0574116666667","6501600","泰山區"
"243016","539-UM","2017/06/17 20:38:46","新北市泰山區文程路111號","121.430621666667","25.0481883333333","6501600","泰山區"
"243011","549-UM","2017/06/17 20:39:06","新北市泰山區中山路二段841號","121.425903333333","25.03554","6501600","泰山區"
"222003","436-BY","2017/06/17 20:39:03","新北市深坑區阿柔洋3號","121.61283","25.0002866666667","6501800","深坑區"
"222002","659-BX","2017/06/17 20:38:54","新北市深坑區萬福路69號","121.601981666667","25.0084083333333","6501800","深坑區"
"222001","696-SL","2017/06/17 20:38:57","新北市深坑區北深路三段258號","121.599676666667","25.0044833333333","6501800","深坑區"
"231040","001-UM","2017/06/17 20:38:47","新北市新店區中正路263巷12號","121.538006666667","24.9730283333333","6500600","新店區"
"231041","002-UM","2017/06/17 20:38:59","新北市新店區中正路696號","121.534058333333","24.9904816666667","6500600","新店區"
"231056","0291-UT","2017/06/17 20:38:57","新北市新店區民生路75巷221號","121.532501666667","24.9818","6500600","新店區"
"231059","046-UY","2017/06/17 20:38:55","新北市新店區僑愛五路17號","121.499381666667","24.9441433333333","6500600","新店區"
"231061","047-UY","2017/06/17 20:38:48","新北市新店區新和街74號","121.520188333333","24.9857083333333","6500600","新店區"
"231060","106-UY","2017/06/17 20:39:00","新北市新店區錦秀路1號","121.479008333333","24.9457883333333","6500600","新店區"
"231051","107-UY","2017/06/17 20:38:47","新北市新店區中央路115號","121.530873333333","24.9745116666667","6500600","新店區"
"231048","108-UY","2017/06/17 20:38:58","新北市新店區寶慶街2-1號","121.543855","24.9867766666667","6500600","新店區"
"231052","187-VK","2017/06/17 20:38:56","新北市新店區廣興路7-2號","121.546021666667","24.9121533333333","6500600","新店區"
"231057","256-BX","2017/06/17 20:38:56","新北市新店區花園六路二段1號","121.554025","24.9337283333333","6500600","新店區"
"231063","268-BY","2017/06/17 20:38:55","新北市新店區玫瑰路4-1號","121.493631666667","24.951385","6500600","新店區"
"231050","AAD-862","2017/06/17 20:38:52","新北市新店區建興街5號","121.540121666667","24.976405","6500600","新店區"
"231058","3712-VJ","2017/06/17 20:38:59","新北市新店區平等街48巷12號","121.535626666667","24.973305","6500600","新店區"
"231065","512-UM","2017/06/17 20:38:58","新北市新店區安祥路102巷135號","121.486825","24.9646","6500600","新店區"
"231054","513-UM","2017/06/17 20:39:10","新北市新店區行政街19巷2號","121.542871666667","24.9665316666667","6500600","新店區"
"231064","515-UM","2017/06/17 20:38:59","新北市新店區安和路三段151號","121.516635","24.985585","6500600","新店區"
"231045","617-UM","2017/06/17 20:38:59","新北市新店區長春路179號","121.558568333333","24.9618916666667","6500600","新店區"
"231042","641-BX","2017/06/17 20:39:02","新北市新店區寶高路120巷1-1號","121.554601666667","24.9759116666667","6500600","新店區"
"231068","718-UY","2017/06/17 20:39:02","新北市新店區寶元路一段85巷10號","121.543048333333","24.98592","6500600","新店區"
"231049","719-UM","2017/06/17 20:38:57","新北市新店區永業路81巷25號","121.530793333333","24.9486066666667","6500600","新店區"
"231062","720-UM","2017/06/17 20:38:48","新北市新店區安泰路12巷2號","121.48551","24.9502033333333","6500600","新店區"
"231044","897-TW","2017/06/17 20:38:47","新北市新店區建國路293巷1號","121.53674","24.9861666666667","6500600","新店區"
"231043","899-TW","2017/06/17 20:39:04","新北市新店區建國路40號","121.540531666667","24.9747783333333","6500600","新店區"
"231066","AKT-0513","2017/06/17 20:38:53","新北市新店區安興路105號","121.514733333333","24.977795","6500600","新店區"
"241011","013-R5","2017/06/17 20:38:48","新北市三重區龍濱路190號","121.501173333333","25.07317","6500200","三重區"
"241028","022-UY","2017/06/17 20:39:01","新北市三重區光興街97號","121.497231666667","25.05998","6500200","三重區"
"241008","059-VK","2017/06/17 20:38:57","新北市三重區下竹圍街42號","121.481036666667","25.07489","6500200","三重區"
"241009","060-VK","2017/06/17 20:38:46","新北市三重區仁愛街584號","121.484696666667","25.0812016666667","6500200","三重區"
"241031","061-VK","2017/06/17 20:38:54","新北市三重區重陽路一段113巷1弄47號","121.487981666667","25.05861","6500200","三重區"
"241015","062-VK","2017/06/17 20:38:55","新北市三重區文化北路89號","121.498106666667","25.06784","6500200","三重區"
"241017","063-VK","2017/06/17 20:38:56","新北市三重區大同北路273號","121.490783333333","25.0674233333333","6500200","三重區"
"241024","065-VK","2017/06/17 20:38:56","新北市三重區三民街282號","121.47857","25.06841","6500200","三重區"
"241026","066-VK","2017/06/17 20:39:02","新北市三重區和平街1號","121.500066666667","25.0623583333333","6500200","三重區"
"241002","090-VK","2017/06/17 20:38:45","新北市三重區仁義街167巷38弄2號","121.498746666667","25.0826433333333","6500200","三重區"
"241003","091-VK","2017/06/17 20:38:57","新北市三重區五華街141巷58號","121.493585","25.0868133333333","6500200","三重區"
"241030","156-TC","2017/06/17 20:38:55","新北市三重區成功路73巷11號","121.489455","25.0519466666667","6500200","三重區"
"241005","262-UM","2017/06/17 20:38:55","新北市三重區碧華街418號","121.492223333333","25.08527","6500200","三重區"
"241013","265-UM","2017/06/17 20:39:07","新北市三重區三和路四段2號","121.491615","25.0738466666667","6500200","三重區"
"241016","266-UM","2017/06/17 20:39:04","新北市三重區自強路一段143號","121.494665","25.0668683333333","6500200","三重區"
"241022","267-UM","2017/06/17 20:38:55","新北市三重區新北大道一段46巷18弄10號","121.488371666667","25.0619966666667","6500200","三重區"
"241018","268-UM","2017/06/17 20:39:03","新北市三重區安慶街四段66號","121.491933333333","25.0703833333333","6500200","三重區"
"241032","269-UM","2017/06/17 20:39:07","新北市三重區重陽路一段120巷46號","121.485108333333","25.0601066666667","6500200","三重區"
"241025","271-UM","2017/06/17 20:38:51","新北市三重區金華街82號","121.477138333333","25.0651383333333","6500200","三重區"
"241007","398-BY","2017/06/17 20:38:49","新北市三重區三和路四段109號","121.48629","25.07699","6500200","三重區"
"241020","412-TH","2017/06/17 20:38:55","新北市三重區明德街30號","121.49242","25.0720966666667","6500200","三重區"
"241004","475-VK","2017/06/17 20:38:59","新北市三重區溪尾街216號","121.48797","25.0814233333333","6500200","三重區"
"241019","478-VK","2017/06/17 20:38:59","新北市三重區安慶街四段66-2號","121.491758333333","25.0706","6500200","三重區"
"241014","543-UM","2017/06/17 20:38:58","新北市三重區三和路二段156號","121.499395","25.0684916666667","6500200","三重區"
"241023","545-UM","2017/06/17 20:38:50","新北市三重區自由街39巷14號","121.478486666667","25.0669516666667","6500200","三重區"
"241001","547-UM","2017/06/17 20:38:54","新北市三重區聯華街132號","121.484871666667","25.074745","6500200","三重區"
"241006","AAD-863","2017/06/17 20:39:00","新北市三重區車路頭街137號","121.484138333333","25.0761916666667","6500200","三重區"
"241035","743-BX","2017/06/17 20:39:09","新北市三重區三和路三段8號","121.49717","25.070065","6500200","三重區"
"241012","887-TS","2017/06/17 20:39:07","新北市三重區河邊北街196號","121.502693333333","25.0742666666667","6500200","三重區"
"241029","942-UM","2017/06/17 20:38:58","新北市三重區集美街126巷28號","121.490108333333","25.05393","6500200","三重區"
"235039","097-UM","2017/06/17 20:38:58","新北市中和區大勇街27巷16號","121.516691666667","24.9939216666667","6500300","中和區"
"235065","098-UM","2017/06/17 20:39:06","新北市中和區永和路55號","121.49712","25.00533","6500300","中和區"
"235058","151-BY","2017/06/17 20:38:57","新北市八里區荖阡坑路22-5號","121.398626666667","25.1356433333333","6500300","中和區"
"235072","301-VK","2017/06/17 20:38:54","新北市中和區員山路36巷13號","121.484006666667","24.990925","6500300","中和區"
"235069","4980-A6","2017/06/17 20:38:57","新北市中和區員山路226巷3弄14號","121.481855","25.00112","6500300","中和區"
"235026","800-TS","2017/06/17 20:38:57","新北市中和區員山路36巷16-3號","121.485086666667","24.99132","6500300","中和區"
"235037","AAC-213","2017/06/17 20:39:00","新北市中和區自立路141巷17號","121.523248333333","24.99374","6500300","中和區"
"235059","AAC-215","2017/06/17 20:39:02","新北市中和區員山路78-3號","121.481475","24.9924666666667","6500300","中和區"
"220069","AAD-861","2017/06/17 20:38:57","新北市樹林區太平路247巷30號","121.421816666667","24.9744933333333","6500100","板橋區"
"247020","893-R6","2017/06/17 20:39:02","新北市蘆洲區民族路343-9號","121.472878333333","25.0917083333333","6501400","蘆洲區"
"247010","546-UM","2017/06/17 20:39:04","新北市蘆洲區集賢路400號","121.480266666667","25.0821816666667","6501400","蘆洲區"
"247006","341-TH","2017/06/17 20:38:55","新北市蘆洲區和平路121巷8弄11號","121.466445","25.0802316666667","6501400","蘆洲區"
"247008","339-TH","2017/06/17 20:38:59","新北市蘆洲區重陽街18號","121.480811666667","25.0815966666667","6501400","蘆洲區"
"247024","337-TH","2017/06/17 20:38:55","新北市蘆洲區長樂路70號","121.462681666667","25.08688","6501400","蘆洲區"
"247002","336-TH","2017/06/17 20:38:53","新北市蘆洲區長安街375巷6號","121.456965","25.0878716666667","6501400","蘆洲區"
"247014","057-VK","2017/06/17 20:38:42","新北市蘆洲區成功路72巷5號","121.473341666667","25.0813466666667","6501400","蘆洲區"
"247004","056-VK","2017/06/17 20:38:53","新北市蘆洲區長安街297號","121.458095","25.0848383333333","6501400","蘆洲區"
"247012","007-UY","2017/06/17 20:38:56","新北市蘆洲區復興路322號","121.48183","25.0902","6501400","蘆洲區"
"247022","002-UY","2017/06/17 20:39:00","新北市蘆洲區中正路243巷7弄3號","121.467365","25.0863166666667","6501400","蘆洲區"
"247016","001-UY","2017/06/17 20:38:57","新北市蘆洲區中山二路288號","121.46887","25.07767","6501400","蘆洲區"
"224011","420-VK","2017/06/17 20:30:58","新北市瑞芳區明燈路二段66號","121.809378333333","25.10748","6501200","瑞芳區"
"251002","012-UM","2017/06/17 20:38:55","新北市淡水區中正路36號","121.443815","25.16929","6501000","淡水區"
"251014","180-VK","2017/06/17 20:39:06","新北市淡水區桂竹圍10-1號","121.470721666667","25.2315066666667","6501000","淡水區"
"251008","181-VK","2017/06/17 20:38:54","新北市淡水區中正路二段397號","121.425818333333","25.19117","6501000","淡水區"
"251010","413-VK","2017/06/17 20:39:03","新北市淡水區沙崙路181巷15號","121.42399","25.1843383333333","6501000","淡水區"
"251012","441-VK","2017/06/17 20:39:07","新北市淡水區興仁路108號","121.451686666667","25.2181333333333","6501000","淡水區"
"251016","442-VK","2017/06/17 20:39:03","新北市淡水區後洲子16-1號","121.449513333333","25.2240316666667","6501000","淡水區"
"251001","559-UM","2017/06/17 20:38:58","新北市淡水區淡金路一段8號","121.46083","25.1697233333333","6501000","淡水區"
"251006","561-UM","2017/06/17 20:37:39","新北市淡水區商工路198巷1號","121.450971666667","25.18801","6501000","淡水區"
"251011","650-BX","2017/06/17 20:38:56","新北市淡水區新市一路一段361號","121.436213333333","25.1861783333333","6501000","淡水區"
"251003","673-BX","2017/06/17 20:38:49","新北市淡水區新民街152巷6弄22號","121.438761666667","25.1785716666667","6501000","淡水區"
"252005","073-UM","2017/06/17 15:42:02","新北市三芝區埔坪里埔頭坑41號","121.504588333333","25.2644633333333","6502100","三芝區"
"252001","292-VK","2017/06/17 20:38:58","新北市三芝區長安街23號","121.501663333333","25.25603","6502100","三芝區"
"242021","AAC-296","2017/06/17 20:39:00","新北市新莊區公園路80號","121.450181666667","25.039655","6500500","新莊區"
"242029","986-R7","2017/06/17 20:39:06","新北市新莊區昌平街31巷9號","121.454281666667","25.0513683333333","6500500","新莊區"
"242048","751-BX","2017/06/17 20:39:10","新北市新莊區中正路654號","121.421366666667","25.0286266666667","6500500","新莊區"
"242025","615-BX","2017/06/17 20:38:49","新北市新莊區化成路579巷1號","121.464291666667","25.0661233333333","6500500","新莊區"
"242023","613-BX","2017/06/17 20:39:03","新北市新莊區化成路734號","121.465631666667","25.057385","6500500","新莊區"
"242027","612-BX","2017/06/17 20:39:05","新北市新莊區思源路63號","121.46016","25.0403733333333","6500500","新莊區"
"242036","566-BX","2017/06/17 20:38:49","新北市新莊區後港一路94巷3弄2號","121.428056666667","25.0262116666667","6500500","新莊區"
"242042","497-BY","2017/06/17 20:39:06","新北市新莊區天祥街15巷7號","121.416795","25.0274933333333","6500500","新莊區"
"242004","442-UM","2017/06/17 20:38:57","新北市新莊區化成路371巷1號","121.465505","25.0571516666667","6500500","新莊區"
"242046","441-UM","2017/06/17 20:38:54","新北市新莊區富國路22巷19號","121.418315","25.0257883333333","6500500","新莊區"
"242051","440-UM","2017/06/17 20:39:03","新北市新莊區民安西路173巷7號","121.426595","25.0160616666667","6500500","新莊區"
"242031","415-TV","2017/06/17 20:39:02","新北市新莊區三泰路56-18號","121.434675","25.0371683333333","6500500","新莊區"
"242002","413-TV","2017/06/17 20:39:05","新北市新莊區中正路94號","121.45527","25.0367716666667","6500500","新莊區"
"242039","400-BY","2017/06/17 20:38:57","新北市新莊區民安路461號","121.434655","25.022475","6500500","新莊區"
"242061","362-BY","2017/06/17 20:39:09","新北市新莊區新樹路258巷1-1號","121.432183333333","25.0154683333333","6500500","新莊區"
"242058","353-BY","2017/06/17 20:39:07","新北市新莊區四維路133號","121.422861666667","25.0225816666667","6500500","新莊區"
"242011","132-UY","2017/06/17 20:39:02","新北市新莊區中信街89巷10號","121.447225","25.053165","6500500","新莊區"
"242019","135-UY","2017/06/17 20:38:57","新北市新莊區銘德街62號","121.456701666667","25.0436916666667","6500500","新莊區"
"242044","172-VK","2017/06/17 20:38:50","新北市新莊區中正路新生巷85弄1號","121.417168333333","25.0218466666667","6500500","新莊區"
"242007","173-VK","2017/06/17 20:38:49","新北市新莊區思源路287巷2弄13號","121.459261666667","25.04883","6500500","新莊區"
"242013","175-VK","2017/06/17 20:39:04","新北市新莊區中和街155巷24弄81號","121.446345","25.0515266666667","6500500","新莊區"
"242056","176-VK","2017/06/17 20:38:57","新北市新莊區瓊泰路94巷48號","121.444893333333","25.0294416666667","6500500","新莊區"
"242034","347-TH","2017/06/17 20:39:06","新北市新莊區中正路334巷18號","121.445688333333","25.035655","6500500","新莊區"
"242017","348-TH","2017/06/17 20:38:50","新北市新莊區中港三街123號","121.44856","25.046085","6500500","新莊區"
"242053","349-TH","2017/06/17 20:38:52","新北市新莊區西盛街324巷17號","121.427255","25.0147","6500500","新莊區"
"242015","350-TH","2017/06/17 20:38:49","新北市新莊區中港一街142號","121.446711666667","25.0448733333333","6500500","新莊區"
"242009","351-TH","2017/06/17 20:39:02","新北市新莊區幸福路64巷4弄4號","121.457318333333","25.0499316666667","6500500","新莊區"
"238023","601-UM","2017/06/17 20:39:08","新北市樹林區育德街78-1號","121.387535","24.9682733333333","6500700","樹林區"
"221015","131-UY","2017/06/17 20:39:04","新北市汐止區建成路80號","121.662553333333","25.0731066666667","6501100","汐止區"
"221010","269-BY","2017/06/17 20:39:00","新北市汐止區汐萬路一段310號","121.650498333333","25.0748933333333","6501100","汐止區"
"221012","278-VK","2017/06/17 20:38:57","新北市汐止區大同路三段241號","121.672713333333","25.0766066666667","6501100","汐止區"
"221023","279-VK","2017/06/17 15:16:23","新北市汐止區康寧街901號","121.651783333333","25.07501","6501100","汐止區"
"221032","280-BY","2017/06/17 20:39:07","新北市汐止區橫科路221巷19-1號","121.621496666667","25.0495183333333","6501100","汐止區"
"221027","281-BY","2017/06/17 20:38:49","新北市汐止區大同路二段407號","121.658395","25.0672466666667","6501100","汐止區"
"221038","297-VK","2017/06/17 20:38:51","新北市汐止區忠孝東路200號","121.661476666667","25.06595","6501100","汐止區"
"221029","298-VK","2017/06/17 20:39:02","新北市汐止區大同路一段513號","121.645435","25.06218","6501100","汐止區"
"221021","299-VK","2017/06/17 20:38:51","新北市汐止區水源路一段293號","121.654455","25.0582266666667","6501100","汐止區"
"221035","622-UM","2017/06/17 20:38:52","新北市汐止區長江街101-5號","121.658701666667","25.0729316666667","6501100","汐止區"
"221025","623-UM","2017/06/17 20:39:03","新北市汐止區水源路二段234號","121.65842","25.0516616666667","6501100","汐止區"
"221033","647-BX","2017/06/17 20:39:06","新北市汐止區合順街18巷8弄5號","121.620343333333","25.0419016666667","6501100","汐止區"
"221002","707-TV","2017/06/17 20:38:54","新北市汐止區福德二路138號","121.630805","25.0651833333333","6501100","汐止區"
"221018","753-BX","2017/06/17 20:38:51","新北市汐止區茄苳路181號","121.670115","25.069255","6501100","汐止區"
"220068","255-TC","2017/06/17 12:10:04","新北市板橋區民生路二段36-1號","121.472493333333","25.0165966666667","6500100","板橋區"
"220083","286-VK","2017/06/17 20:39:01","新北市板橋區僑中二街104巷23號","121.445053333333","25.00801","6500100","板橋區"
"220081","287-VK","2017/06/17 20:39:06","新北市板橋區大觀路二段275號","121.442713333333","24.9989933333333","6500100","板橋區"
"220103","561-BX","2017/06/17 20:39:00","新北市板橋區漢生東路73巷26號","121.46717","25.01695","6500100","板橋區"
"220070","AAC-253","2017/06/17 20:38:54","新北市板橋區四川路二段140巷16弄23號","121.448393333333","24.9936783333333","6500100","板橋區"
