"lineid","car","time","location","longitude","latitude","cityid","cityname"
"251013","179-VK","2017/12/31 16:51:25","新北市淡水區泉洲厝32號","121.489318333333","25.19261","6501000","淡水區"
"251014","180-VK","2017/12/31 16:49:11","新北市淡水區淡金路三段446號","121.450748333333","25.21433","6501000","淡水區"
"251015","182-VK","2017/12/31 16:51:26","新北市淡水區忠愛街5-2號","121.460661666667","25.1716383333333","6501000","淡水區"
"251016","442-VK","2017/12/31 16:51:42","新北市淡水區水頭42號","121.478361666667","25.1849566666667","6501000","淡水區"
"237001","210-TH","2017/12/31 15:07:34","新北市三峽區中山路459巷137號","121.349855","24.9338633333333","6500900","三峽區"
