"lineid","car","time","location","longitude","latitude","cityid","cityname"
"251013","179-VK","2017/12/31 17:29:45","新北市淡水區大竹圍5號","121.466583333333","25.1952033333333","6501000","淡水區"
"251014","180-VK","2017/12/31 17:29:42","新北市淡水區公埔子20-2號","121.46984","25.2290933333333","6501000","淡水區"
"251015","182-VK","2017/12/31 17:29:46","新北市淡水區三空泉17-6號","121.473875","25.1657433333333","6501000","淡水區"
"251016","442-VK","2017/12/31 17:29:42","新北市淡水區埤島63-3號","121.459886666667","25.1916266666667","6501000","淡水區"
"237001","210-TH","2017/12/31 15:07:34","新北市三峽區中山路459巷137號","121.349855","24.9338633333333","6500900","三峽區"
