"lineid","car","time","location","longitude","latitude","cityid","cityname"
"224011","AGQ-8101","2017/12/31 18:39:30","新北市瑞芳區山尖路209號","121.8489","25.1117833333333","6501200","瑞芳區"
"251013","179-VK","2017/12/31 18:39:47","新北市淡水區雲廣坑5-1號","121.474276666667","25.2130416666667","6501000","淡水區"
"251014","180-VK","2017/12/31 18:39:42","新北市淡水區崙頂12-8號","121.495565","25.2172416666667","6501000","淡水區"
"251015","182-VK","2017/12/31 18:39:46","新北市淡水區興福寮66巷267號","121.486758333333","25.1620666666667","6501000","淡水區"
"251016","442-VK","2017/12/31 18:39:42","新北市淡水區下圭柔山72-3號","121.446126666667","25.20586","6501000","淡水區"
"237001","210-TH","2017/12/31 15:07:34","新北市三峽區中山路459巷137號","121.349855","24.9338633333333","6500900","三峽區"
