"lineid","car","time","location","longitude","latitude","cityid","cityname"
"224011","AGQ-8101","2017/12/31 20:07:50","新北市瑞芳區輕便路308號","121.843046666667","25.10844","6501200","瑞芳區"
"251013","179-VK","2017/12/31 20:07:45","新北市淡水區奎柔山路307號","121.460663333333","25.2048033333333","6501000","淡水區"
"251014","180-VK","2017/12/31 20:07:41","新北市淡水區石頭厝3號","121.458708333333","25.2355866666667","6501000","淡水區"
"251015","182-VK","2017/12/31 20:07:45","新北市淡水區商工路175號","121.448185","25.18896","6501000","淡水區"
"251016","442-VK","2017/12/31 20:07:34","新北市淡水區番子田25-3號","121.456191666667","25.230695","6501000","淡水區"
"237001","210-TH","2017/12/31 15:07:34","新北市三峽區中山路459巷137號","121.349855","24.9338633333333","6500900","三峽區"
