"lineid","car","time","location","longitude","latitude","cityid","cityname"
"251013","179-VK","2017/12/31 20:49:25","新北市淡水區行忠路257號","121.459173333333","25.2007016666667","6501000","淡水區"
"251014","180-VK","2017/12/31 20:49:21","新北市淡水區公埔子36-1號","121.462495","25.2322033333333","6501000","淡水區"
"251015","182-VK","2017/12/31 20:49:25","新北市淡水區淡金路四段542巷17號","121.45273","25.22709","6501000","淡水區"
"251016","442-VK","2017/12/31 20:49:34","新北市淡水區興仁路160號","121.451503333333","25.2203683333333","6501000","淡水區"
"237001","210-TH","2017/12/31 15:07:34","新北市三峽區中山路459巷137號","121.349855","24.9338633333333","6500900","三峽區"
