"lineid","car","time","location","longitude","latitude","cityid","cityname"
"251013","179-VK","2017/12/31 21:29:45","新北市淡水區埤島74-1號","121.456461666667","25.19566","6501000","淡水區"
"251014","180-VK","2017/12/31 21:29:41","新北市淡水區六塊厝2-1號","121.450178333333","25.2404833333333","6501000","淡水區"
"251015","182-VK","2017/12/31 21:29:45","新北市淡水區淡金路四段181號","121.45154","25.221405","6501000","淡水區"
"251016","442-VK","2017/12/31 21:29:34","新北市淡水區下圭柔山90-8號","121.431443333333","25.21145","6501000","淡水區"
"237001","210-TH","2017/12/31 15:07:34","新北市三峽區中山路459巷137號","121.349855","24.9338633333333","6500900","三峽區"
