"lineid","car","time","location","longitude","latitude","cityid","cityname"
"232001","290-BY","2018/01/01 07:49:48","新北市坪林區下坑子口19-2號","121.707575","24.94809","6502000","坪林區"
"232012","291-BY","2018/01/01 07:49:54","新北市坪林區金瓜寮23-1號","121.677986666667","24.9110933333333","6502000","坪林區"
"232010","375-UM","2018/01/01 07:49:47","新北市坪林區厚德岡坑8-5號","121.733186666667","24.940905","6502000","坪林區"
"232017","705-BZ","2018/01/01 07:49:44","新北市坪林區乾溪6-2號","121.744418333333","24.97086","6502000","坪林區"
"232005","758-BX","2018/01/01 07:49:36","新北市坪林區九芎林23號","121.705841666667","24.9260983333333","6502000","坪林區"
"244006","080-UY","2018/01/01 07:49:47","新北市林口區粉寮69號","121.404925","25.090835","6501700","林口區"
"244001","248-BX","2018/01/01 07:49:51","新北市林口區頂福22號","121.352086666667","25.0953766666667","6501700","林口區"
"244020","838-TS","2018/01/01 07:49:26","新北市林口區粉寮69號","121.404773333333","25.0908016666667","6501700","林口區"
"222005","289-BY","2018/01/01 07:48:07","新北市深坑區萬福路36-1號","121.605411666667","25.01226","6501800","深坑區"
"231008","192-VK","2018/01/01 07:49:45","新北市新店區安華路28-1號","121.519346666667","24.9613016666667","6500600","新店區"
"235043","352-BY","2018/01/01 07:49:55","新北市中和區和平街84號","121.507593333333","24.9911583333333","6500300","中和區"
"226005","5620-A6","2018/01/01 07:49:36","新北市平溪區嶺腳里嶺腳寮74-1號","121.747703333333","25.0324866666667","6502400","平溪區"
"226001","7418-A5","2018/01/01 07:49:40","新北市平溪區十分里十分街98號","121.777203333333","25.0424183333333","6502400","平溪區"
"226003","AGD-0702","2018/01/01 07:49:42","新北市平溪區嶺腳里嶺腳寮106-3號","121.745245","25.03917","6502400","平溪區"
"223006","022-BY","2018/01/01 07:49:42","新北市石碇區番子坑103號","121.67443","25.01009","6501900","石碇區"
"223002","198-BX","2018/01/01 07:49:47","新北市石碇區北宜路五段70號","121.639296666667","24.9521516666667","6501900","石碇區"
"223008","406-TH","2018/01/01 07:27:01","新北市石碇區靜安路一段337號","121.69874","25.014685","6501900","石碇區"
"223001","592-UM","2018/01/01 07:49:44","新北市石碇區樟空子1號","121.666666666667","24.9597233333333","6501900","石碇區"
"223004","660-BX","2018/01/01 07:49:55","新北市石碇區楓子林30號","121.6423","25.0095516666667","6501900","石碇區"
"223005","677-TV","2018/01/01 07:49:40","新北市石碇區楓子林30號","121.642316666667","25.0096366666667","6501900","石碇區"
"227005","282-VK","2018/01/01 07:49:50","新北市雙溪區雙溪里大同街17號","121.86447","25.035155","6502500","雙溪區"
"252006","073-UM","2018/01/01 07:49:37","新北市三芝區後厝里北勢子21-3號","121.473208333333","25.253615","6502100","三芝區"
"252004","249-BX","2018/01/01 07:49:52","新北市三芝區店子里菜公坑77-1號","121.51053","25.206365","6502100","三芝區"
"237001","159-UY","2018/01/01 07:49:36","新北市三峽區學成路238號","121.374636666667","24.9417683333333","6500900","三峽區"
"236007","165-UM","2018/01/01 07:49:39","新北市土城區永豐路135巷3號","121.4669","24.98335","6501300","土城區"
"236001","339-SR","2018/01/01 07:49:47","新北市土城區南天母路121號","121.448185","24.95082","6501300","土城區"
"242030","AAC-296","2018/01/01 07:49:55","新北市新莊區新泰路415-1號","121.442306666667","25.0443983333333","6500500","新莊區"
"242028","986-R7","2018/01/01 07:49:54","新北市新莊區幸福路730號","121.448946666667","25.0491783333333","6500500","新莊區"
"242049","751-BX","2018/01/01 07:49:41","新北市新莊區瓊林南路59-7號","121.435431666667","25.0162383333333","6500500","新莊區"
"242024","615-BX","2018/01/01 07:49:50","新北市新莊區中和街20號","121.448365","25.0434883333333","6500500","新莊區"
"242022","613-BX","2018/01/01 07:49:41","新北市新莊區中港一街137號","121.448133333333","25.0450516666667","6500500","新莊區"
"242026","612-BX","2018/01/01 07:49:55","新北市新莊區中港一街111號","121.448821666667","25.04521","6500500","新莊區"
"242038","566-BX","2018/01/01 07:49:43","新北市新莊區民安路398號","121.431041666667","25.0229516666667","6500500","新莊區"
"242043","442-UM","2018/01/01 07:49:36","新北市新莊區富國路101-1號","121.421355","25.0255116666667","6500500","新莊區"
"242047","441-UM","2018/01/01 07:49:39","新北市新莊區龍安路253號","121.419688333333","25.020045","6500500","新莊區"
"242052","440-UM","2018/01/01 07:49:49","新北市新莊區瓊林路59-66號","121.441328333333","25.022645","6500500","新莊區"
"242033","415-TV","2018/01/01 07:49:43","新北市新莊區三和路10號","121.44204","25.035695","6500500","新莊區"
"242040","400-BY","2018/01/01 07:49:38","新北市新莊區新樹路65-4號","121.43953","25.0310333333333","6500500","新莊區"
"242059","362-BY","2018/01/01 07:49:34","新北市新莊區三和路12-12號","121.441976666667","25.03705","6500500","新莊區"
"242057","353-BY","2018/01/01 07:49:47","新北市新莊區三和路12-12號","121.441945","25.0371183333333","6500500","新莊區"
"242006","132-UY","2018/01/01 07:49:43","新北市新莊區新泰路502巷12號","121.442806666667","25.04642","6500500","新莊區"
"242035","133-UY","2018/01/01 07:49:52","新北市新莊區民安路429巷1號","121.433901666667","25.02313","6500500","新莊區"
"242020","135-UY","2018/01/01 07:49:34","新北市新莊區中港一街112號","121.448743333333","25.0452233333333","6500500","新莊區"
"242045","172-VK","2018/01/01 07:49:39","新北市新莊區新樹路65-5號","121.439441666667","25.0308316666667","6500500","新莊區"
"242008","173-VK","2018/01/01 00:42:35","新北市新莊區三和路12-21號","121.44205","25.0384933333333","6500500","新莊區"
"242014","175-VK","2018/01/01 07:49:51","新北市新莊區新泰路208號","121.44681","25.038615","6500500","新莊區"
"242001","176-VK","2018/01/01 07:49:39","新北市新莊區三和路12-12號","121.441926666667","25.0370916666667","6500500","新莊區"
"242012","346-TH","2018/01/01 07:49:34","新北市新莊區新泰路502巷14號","121.44292","25.046355","6500500","新莊區"
"242018","348-TH","2018/01/01 07:49:52","新北市新莊區中港路212號","121.454551666667","25.0425883333333","6500500","新莊區"
"242016","350-TH","2018/01/01 07:49:53","新北市新莊區復興路一段212號","121.452793333333","25.0438033333333","6500500","新莊區"
"242010","351-TH","2018/01/01 07:49:39","新北市新莊區新泰路498號","121.442545","25.04622","6500500","新莊區"
"220064","282-UM","2018/01/01 07:49:37","新北市板橋區南雅南路一段53號","121.455885","25.0060616666667","6500100","板橋區"
"242055","280-VK","2018/01/01 07:49:51","新北市新莊區新泰路76號","121.449063333333","25.03499","6500500","新莊區"
