"lineid","car","time","location","longitude","latitude","cityid","cityname"
"248005","653-BX","2017/11/13 06:59:22","新北市五股區更洲路47號","121.456901666667","25.07899","6501500","五股區"
"232001","290-BY","2017/11/13 06:59:19","新北市坪林區下坑子口14號","121.717153333333","24.9475183333333","6502000","坪林區"
"232012","291-BY","2017/11/13 06:59:33","新北市坪林區黃舉皮寮2-1號","121.688795","24.942535","6502000","坪林區"
"232010","375-UM","2017/11/13 06:59:21","新北市坪林區水聳淒坑14號","121.723491666667","24.92758","6502000","坪林區"
"232017","705-BZ","2017/11/13 06:59:13","新北市坪林區坪雙路一段106號","121.72312","24.9468283333333","6502000","坪林區"
"232005","758-BX","2017/11/13 06:59:30","新北市坪林區九芎林39-3號","121.702218333333","24.91844","6502000","坪林區"
"244001","657-BX","2017/11/13 06:59:32","新北市林口區中山路631-1號","121.377958333333","25.0834266666667","6501700","林口區"
"223002","198-BX","2017/11/13 06:59:12","新北市石碇區員山子1號","121.652316666667","24.9672283333333","6501900","石碇區"
"223001","205-TH","2017/11/13 06:59:26","新北市石碇區石碇東街46號","121.659618333333","24.9910916666667","6501900","石碇區"
"223008","406-TH","2017/11/13 06:59:24","新北市石碇區十八重溪84-2號","121.672196666667","25.010655","6501900","石碇區"
"223001","592-UM","2017/11/13 06:59:31","新北市石碇區石崁31號","121.65902","24.99133","6501900","石碇區"
"223004","660-BX","2017/11/13 06:59:10","新北市石碇區碇坪路一段60號","121.657071666667","24.9912966666667","6501900","石碇區"
"223007","661-BX","2017/11/13 06:59:27","新北市石碇區十八重溪81-1號","121.672285","25.0107883333333","6501900","石碇區"
"223005","677-TV","2017/11/13 06:59:19","新北市石碇區碇坪路一段60號","121.657085","24.9914266666667","6501900","石碇區"
"227005","282-VK","2017/11/13 06:59:18","新北市雙溪區新基里自強路5號","121.866305","25.0390266666667","6502500","雙溪區"
"252006","073-UM","2017/11/13 06:59:27","新北市三芝區古庄里山豬堀2號","121.500721666667","25.2498583333333","6502100","三芝區"
"252004","249-BX","2017/11/13 06:59:20","新北市三芝區埔坪里埔頭坑41號","121.504475","25.2645133333333","6502100","三芝區"
"236007","165-UM","2017/11/13 06:58:59","新北市土城區永平街51號","121.427973333333","24.9591683333333","6501300","土城區"
"236001","339-SR","2017/11/13 06:59:18","新北市土城區永平街51號","121.427905","24.959165","6501300","土城區"
"242001","233-RS","2017/11/13 05:33:24","新北市新莊區環河路48-7號","121.436861666667","25.0096466666667","6500500","新莊區"
"220064","282-UM","2017/11/13 06:59:14","新北市板橋區國光路49巷15號","121.458868333333","25.01878","6500100","板橋區"
