"lineid","car","time","location","longitude","latitude","cityid","cityname"
"248005","653-BX","2017/11/13 07:39:22","新北市五股區明德路12巷1號","121.433201666667","25.07164","6501500","五股區"
"232001","290-BY","2017/11/13 07:39:19","新北市坪林區上坑子口4號","121.698391666667","24.9583483333333","6502000","坪林區"
"232012","291-BY","2017/11/13 07:39:13","新北市坪林區金瓜寮14-7號","121.6826","24.917405","6502000","坪林區"
"232010","375-UM","2017/11/13 07:39:21","新北市坪林區苦苓腳2號","121.714098333333","24.9370783333333","6502000","坪林區"
"232017","705-BZ","2017/11/13 07:39:13","新北市平溪區東勢里芊蓁坑29號","121.732348333333","24.9756633333333","6502000","坪林區"
"232005","758-BX","2017/11/13 07:39:30","新北市坪林區魚堀33-1號","121.698135","24.925785","6502000","坪林區"
"244001","657-BX","2017/11/13 07:38:32","新北市林口區頂福里70號","121.330055","25.101145","6501700","林口區"
"222005","289-BY","2017/11/13 07:39:18","新北市深坑區文化街39巷13號","121.61894","25.001045","6501800","深坑區"
"226005","5620-A6","2017/11/13 07:39:06","新北市平溪區嶺腳里嶺腳寮27號","121.747905","25.0302366666667","6502400","平溪區"
"226001","7418-A5","2017/11/13 07:39:21","新北市平溪區平湖里大厝37-3號","121.779663333333","25.0298","6502400","平溪區"
"226003","AGD-0702","2017/11/13 07:39:18","新北市平溪區嶺腳里嶺腳寮45號","121.747885","25.030735","6502400","平溪區"
"223002","198-BX","2017/11/13 07:37:32","新北市石碇區北宜路五段竹坑巷17號","121.62478","24.9410133333333","6501900","石碇區"
"223001","205-TH","2017/11/13 07:39:26","新北市石碇區蓬菜寮10號","121.65154","24.9735866666667","6501900","石碇區"
"223008","406-TH","2017/11/13 07:34:19","新北市石碇區靜安路一段337號","121.69875","25.0145133333333","6501900","石碇區"
"223001","592-UM","2017/11/13 07:39:11","新北市石碇區蓬菜寮7-2號","121.653453333333","24.97503","6501900","石碇區"
"223004","660-BX","2017/11/13 07:39:30","新北市石碇區八分寮47號","121.642421666667","25.0139366666667","6501900","石碇區"
"223007","661-BX","2017/11/13 07:39:27","新北市石碇區靜安路一段337號","121.698098333333","25.0138166666667","6501900","石碇區"
"223005","677-TV","2017/11/13 07:39:19","新北市石碇區八分寮47-1號","121.642505","25.0139033333333","6501900","石碇區"
"227005","282-VK","2017/11/13 07:39:18","新北市雙溪區雙溪里太平路54號","121.864755","25.0353716666667","6502500","雙溪區"
"252006","073-UM","2017/11/13 07:39:27","新北市三芝區古庄里茂興店71-1號","121.491671666667","25.26522","6502100","三芝區"
"252004","249-BX","2017/11/13 07:39:20","新北市三芝區店子里龜子山36號","121.506246666667","25.2059666666667","6502100","三芝區"
"237001","159-UY","2017/11/13 07:39:21","新北市三峽區三樹路140號","121.378308333333","24.9400466666667","6500900","三峽區"
"236007","165-UM","2017/11/13 07:39:19","新北市土城區金城路三段287巷19號","121.473691666667","24.9922566666667","6501300","土城區"
"236001","339-SR","2017/11/13 07:39:18","新北市土城區南天母路137-4號","121.44777","24.954135","6501300","土城區"
"242030","AAC-296","2017/11/13 07:39:27","新北市新莊區新泰路357巷3弄57號","121.442243333333","25.0394633333333","6500500","新莊區"
"242028","986-R7","2017/11/13 07:39:16","新北市新莊區三和路12-21號","121.442186666667","25.0384783333333","6500500","新莊區"
"242049","751-BX","2017/11/13 07:39:13","新北市新莊區中正路473-1號","121.44201","25.032925","6500500","新莊區"
"242022","613-BX","2017/11/13 07:39:31","新北市新莊區新泰路255巷83號","121.442186666667","25.0389766666667","6500500","新莊區"
"242026","612-BX","2017/11/13 07:39:25","新北市新莊區新泰路255巷83號","121.442145","25.0391083333333","6500500","新莊區"
"242038","566-BX","2017/11/13 07:37:58","新北市新莊區三和路12-18號","121.442318333333","25.03764","6500500","新莊區"
"242043","497-BY","2017/11/13 07:39:16","新北市新莊區新泰路357巷3弄57號","121.442061666667","25.0396666666667","6500500","新莊區"
"242003","442-UM","2017/11/13 04:32:34","新北市新莊區三和路12-21號","121.441996666667","25.03883","6500500","新莊區"
"242047","441-UM","2017/11/13 07:39:22","新北市新莊區中正路494號","121.43615","25.0329116666667","6500500","新莊區"
"242052","440-UM","2017/11/13 07:39:26","新北市新莊區新泰路357巷3弄1號","121.44238","25.0411716666667","6500500","新莊區"
"242033","415-TV","2017/11/13 02:10:46","新北市新莊區新泰路357巷3弄57號","121.441988333333","25.03928","6500500","新莊區"
"242040","400-BY","2017/11/13 07:39:25","新北市新莊區三和路12-21號","121.442123333333","25.0380216666667","6500500","新莊區"
"242059","362-BY","2017/11/13 07:39:23","新北市新莊區三和路12-21號","121.442181666667","25.0386933333333","6500500","新莊區"
"242057","353-BY","2017/11/13 07:39:25","新北市新莊區三和路12-21號","121.442178333333","25.0385566666667","6500500","新莊區"
"242006","132-UY","2017/11/13 02:16:38","新北市新莊區三和路12-21號","121.442065","25.0388166666667","6500500","新莊區"
"242035","133-UY","2017/11/13 07:39:31","新北市新莊區三和路12-20號","121.441981666667","25.0378516666667","6500500","新莊區"
"242045","172-VK","2017/11/13 04:55:08","新北市新莊區新泰路255巷83號","121.442048333333","25.0388633333333","6500500","新莊區"
"242008","173-VK","2017/11/13 01:15:19","新北市新莊區三和路12-21號","121.441845","25.0388016666667","6500500","新莊區"
"242014","175-VK","2017/11/13 07:39:13","新北市新莊區新泰路255巷83號","121.442085","25.038965","6500500","新莊區"
"242001","176-VK","2017/11/13 07:39:31","新北市新莊區新泰路255巷83號","121.442101666667","25.0389566666667","6500500","新莊區"
"242001","233-RS","2017/11/13 05:33:24","新北市新莊區環河路48-7號","121.436861666667","25.0096466666667","6500500","新莊區"
"242012","346-TH","2017/11/13 04:52:35","新北市新莊區三和路12-17號","121.442048333333","25.0375233333333","6500500","新莊區"
"242018","348-TH","2017/11/13 02:41:01","新北市新莊區新泰路357巷3弄57號","121.442041666667","25.0395766666667","6500500","新莊區"
"242055","349-TH","2017/11/13 03:31:40","新北市新莊區三和路12-16號","121.44211","25.0374533333333","6500500","新莊區"
"242010","351-TH","2017/11/13 07:39:27","新北市新莊區新泰路357巷3弄57號","121.442036666667","25.0394783333333","6500500","新莊區"
"220064","282-UM","2017/11/13 07:39:14","新北市板橋區國光路49巷2號","121.458091666667","25.0180466666667","6500100","板橋區"
"242020","280-VK","2017/11/13 07:39:27","新北市新莊區三和路12-21號","121.44208","25.0383733333333","6500500","新莊區"
