"lineid","car","time","location","longitude","latitude","cityid","cityname"
"248005","653-BX","2017/11/13 07:49:22","新北市五股區明德路12巷3號","121.433246666667","25.07176","6501500","五股區"
"232001","290-BY","2017/11/13 07:49:19","新北市坪林區下坑子口19-2號","121.708111666667","24.94746","6502000","坪林區"
"232012","291-BY","2017/11/13 07:49:13","新北市坪林區金瓜寮22號","121.679748333333","24.9120116666667","6502000","坪林區"
"232010","375-UM","2017/11/13 07:49:21","新北市坪林區磨壁潭10號","121.7225","24.9383766666667","6502000","坪林區"
"232017","705-BZ","2017/11/13 07:49:13","新北市坪林區乾溪5號","121.74077","24.9732683333333","6502000","坪林區"
"232005","758-BX","2017/11/13 07:49:10","新北市坪林區魚堀49號","121.701486666667","24.9298983333333","6502000","坪林區"
"244016","485-VK","2017/11/13 07:49:18","新北市林口區粉寮69號","121.40497","25.0908466666667","6501700","林口區"
"244001","657-BX","2017/11/13 07:49:12","新北市林口區頂福22號","121.352411666667","25.0950033333333","6501700","林口區"
"222005","289-BY","2017/11/13 07:49:18","新北市深坑區文化街39巷1號","121.618958333333","25.001125","6501800","深坑區"
"226005","5620-A6","2017/11/13 07:49:26","新北市平溪區嶺腳里嶺腳寮74-1號","121.747666666667","25.0324816666667","6502400","平溪區"
"226001","7418-A5","2017/11/13 07:49:11","新北市平溪區南山里南山坪94號","121.777428333333","25.041065","6502400","平溪區"
"226003","AGD-0702","2017/11/13 07:49:18","新北市平溪區嶺腳里嶺腳寮94號","121.745803333333","25.0387183333333","6502400","平溪區"
"223002","198-BX","2017/11/13 07:49:11","新北市石碇區北宜路五段大湖巷12號","121.635178333333","24.9426166666667","6501900","石碇區"
"223001","205-TH","2017/11/13 07:48:06","新北市石碇區蛇舌子8號","121.6608","24.9696716666667","6501900","石碇區"
"223008","406-TH","2017/11/13 07:34:19","新北市石碇區靜安路一段337號","121.69875","25.0145133333333","6501900","石碇區"
"223001","592-UM","2017/11/13 07:48:51","新北市石碇區蛇舌子8-8號","121.658923333333","24.97105","6501900","石碇區"
"223004","660-BX","2017/11/13 07:49:30","新北市石碇區楓子林34號","121.642145","25.01023","6501900","石碇區"
"223007","661-BX","2017/11/13 07:46:31","新北市石碇區靜安路一段337號","121.698808333333","25.0143683333333","6501900","石碇區"
"223005","677-TV","2017/11/13 07:49:18","新北市石碇區楓子林34號","121.642116666667","25.0103266666667","6501900","石碇區"
"227005","282-VK","2017/11/13 07:49:18","新北市雙溪區雙溪里太平路50號","121.864731666667","25.035315","6502500","雙溪區"
"252006","073-UM","2017/11/13 07:49:27","新北市三芝區古庄里茂興店60-2號","121.487516666667","25.2659916666667","6502100","三芝區"
"252004","249-BX","2017/11/13 07:49:20","新北市三芝區店子里菜公坑102號","121.517508333333","25.2070866666667","6502100","三芝區"
"237001","159-UY","2017/11/13 07:49:21","新北市三峽區國慶路144號","121.375391666667","24.9396816666667","6500900","三峽區"
"236007","165-UM","2017/11/13 07:49:19","新北市土城區永豐路212號","121.466828333333","24.9829133333333","6501300","土城區"
"236001","339-SR","2017/11/13 07:45:58","新北市土城區承天路114號","121.451565","24.9503616666667","6501300","土城區"
"242030","AAC-296","2017/11/13 07:49:27","新北市新莊區新泰路401巷29-1號","121.442323333333","25.0439183333333","6500500","新莊區"
"242028","986-R7","2017/11/13 07:49:16","新北市新莊區福壽街69號","121.458125","25.0495383333333","6500500","新莊區"
"242049","751-BX","2017/11/13 07:49:33","新北市新莊區瓊林南路21-1號","121.438041666667","25.0203583333333","6500500","新莊區"
"242024","615-BX","2017/11/13 07:49:24","新北市新莊區新泰路488號","121.442411666667","25.0457966666667","6500500","新莊區"
"242022","613-BX","2017/11/13 07:49:31","新北市新莊區中港一街151號","121.447651666667","25.0450366666667","6500500","新莊區"
"242026","612-BX","2017/11/13 07:49:25","新北市新莊區中和街17號","121.448145","25.043555","6500500","新莊區"
"242038","566-BX","2017/11/13 07:49:18","新北市新莊區新樹路168號","121.434858333333","25.0223733333333","6500500","新莊區"
"242043","497-BY","2017/11/13 07:49:16","新北市新莊區富國路154號","121.423201666667","25.024955","6500500","新莊區"
"242003","442-UM","2017/11/13 07:49:27","新北市新莊區中港一街145號","121.447781666667","25.0450433333333","6500500","新莊區"
"242047","441-UM","2017/11/13 07:49:22","新北市新莊區龍安路249巷1號","121.419056666667","25.0207816666667","6500500","新莊區"
"242052","440-UM","2017/11/13 07:49:26","新北市新莊區瓊林路59-17號","121.442166666667","25.0246483333333","6500500","新莊區"
"242033","415-TV","2017/11/13 07:49:24","新北市新莊區瓊林路118號","121.442566666667","25.0256383333333","6500500","新莊區"
"242040","400-BY","2017/11/13 07:49:25","新北市新莊區新樹路13號","121.440726666667","25.0329283333333","6500500","新莊區"
"242059","362-BY","2017/11/13 07:49:23","新北市泰山區磚雅厝3號","121.442165","25.04163","6500500","新莊區"
"242057","353-BY","2017/11/13 07:49:25","新北市新莊區新泰路357巷3弄57號","121.44197","25.039245","6500500","新莊區"
"242006","132-UY","2017/11/13 07:49:18","新北市新莊區中和街61號","121.447495","25.0469266666667","6500500","新莊區"
"242035","133-UY","2017/11/13 07:49:11","新北市新莊區民安路429巷3號","121.4339","25.0232083333333","6500500","新莊區"
"242045","172-VK","2017/11/13 07:49:22","新北市新莊區中正路481號","121.441295","25.0337416666667","6500500","新莊區"
"242008","173-VK","2017/11/13 01:15:19","新北市新莊區三和路12-21號","121.441845","25.0388016666667","6500500","新莊區"
"242014","175-VK","2017/11/13 07:49:13","新北市新莊區新泰路257號","121.445958333333","25.0398733333333","6500500","新莊區"
"242001","176-VK","2017/11/13 07:49:10","新北市新莊區中正路400號","121.44185","25.0343433333333","6500500","新莊區"
"242001","233-RS","2017/11/13 05:33:24","新北市新莊區環河路48-7號","121.436861666667","25.0096466666667","6500500","新莊區"
"242012","346-TH","2017/11/13 07:49:15","新北市新莊區新泰路488號","121.44256","25.0459383333333","6500500","新莊區"
"242018","348-TH","2017/11/13 07:49:17","新北市新莊區中港路338號","121.452193333333","25.0458766666667","6500500","新莊區"
"242055","349-TH","2017/11/13 07:49:18","新北市新莊區新泰路357巷3弄37號","121.442275","25.0404","6500500","新莊區"
"242016","350-TH","2017/11/13 07:49:17","新北市新莊區中港一街26號","121.45127","25.0456166666667","6500500","新莊區"
"242010","351-TH","2017/11/13 07:49:27","新北市新莊區新泰路401巷29-1號","121.442328333333","25.0437333333333","6500500","新莊區"
"220064","282-UM","2017/11/13 07:49:14","新北市板橋區府中路69號","121.457888333333","25.00942","6500100","板橋區"
"242020","280-VK","2017/11/13 07:49:27","新北市新莊區中港一街145號","121.447806666667","25.0450533333333","6500500","新莊區"
