"lineid","car","time","location","longitude","latitude","cityid","cityname"
"244018","403-UM","2017/10/16 10:08:11","新北市林口區麗園二街87號","121.38267","25.066845","6501700","林口區"
"244025","742-UY","2017/10/16 09:35:44","新北市林口區粉寮路二段160巷28號","121.405178333333","25.0908166666667","6501700","林口區"
"244022","483-VK","2017/10/16 10:08:11","新北市林口區文化三路一段617巷90號","121.370135","25.077865","6501700","林口區"
"231007","189-VK","2017/10/16 10:08:01","新北市新店區新潭路三段215巷25號","121.508193333333","24.9041566666667","6500600","新店區"
"231008","192-VK","2017/10/16 09:54:56","新北市新店區平廣路一段256號","121.507865","24.8883866666667","6500600","新店區"
"223008","406-TH","2017/10/16 10:04:56","新北市石碇區南勢坑2-2號","121.698766666667","24.9893416666667","6501900","石碇區"
"223007","661-BX","2017/10/16 10:07:51","新北市石碇區南勢坑12號","121.698971666667","24.982505","6501900","石碇區"
"227005","282-VK","2017/10/16 10:04:48","新北市雙溪區泰平里灣潭路36號","121.81192","24.9286533333333","6502500","雙溪區"
"253003","6232-TK","2017/10/16 10:07:56","新北市石門區小坑12-1號","121.595451666667","25.2841016666667","6502200","石門區"
"253001","6251-TK","2017/10/16 10:08:00","新北市石門區崁子腳54-1號","121.536931666667","25.280915","6502200","石門區"
"253002","637-UY","2017/10/16 10:08:07","新北市石門區楓林37-3號","121.53998","25.2875816666667","6502200","石門區"
"253004","8270-PC","2017/10/16 10:08:00","新北市石門區茂林社區227-1號","121.591645","25.2704116666667","6502200","石門區"
"252004","249-BX","2017/10/16 10:08:06","新北市三芝區福德里土地公埔62號","121.516276666667","25.2242816666667","6502100","三芝區"
"252006","AAC-283","2017/10/16 10:08:11","新北市三芝區新庄里新庄子61-2號","121.5078","25.2740166666667","6502100","三芝區"
"237001","159-UY","2017/10/16 10:08:05","新北市三峽區學府路36號","121.372615","24.94822","6500900","三峽區"
"237001","159-BY","2017/10/16 10:07:58","新北市三峽區介壽路二段95號","121.392103333333","24.935555","6500900","三峽區"
"236001","339-SR","2017/10/16 10:08:00","新北市土城區千歲路26號","121.441776666667","24.968905","6501300","土城區"
"242028","986-R7","2017/10/16 10:08:03","新北市八里區荖阡坑路20-9號","121.398531666667","25.137745","6500500","新莊區"
"242059","362-BY","2017/10/16 10:08:05","新北市五股區凌雲路三段24巷7號","121.437788333333","25.1065233333333","6500500","新莊區"
"239006","661-UM","2017/10/16 09:54:59","新北市樹林區中山路三段210-2號","121.381493333333","24.96576","6500800","鶯歌區"
"220011","833-TW","2017/10/16 09:27:31","新北市板橋區民生路二段22號","121.47273","25.0166666666667","6500100","板橋區"
