"lineid","car","time","location","longitude","latitude","cityid","cityname"
"244025","742-UY","2017/10/16 09:35:44","新北市林口區粉寮路二段160巷28號","121.405178333333","25.0908166666667","6501700","林口區"
"231008","192-VK","2017/10/16 11:42:51","新北市新店區成功路50巷1號","121.540538333333","24.900175","6500600","新店區"
"227005","282-VK","2017/10/16 11:38:08","新北市雙溪區魚行里丁子蘭坑7號","121.871958333333","25.0065433333333","6502500","雙溪區"
"237001","159-BY","2017/10/16 10:30:53","新北市三峽區中山路459巷163-3號","121.348883333333","24.93308","6500900","三峽區"
"220011","833-TW","2017/10/16 09:27:31","新北市板橋區民生路二段22號","121.47273","25.0166666666667","6500100","板橋區"
