"lineid","car","time","location","longitude","latitude","cityid","cityname"
"234044","148-BY","2017/10/16 13:19:44","新北市永和區永元路20號","121.522276666667","25.00044","6500400","永和區"
"234012","149-BY","2017/10/16 13:19:46","新北市永和區信義路49號","121.513011666667","25.0124633333333","6500400","永和區"
"234005","207-UY","2017/10/16 13:19:48","新北市永和區中山路一段331號","121.506135","25.00628","6500400","永和區"
"234078","298-R6","2017/10/16 13:19:48","新北市永和區福和路7巷7號","121.525451666667","25.0078533333333","6500400","永和區"
"234036","336-UY","2017/10/16 13:19:45","新北市永和區民樂街55巷2號","121.527481666667","24.9983733333333","6500400","永和區"
"234062","337-UY","2017/10/16 13:19:44","新北市永和區永元路17巷6弄2號","121.521416666667","25.000695","6500400","永和區"
"234084","338-UY","2017/10/16 13:19:44","新北市永和區永利路39號","121.518846666667","25.0056616666667","6500400","永和區"
"234068","552-UM","2017/10/16 13:19:42","新北市永和區豫溪街67號","121.517638333333","25.009975","6500400","永和區"
"234052","553-UM","2017/10/16 13:19:50","新北市永和區中興街61號","121.51668","25.0117083333333","6500400","永和區"
"234015","745-BX","2017/10/16 13:19:46","新北市永和區環河西路一段95巷13號","121.5117","25.0173116666667","6500400","永和區"
"234028","746-BX","2017/10/16 13:19:45","新北市永和區厚德街48號","121.525006666667","24.9988133333333","6500400","永和區"
"234060","AAD-866","2017/10/16 13:19:46","新北市永和區秀朗路一段175號","121.517088333333","25.003745","6500400","永和區"
"234040","862-TW","2017/10/16 13:19:52","新北市永和區水源街43巷2號","121.50985","25.0042333333333","6500400","永和區"
"234048","863-TW","2017/10/16 13:19:49","新北市永和區保福路二段88巷27號","121.51185","25.013765","6500400","永和區"
"234025","9371-KE","2017/10/16 13:19:44","新北市永和區豫溪街28巷22號","121.515035","25.0089533333333","6500400","永和區"
"234010","9373-KE","2017/10/16 13:19:46","新北市永和區文化路122號","121.513156666667","25.0154233333333","6500400","永和區"
"249005","172-UM","2017/10/16 13:19:42","新北市八里區華峰三街46號","121.399065","25.1458933333333","6502300","八里區"
"248015","026-BX","2017/10/16 13:19:46","新北市五股區成泰路三段493號","121.449323333333","25.099335","6501500","五股區"
"248005","077-UY","2017/10/16 13:19:35","新北市五股區中興路一段152號","121.464466666667","25.0739166666667","6501500","五股區"
"248007","095-VK","2017/10/16 13:19:51","新北市五股區更洲路32巷8弄17號","121.459325","25.0795416666667","6501500","五股區"
"248019","225-UY","2017/10/16 13:19:23","新北市五股區孝義路47巷24號","121.449518333333","25.1098683333333","6501500","五股區"
"248011","247-BX","2017/10/16 13:19:49","新北市五股區御史路1巷101弄2號","121.441041666667","25.09116","6501500","五股區"
"248013","261-SL","2017/10/16 13:19:39","新北市五股區自強路19巷5-1號","121.434665","25.0738183333333","6501500","五股區"
"248009","272-BY","2017/10/16 13:19:34","新北市五股區成泰路一段139巷2弄4號","121.43509","25.0730383333333","6501500","五股區"
"248003","677-BX","2017/10/16 13:19:46","新北市五股區成泰路二段101號","121.438331666667","25.0843416666667","6501500","五股區"
"248001","678-BX","2017/10/16 13:19:50","新北市五股區西雲路49號","121.443473333333","25.0909516666667","6501500","五股區"
"234022","9380-KE","2017/10/16 13:19:46","新北市永和區竹林路101號","121.519835","25.0119833333333","6500400","永和區"
"234076","969-R7","2017/10/16 13:19:44","新北市永和區民有街28號","121.516935","24.9963166666667","6500400","永和區"
"234072","AAC-211","2017/10/16 13:19:43","新北市永和區竹林路95號","121.51977","25.0121266666667","6500400","永和區"
"234066","AAC-212","2017/10/16 13:19:46","新北市永和區保平路55號","121.511626666667","25.00707","6500400","永和區"
"234001","AAC-295","2017/10/16 13:19:31","新北市永和區中山路一段106號","121.511023333333","25.01041","6500400","永和區"
"244025","742-UY","2017/10/16 09:35:44","新北市林口區粉寮路二段160巷28號","121.405178333333","25.0908166666667","6501700","林口區"
"244001","657-BX","2017/10/16 13:19:36","新北市林口區寶斗厝坑83號","121.332328333333","25.1200083333333","6501700","林口區"
"243005","AAD-798","2017/10/16 13:19:35","新北市泰山區南林路109號","121.41585","25.0481033333333","6501600","泰山區"
"231028","046-UY","2017/10/16 13:19:34","新北市新店區安華路28-1號","121.519621666667","24.9608733333333","6500600","新店區"
"231030","047-UY","2017/10/16 13:19:38","新北市新店區安華路28-1號","121.519298333333","24.9610316666667","6500600","新店區"
"231029","106-UY","2017/10/16 13:19:43","新北市新店區安華路28-1號","121.519701666667","24.9608166666667","6500600","新店區"
"231011","108-UY","2017/10/16 13:19:34","新北市新店區安康路一段46巷4號","121.530566666667","24.961095","6500600","新店區"
"231019","187-VK","2017/10/16 13:19:39","新北市新店區安康路一段35號","121.53159","24.960815","6500600","新店區"
"231014","KEA-2219","2017/10/16 13:19:37","新北市新店區安康路一段134號","121.526688333333","24.9628583333333","6500600","新店區"
"231026","256-BX","2017/10/16 13:19:49","新北市新店區安華路28-1號","121.519783333333","24.96113","6500600","新店區"
"231034","268-BY","2017/10/16 13:19:36","新北市新店區安華路28-1號","121.519453333333","24.96067","6500600","新店區"
"231010","278-BY","2017/10/16 13:19:44","新北市新店區安康路一段9-2號","121.533728333333","24.9606","6500600","新店區"
"231023","AAD-862","2017/10/16 13:19:37","新北市新店區秀山路72號","121.531498333333","24.9609366666667","6500600","新店區"
"231002","355-BY","2017/10/16 13:19:46","新北市新店區安華路28-1號","121.519331666667","24.9610266666667","6500600","新店區"
"231027","3712-VJ","2017/10/16 13:19:39","新北市新店區環河路23號","121.537423333333","24.961365","6500600","新店區"
"231024","3713-VJ","2017/10/16 13:19:49","新北市新店區安康路一段35-5號","121.53195","24.960675","6500600","新店區"
"231025","4716-K9","2017/10/16 13:19:32","新北市新店區安華路28-1號","121.519371666667","24.9612683333333","6500600","新店區"
"231038","4715-K9","2017/10/16 13:19:49","新北市新店區安華路28-1號","121.519426666667","24.9606133333333","6500600","新店區"
"231036","513-UM","2017/10/16 13:19:49","新北市新店區安忠路205巷8號","121.510106666667","24.9554083333333","6500600","新店區"
"231035","515-UM","2017/10/16 13:19:47","新北市新店區安華路28-1號","121.519721666667","24.9612083333333","6500600","新店區"
"231001","619-UM","2017/10/16 13:19:38","新北市新店區安華路28-1號","121.519621666667","24.9609283333333","6500600","新店區"
"231003","641-BX","2017/10/16 13:19:48","新北市新店區安華路28-1號","121.519543333333","24.9605816666667","6500600","新店區"
"231013","719-UM","2017/10/16 13:19:39","新北市新店區安康路一段94-3號","121.527666666667","24.9622233333333","6500600","新店區"
"231018","719-UY","2017/10/16 13:19:34","新北市新店區安康路一段355-10號","121.520733333333","24.9638883333333","6500600","新店區"
"231031","720-UM","2017/10/16 13:19:42","新北市新店區安忠路205巷8號","121.509691666667","24.9551416666667","6500600","新店區"
"231005","897-TW","2017/10/16 13:19:50","新北市新店區安華路28-1號","121.519726666667","24.9615366666667","6500600","新店區"
"231006","898-TW","2017/10/16 13:19:46","新北市新店區安華路28-1號","121.519426666667","24.960985","6500600","新店區"
"231004","899-TW","2017/10/16 13:19:50","新北市新店區安華路28-1號","121.519336666667","24.9609566666667","6500600","新店區"
"231037","AKT-0513","2017/10/16 13:19:45","新北市新店區安豐路54號","121.499626666667","24.9545483333333","6500600","新店區"
"235030","003-UY","2017/10/16 13:19:49","新北市中和區中山路二段129號","121.502546666667","25.0034066666667","6500300","中和區"
"235028","005-UY","2017/10/16 13:19:44","新北市中和區中正路128號","121.499621666667","24.993925","6500300","中和區"
"235027","006-UY","2017/10/16 13:19:47","新北市中和區中正路589巷15號","121.485636666667","24.9936183333333","6500300","中和區"
"235003","097-UM","2017/10/16 13:19:50","新北市中和區景平路355號","121.50471","24.9935133333333","6500300","中和區"
"235029","098-UM","2017/10/16 13:19:46","新北市中和區莊敬路49巷20弄22號","121.502768333333","25.00587","6500300","中和區"
"235004","150-BY","2017/10/16 13:19:39","新北市中和區景新街170號","121.505838333333","24.9965333333333","6500300","中和區"
"235022","151-BY","2017/10/16 13:19:54","新北市中和區圓通路391-6號","121.489743333333","24.9891933333333","6500300","中和區"
"235019","183-VK","2017/10/16 13:19:40","新北市中和區員山路36巷16-3號","121.485085","24.9914066666667","6500300","中和區"
"235002","185-VK","2017/10/16 13:19:39","新北市中和區大智街57號","121.521196666667","24.99211","6500300","中和區"
"235031","255-BX","2017/10/16 13:19:46","新北市中和區新生街191號","121.48396","25.0002683333333","6500300","中和區"
"235036","301-VK","2017/10/16 13:19:45","新北市中和區中正路589巷15號","121.485825","24.9936533333333","6500300","中和區"
"235007","352-BY","2017/10/16 13:19:36","新北市中和區景平路514號","121.503458333333","24.9937683333333","6500300","中和區"
"235032","375-QA","2017/10/16 13:19:41","新北市中和區員山路36巷16-3號","121.485046666667","24.9914066666667","6500300","中和區"
"235015","376-QA","2017/10/16 13:19:45","新北市中和區信義街115號","121.511996666667","24.9868766666667","6500300","中和區"
"235025","378-QA","2017/10/16 13:19:38","新北市中和區民德路216號","121.468178333333","24.9980133333333","6500300","中和區"
"235035","269-TV","2017/10/16 13:19:53","新北市中和區永和路333巷1-6號","121.484971666667","25.0110983333333","6500300","中和區"
"235014","4979-A6","2017/10/16 13:19:43","新北市中和區捷運路61巷9號","121.508993333333","24.98948","6500300","中和區"
"235033","4980-A6","2017/10/16 13:19:45","新北市中和區連城路125號","121.496211666667","24.9991216666667","6500300","中和區"
"235006","551-UM","2017/10/16 13:19:37","新北市中和區大仁街20巷25弄31號","121.519215","24.9936433333333","6500300","中和區"
"235034","558-UM","2017/10/16 13:19:02","新北市中和區中正路304號","121.493963333333","24.9941016666667","6500300","中和區"
"235009","565-BX","2017/10/16 13:19:49","新北市中和區中正路242號","121.495928333333","24.9940983333333","6500300","中和區"
"235018","640-BX","2017/10/16 13:19:44","新北市中和區民德路140號","121.468711666667","25.0005133333333","6500300","中和區"
"235024","647-TV","2017/10/16 13:19:44","新北市中和區員山路36巷16-3號","121.484855","24.9917916666667","6500300","中和區"
"235011","732-UM","2017/10/16 13:19:45","新北市中和區復興路261號","121.502861666667","24.9903516666667","6500300","中和區"
"235026","800-TS","2017/10/16 13:19:43","新北市中和區景平路999巷1號","121.495443333333","25.0060333333333","6500300","中和區"
"235021","801-TS","2017/10/16 13:19:32","新北市中和區員山路36巷16-3號","121.484915","24.9918016666667","6500300","中和區"
"235005","802-TS","2017/10/16 13:19:45","新北市中和區景安路30-5號","121.507246666667","24.998395","6500300","中和區"
"235016","805-TS","2017/10/16 13:19:37","新北市中和區南山路389號","121.50647","24.99032","6500300","中和區"
"235012","896-TW","2017/10/16 13:19:53","新北市中和區中正路488-5號","121.488991666667","24.994485","6500300","中和區"
"235017","900-TW","2017/10/16 13:19:47","新北市中和區員山路36巷16-2號","121.485035","24.9918683333333","6500300","中和區"
"235001","AAC-213","2017/10/16 13:19:45","新北市中和區景德街137號","121.514695","24.9910716666667","6500300","中和區"
"247015","057-VK","2017/10/16 02:09:15","新北市五股區中興路三段2巷10號","121.449255","25.08108","6501400","蘆洲區"
"227005","282-VK","2017/10/16 13:19:48","新北市雙溪區三貂里政光路3-1號","121.850808333333","25.0634166666667","6502500","雙溪區"
"208004","AAC-292","2017/10/16 13:19:53","新北市金山區南勢湖27號","121.6181","25.216335","6502700","金山區"
"207002","749-BX","2017/10/16 13:19:38","新北市萬里區崁腳里崁腳路166號","121.644898333333","25.1559566666667","6502800","萬里區"
"252005","073-UM","2017/10/16 13:19:41","新北市三芝區八賢里八連溪41-1號","121.513166666667","25.2369233333333","6502100","三芝區"
"207001","662-BX","2017/10/16 13:19:42","新北市萬里區龜吼里光宇大道2號","121.679755","25.1912533333333","6502800","萬里區"
"237001","159-BY","2017/10/16 10:30:53","新北市三峽區中山路459巷163-3號","121.348883333333","24.93308","6500900","三峽區"
"236005","498-BY","2017/10/16 13:19:41","新北市土城區亞洲路108巷1弄15號","121.433495","24.9722166666667","6501300","土城區"
"238018","308-TH","2017/10/16 13:19:37","新北市樹林區太平路212-2號","121.418491666667","24.9744483333333","6500700","樹林區"
"238012","303-VK","2017/10/16 13:19:49","新北市樹林區中山路三段204號","121.387348333333","24.96837","6500700","樹林區"
"221032","280-BY","2017/10/16 13:19:34","新北市汐止區龍安路44-1號","121.654131666667","25.06395","6501100","汐止區"
"221018","753-BX","2017/10/16 13:19:31","新北市汐止區福德一路392巷37弄26號","121.625608333333","25.0617566666667","6501100","汐止區"
"220011","609-BX","2017/10/16 13:19:49","新北市板橋區民生路二段161巷1號","121.470101666667","25.0200966666667","6500100","板橋區"
"220011","833-TW","2017/10/16 09:27:31","新北市板橋區民生路二段22號","121.47273","25.0166666666667","6500100","板橋區"
