"lineid","car","time","location","longitude","latitude","cityid","cityname"
"234044","148-BY","2017/10/16 13:39:44","新北市永和區秀朗路二段127號","121.524298333333","25.00172","6500400","永和區"
"234012","149-BY","2017/10/16 13:39:47","新北市永和區永平路210號","121.509411666667","25.010235","6500400","永和區"
"234005","207-UY","2017/10/16 13:39:48","新北市永和區永和路一段94號","121.513133333333","25.0069283333333","6500400","永和區"
"234078","298-R6","2017/10/16 13:39:48","新北市永和區國中路104巷8弄13號","121.525213333333","25.0065816666667","6500400","永和區"
"234036","336-UY","2017/10/16 13:39:40","新北市永和區民樂街29號","121.527818333333","25.0015216666667","6500400","永和區"
"234062","337-UY","2017/10/16 13:39:44","新北市永和區秀朗路一段192巷6弄14號","121.519118333333","25.0023016666667","6500400","永和區"
"234084","338-UY","2017/10/16 13:39:44","新北市永和區林森路41巷31號","121.52623","25.004245","6500400","永和區"
"234068","552-UM","2017/10/16 13:39:42","新北市永和區永和路二段239號","121.51573","25.0146583333333","6500400","永和區"
"234052","553-UM","2017/10/16 13:39:50","新北市永和區竹林路39巷10號","121.518303333333","25.01446","6500400","永和區"
"234015","745-BX","2017/10/16 13:39:46","新北市永和區忠孝街26巷8號","121.515285","25.0168816666667","6500400","永和區"
"234028","746-BX","2017/10/16 13:39:45","新北市永和區民權路29巷1號","121.520338333333","24.9978216666667","6500400","永和區"
"234060","AAD-866","2017/10/16 13:39:46","新北市永和區中正路472號","121.517395","25.003295","6500400","永和區"
"234040","862-TW","2017/10/16 13:39:32","新北市永和區水源街30巷2號","121.511446666667","25.0046666666667","6500400","永和區"
"234048","863-TW","2017/10/16 13:39:49","新北市永和區保安路23號","121.510356666667","25.0167916666667","6500400","永和區"
"234025","9371-KE","2017/10/16 13:39:44","新北市永和區和平街95巷12號","121.511215","25.0095033333333","6500400","永和區"
"234010","9373-KE","2017/10/16 13:39:46","新北市永和區仁愛路141巷30弄26號","121.512045","25.0114966666667","6500400","永和區"
"249005","172-UM","2017/10/16 13:39:42","新北市八里區中華路二段466號","121.400983333333","25.1461033333333","6502300","八里區"
"248015","026-BX","2017/10/16 13:39:44","新北市五股區凌雲路一段133巷27-3號","121.448618333333","25.1008933333333","6501500","五股區"
"248005","077-UY","2017/10/16 13:39:35","新北市五股區中興路一段32號","121.46864","25.0724683333333","6501500","五股區"
"248007","095-VK","2017/10/16 13:39:31","新北市五股區中興路一段149號","121.465103333333","25.0735416666667","6501500","五股區"
"248019","225-UY","2017/10/16 13:39:43","新北市五股區孝義路73-1號","121.445516666667","25.11956","6501500","五股區"
"248011","247-BX","2017/10/16 13:39:49","新北市五股區御史路56巷1號","121.441608333333","25.09428","6501500","五股區"
"248013","261-SL","2017/10/16 13:39:39","新北市五股區中興路四段70號","121.437013333333","25.0834633333333","6501500","五股區"
"248009","272-BY","2017/10/16 13:39:34","新北市五股區水碓七路168號","121.430821666667","25.0740216666667","6501500","五股區"
"248003","677-BX","2017/10/16 13:39:47","新北市五股區民義路一段236-6號","121.427458333333","25.0913183333333","6501500","五股區"
"248001","678-BX","2017/10/16 13:39:50","新北市五股區西雲路247號","121.449265","25.09786","6501500","五股區"
"234022","9380-KE","2017/10/16 13:39:46","新北市永和區福和路1號","121.525525","25.0094166666667","6500400","永和區"
"234076","969-R7","2017/10/16 13:39:46","新北市永和區民族街43巷15號","121.519196666667","24.998425","6500400","永和區"
"234072","AAC-211","2017/10/16 13:39:44","新北市永和區福和路76巷6弄1號","121.523011666667","25.008505","6500400","永和區"
"234066","AAC-212","2017/10/16 13:39:44","新北市永和區中山路一段188號","121.508988333333","25.0088266666667","6500400","永和區"
"234001","AAC-295","2017/10/16 13:39:32","新北市永和區秀朗路一段33號","121.514015","25.006875","6500400","永和區"
"244025","742-UY","2017/10/16 09:35:44","新北市林口區粉寮路二段160巷28號","121.405178333333","25.0908166666667","6501700","林口區"
"244001","657-BX","2017/10/16 13:39:36","新北市林口區瑞平里8鄰53-1號","121.342296666667","25.1229383333333","6501700","林口區"
"243005","AAD-798","2017/10/16 13:39:35","新北市泰山區明志路三段206巷3號","121.423326666667","25.0379766666667","6501600","泰山區"
"243007","380-SR","2017/10/16 13:34:08","新北市泰山區犁頭窠3-1號","121.42194","25.0605733333333","6501600","泰山區"
"243004","646-TV","2017/10/16 13:39:35","新北市泰山區福興三街13號","121.434448333333","25.0578283333333","6501600","泰山區"
"243008","680-BX","2017/10/16 13:39:48","新北市泰山區泰林路二段220號","121.432696666667","25.061925","6501600","泰山區"
"231028","046-UY","2017/10/16 13:39:34","新北市新店區安和路二段166號","121.5196","24.9737333333333","6500600","新店區"
"231030","047-UY","2017/10/16 13:39:37","新北市新店區安康路一段113號","121.52851","24.9617383333333","6500600","新店區"
"231029","106-UY","2017/10/16 13:39:43","新北市新店區安康路二段216號","121.50984","24.959375","6500600","新店區"
"231011","108-UY","2017/10/16 13:39:34","新北市新店區德正街27巷27號","121.545733333333","24.9715666666667","6500600","新店區"
"231019","187-VK","2017/10/16 13:39:39","新北市新店區永興路88號","121.544411666667","24.9327433333333","6500600","新店區"
"231014","KEA-2219","2017/10/16 13:39:37","新北市新店區北宜路二段58號","121.549276666667","24.9514416666667","6500600","新店區"
"231026","256-BX","2017/10/16 13:39:50","新北市新店區中正路111號","121.542493333333","24.970625","6500600","新店區"
"231034","268-BY","2017/10/16 13:39:36","新北市新店區車子路109號","121.505265","24.952185","6500600","新店區"
"231010","278-BY","2017/10/16 13:39:49","新北市新店區中正路307巷2號","121.536471666667","24.9745516666667","6500600","新店區"
"231023","AAD-862","2017/10/16 13:39:37","新北市新店區新店路122號","121.53711","24.9549516666667","6500600","新店區"
"231002","355-BY","2017/10/16 13:39:46","新北市新店區中央三街127號","121.524093333333","24.976885","6500600","新店區"
"231027","3712-VJ","2017/10/16 13:39:39","新北市新店區新店路14號","121.538028333333","24.9526083333333","6500600","新店區"
"231024","3713-VJ","2017/10/16 13:39:29","新北市新店區華興街40號","121.537061666667","24.9691633333333","6500600","新店區"
"231025","4716-K9","2017/10/16 13:39:32","新北市新店區中央五街1號","121.530263333333","24.97413","6500600","新店區"
"231038","4715-K9","2017/10/16 13:39:49","新北市新店區安華路30巷1號","121.519626666667","24.9593016666667","6500600","新店區"
"231036","513-UM","2017/10/16 13:39:29","新北市新店區安祥路147巷39號","121.476541666667","24.9564566666667","6500600","新店區"
"231035","515-UM","2017/10/16 13:39:47","新北市新店區安忠路94-1號","121.511143333333","24.957305","6500600","新店區"
"231001","619-UM","2017/10/16 13:39:38","新北市新店區中正路376號","121.534913333333","24.9768333333333","6500600","新店區"
"231003","641-BX","2017/10/16 13:39:48","新北市新店區中興路一段289-1號","121.545665","24.9687883333333","6500600","新店區"
"231013","719-UM","2017/10/16 13:39:45","新北市新店區二十張路92號","121.536278333333","24.979785","6500600","新店區"
"231018","719-UY","2017/10/16 13:39:34","新北市新店區中央路22-1號","121.533336666667","24.9784583333333","6500600","新店區"
"231031","720-UM","2017/10/16 13:39:49","新北市新店區莒光路44巷21弄11-3號","121.518523333333","24.95217","6500600","新店區"
"231005","897-TW","2017/10/16 13:39:50","新北市新店區寶中路72號","121.547921666667","24.9806683333333","6500600","新店區"
"231006","898-TW","2017/10/16 13:39:46","新北市新店區北宜路一段3號","121.53806","24.9584466666667","6500600","新店區"
"231004","899-TW","2017/10/16 13:39:50","新北市新店區北新路二段7號","121.542731666667","24.9713666666667","6500600","新店區"
"231037","AKT-0513","2017/10/16 13:39:45","新北市新店區安康路二段412號","121.496583333333","24.9553516666667","6500600","新店區"
"235030","003-UY","2017/10/16 13:39:49","新北市中和區光華街44號","121.504963333333","25.0036216666667","6500300","中和區"
"235028","005-UY","2017/10/16 13:39:35","新北市中和區連城路89巷12號","121.497035","24.9992683333333","6500300","中和區"
"235027","006-UY","2017/10/16 13:39:47","新北市中和區連城路389巷6號","121.486535","24.9957433333333","6500300","中和區"
"235020","096-UM","2017/10/16 13:39:38","新北市中和區員山路466巷19號","121.480973333333","25.0065883333333","6500300","中和區"
"235003","097-UM","2017/10/16 13:39:29","新北市中和區大勇街25巷2號","121.517203333333","24.993315","6500300","中和區"
"235029","098-UM","2017/10/16 13:39:46","新北市中和區中山路二段2巷45弄44號","121.501756666667","25.00642","6500300","中和區"
"235004","150-BY","2017/10/16 13:39:39","新北市中和區保健路50巷66號","121.509253333333","24.9951666666667","6500300","中和區"
"235022","151-BY","2017/10/16 13:39:34","新北市中和區圓通路369巷39-23號","121.490071666667","24.9852166666667","6500300","中和區"
"235019","183-VK","2017/10/16 13:39:40","新北市中和區莒光路120巷13弄1-4號","121.471643333333","25.0015033333333","6500300","中和區"
"235002","185-VK","2017/10/16 13:39:39","新北市永和區民有街75巷10弄20號","121.519106666667","24.9958416666667","6500300","中和區"
"235013","186-VK","2017/10/16 13:39:44","新北市中和區景安路136號","121.505088333333","24.9943116666667","6500300","中和區"
"235031","255-BX","2017/10/16 13:39:46","新北市中和區新生街232號","121.48389","24.9981916666667","6500300","中和區"
"235008","293-VK","2017/10/16 13:39:42","新北市中和區景安路220巷1弄2號","121.50329","24.9908433333333","6500300","中和區"
"235036","301-VK","2017/10/16 13:39:45","新北市中和區連城路171巷41弄1號","121.496125","24.996605","6500300","中和區"
"235007","352-BY","2017/10/16 13:39:36","新北市中和區景平路103號","121.517066666667","24.9917866666667","6500300","中和區"
"235032","375-QA","2017/10/16 13:39:41","新北市中和區中正路211巷13弄8號","121.497255","24.9931116666667","6500300","中和區"
"235015","376-QA","2017/10/16 13:39:45","新北市中和區華新街143巷106弄7號","121.506186666667","24.978955","6500300","中和區"
"235025","378-QA","2017/10/16 13:39:38","新北市中和區民享街90巷24號","121.473463333333","25.0000866666667","6500300","中和區"
"235035","269-TV","2017/10/16 13:39:42","新北市中和區光中路20號","121.48502","25.0142416666667","6500300","中和區"
"235014","4979-A6","2017/10/16 13:39:43","新北市中和區景新街496巷30弄24號","121.512806666667","24.9856516666667","6500300","中和區"
"235033","4980-A6","2017/10/16 13:39:45","新北市中和區泰和街32號","121.499475","25.00031","6500300","中和區"
"235006","551-UM","2017/10/16 13:39:36","新北市中和區成功路127巷21號","121.527031666667","24.99111","6500300","中和區"
"235034","558-UM","2017/10/16 13:39:02","新北市中和區南華路15號","121.502566666667","24.995595","6500300","中和區"
"235009","565-BX","2017/10/16 13:39:30","新北市中和區復興路51號","121.504651666667","24.989935","6500300","中和區"
"235018","640-BX","2017/10/16 13:39:44","新北市中和區民享街86巷30弄2號","121.47318","25.0008416666667","6500300","中和區"
"235024","647-TV","2017/10/16 13:39:45","新北市中和區員山路437-3號","121.480693333333","25.00408","6500300","中和區"
"235011","732-UM","2017/10/16 13:39:45","新北市中和區興南路一段164號","121.50815","24.9866483333333","6500300","中和區"
"235010","733-UM","2017/10/16 13:39:49","新北市中和區捷運路113號","121.507886666667","24.9903716666667","6500300","中和區"
"235026","800-TS","2017/10/16 13:39:43","新北市中和區中山路二段312巷23號","121.495696666667","25.0034216666667","6500300","中和區"
"235021","801-TS","2017/10/16 13:39:52","新北市中和區民安街41號","121.479888333333","25.0003","6500300","中和區"
"235005","802-TS","2017/10/16 13:39:45","新北市中和區中和路400巷31號","121.512018333333","25.0020833333333","6500300","中和區"
"235016","805-TS","2017/10/16 13:39:37","新北市中和區興南路三段40-1號","121.496146666667","24.9774916666667","6500300","中和區"
"235012","896-TW","2017/10/16 13:39:33","新北市中和區中正路63號","121.501421666667","24.9933983333333","6500300","中和區"
"235017","900-TW","2017/10/16 13:39:47","新北市中和區民享街482號","121.469343333333","24.9924366666667","6500300","中和區"
"235001","AAC-213","2017/10/16 13:39:45","新北市中和區景平路111巷63號","121.515215","24.99037","6500300","中和區"
"235023","AAC-215","2017/10/16 13:39:50","新北市中和區員山路36巷16-2號","121.485326666667","24.9913583333333","6500300","中和區"
"220016","013-TV","2017/10/16 13:39:48","新北市板橋區民生路二段161巷9號","121.470285","25.0195883333333","6500100","板橋區"
"220034","073-UY","2017/10/16 13:39:37","新北市板橋區南雅西路二段164號","121.451713333333","25.01366","6500100","板橋區"
"247009","339-TH","2017/10/16 13:39:30","新北市五股區新城八路26號","121.448108333333","25.089945","6501400","蘆洲區"
"247015","057-VK","2017/10/16 13:39:42","新北市五股區成泰路三段544-1號","121.453918333333","25.1018266666667","6501400","蘆洲區"
"247005","056-VK","2017/10/16 13:39:40","新北市五股區中興路四段17號","121.440365","25.082165","6501400","蘆洲區"
"247007","053-VK","2017/10/16 13:39:50","新北市蘆洲區復興路323巷158-1號","121.479643333333","25.0960933333333","6501400","蘆洲區"
"208004","AAC-292","2017/10/16 13:39:33","新北市金山區南勢湖30號","121.613636666667","25.218045","6502700","金山區"
"207002","749-BX","2017/10/16 13:39:38","新北市萬里區崁腳里崁腳路166號","121.644906666667","25.15595","6502800","萬里區"
"252005","073-UM","2017/10/16 13:39:38","新北市三芝區圓山里八連溪頭6號","121.526195","25.2219666666667","6502100","三芝區"
"207001","662-BX","2017/10/16 13:39:42","新北市萬里區磺潭里公館崙30號","121.63521","25.21113","6502800","萬里區"
"237001","159-BY","2017/10/16 10:30:53","新北市三峽區中山路459巷163-3號","121.348883333333","24.93308","6500900","三峽區"
"236040","107-UM","2017/10/16 13:39:43","新北市土城區城林路6巷80號","121.4384","24.97989","6501300","土城區"
"236074","166-UM","2017/10/16 13:39:32","新北市土城區員福街50號","121.440565","24.9791266666667","6501300","土城區"
"236028","253-BX","2017/10/16 13:39:31","新北市土城區城林路6巷80號","121.438516666667","24.97978","6501300","土城區"
"236012","270-VK","2017/10/16 13:39:35","新北市土城區城林路6巷80號","121.4386","24.9797566666667","6501300","土城區"
"236032","271-VK","2017/10/16 13:39:47","新北市土城區城林路6巷80號","121.43869","24.9797183333333","6501300","土城區"
"236016","401-BY","2017/10/16 13:39:37","新北市土城區城林路6巷80號","121.438656666667","24.979775","6501300","土城區"
"236005","498-BY","2017/10/16 13:39:41","新北市土城區慶祥街78號","121.436183333333","24.9735283333333","6501300","土城區"
"236044","913-UM","2017/10/16 13:39:38","新北市土城區城林路6巷80號","121.438415","24.9798233333333","6501300","土城區"
"236060","915-UM","2017/10/16 13:39:44","新北市土城區城林路6巷80號","121.438571666667","24.9797933333333","6501300","土城區"
"236052","AAC-216","2017/10/16 13:39:34","新北市土城區城林路6巷80號","121.438375","24.9798116666667","6501300","土城區"
"238012","303-VK","2017/10/16 13:31:28","新北市樹林區育德街78-1號","121.387831666667","24.9681266666667","6500700","樹林區"
"221032","280-BY","2017/10/16 13:39:34","新北市汐止區秀峰路6巷10號","121.659173333333","25.0662333333333","6501100","汐止區"
"221018","753-BX","2017/10/16 13:39:31","新北市汐止區福德二路77號","121.633078333333","25.066105","6501100","汐止區"
"220027","145-BY","2017/10/16 13:39:46","新北市板橋區館前西路162號","121.452868333333","25.0086133333333","6500100","板橋區"
"220028","200-UY","2017/10/16 13:39:31","新北市板橋區華東街1-8號","121.44794","24.99484","6500100","板橋區"
"220030","610-BX","2017/10/16 13:39:37","新北市板橋區華東街1-10號","121.4483","24.9949716666667","6500100","板橋區"
"220020","277-BY","2017/10/16 13:39:35","新北市板橋區板城路407號","121.447456666667","24.9951466666667","6500100","板橋區"
"220043","280-UM","2017/10/16 13:39:35","新北市板橋區民生路二段120號","121.470308333333","25.0199933333333","6500100","板橋區"
"220019","283-VK","2017/10/16 13:39:46","新北市板橋區華東街1-9號","121.448076666667","24.99496","6500100","板橋區"
"220001","285-VK","2017/10/16 13:39:37","新北市板橋區民生路二段120號","121.47036","25.0198816666667","6500100","板橋區"
"220031","286-VK","2017/10/16 13:39:47","新北市板橋區華東街1-9號","121.448191666667","24.9949866666667","6500100","板橋區"
"220029","287-VK","2017/10/16 13:39:41","新北市板橋區華東街1-8號","121.447868333333","24.9948133333333","6500100","板橋區"
"220009","293-UM","2017/10/16 13:39:34","新北市板橋區民生路二段120號","121.470396666667","25.0197316666667","6500100","板橋區"
"220032","296-UM","2017/10/16 13:39:37","新北市板橋區華東街1-9號","121.448166666667","24.9949516666667","6500100","板橋區"
"220010","303-R5","2017/10/16 13:39:30","新北市板橋區民生路二段120號","121.470481666667","25.0195716666667","6500100","板橋區"
"220012","486-VK","2017/10/16 13:39:32","新北市板橋區稚暉街18號","121.455821666667","25.00451","6500100","板橋區"
"220037","491-VK","2017/10/16 13:39:36","新北市板橋區民生路二段177號","121.469876666667","25.0202983333333","6500100","板橋區"
"220104","560-BX","2017/10/16 13:39:47","新北市板橋區南雅西路二段123巷1號","121.451798333333","25.0106166666667","6500100","板橋區"
"220023","568-UM","2017/10/16 13:39:33","新北市板橋區華東街1-9號","121.448116666667","24.99493","6500100","板橋區"
"220011","609-BX","2017/10/16 13:39:30","新北市板橋區民生路二段120號","121.470428333333","25.0197966666667","6500100","板橋區"
"220040","637-BX","2017/10/16 13:39:35","新北市板橋區民生路二段161巷1號","121.469996666667","25.0199516666667","6500100","板橋區"
"220005","686-BX","2017/10/16 13:39:43","新北市板橋區華東街1-9號","121.448195","24.994895","6500100","板橋區"
"220025","687-BX","2017/10/16 13:39:48","新北市板橋區大觀路三段212巷72號","121.429803333333","24.9933483333333","6500100","板橋區"
"220042","689-BX","2017/10/16 13:39:46","新北市板橋區民生路二段161巷1號","121.470183333333","25.020185","6500100","板橋區"
"220014","829-TW","2017/10/16 13:39:38","新北市板橋區民生路二段120號","121.470505","25.0198216666667","6500100","板橋區"
"220051","830-TW","2017/10/16 13:39:26","新北市板橋區民生路二段171號","121.46996","25.0201983333333","6500100","板橋區"
"220011","833-TW","2017/10/16 09:27:31","新北市板橋區民生路二段22號","121.47273","25.0166666666667","6500100","板橋區"
"220022","895-R6","2017/10/16 13:39:47","新北市板橋區南雅南路一段121號","121.455216666667","25.00474","6500100","板橋區"
"220021","985-R7","2017/10/16 13:39:50","新北市板橋區華東街1-10號","121.448715","24.994815","6500100","板橋區"
"220046","AAC-210","2017/10/16 13:39:33","新北市板橋區民生路二段161巷3號","121.470121666667","25.01978","6500100","板橋區"
"220018","AAC-253","2017/10/16 13:39:45","新北市板橋區華東街1-10號","121.448273333333","24.9949116666667","6500100","板橋區"
