"lineid","car","time","location","longitude","latitude","cityid","cityname"
"234044","148-BY","2017/10/16 14:09:44","新北市永和區成功路一段16巷4號","121.526783333333","25.0055433333333","6500400","永和區"
"234012","149-BY","2017/10/16 14:09:46","新北市永和區仁愛路265號","121.506265","25.0100133333333","6500400","永和區"
"234005","207-UY","2017/10/16 14:09:48","新北市中和區保平路300號","121.507713333333","25.0043933333333","6500400","永和區"
"234078","298-R6","2017/10/16 14:09:48","新北市永和區國中路88號","121.52457","25.006235","6500400","永和區"
"234036","336-UY","2017/10/16 14:09:40","新北市永和區成功路二段62號","121.52669","24.9996133333333","6500400","永和區"
"234062","337-UY","2017/10/16 14:09:44","新北市永和區永利路156號","121.522578333333","25.0027783333333","6500400","永和區"
"234084","338-UY","2017/10/16 14:09:44","新北市永和區福和路170號","121.52108","25.007825","6500400","永和區"
"234068","552-UM","2017/10/16 14:09:42","新北市永和區中正路634號","121.517148333333","25.0081416666667","6500400","永和區"
"234052","553-UM","2017/10/16 14:09:50","新北市永和區環河東路一段106號","121.520171666667","25.0161633333333","6500400","永和區"
"234015","745-BX","2017/10/16 14:09:46","新北市永和區仁愛路30號","121.514608333333","25.0134416666667","6500400","永和區"
"234028","746-BX","2017/10/16 14:09:45","新北市永和區民生路24號","121.522385","24.99731","6500400","永和區"
"234060","AAD-866","2017/10/16 14:09:46","新北市永和區安樂路72巷7號","121.515173333333","24.9987733333333","6500400","永和區"
"234040","862-TW","2017/10/16 14:09:52","新北市永和區雙和街64巷22弄9號","121.509915","25.002945","6500400","永和區"
"234048","863-TW","2017/10/16 14:09:49","新北市永和區環河西路二段89號","121.506628333333","25.01495","6500400","永和區"
"234025","9371-KE","2017/10/16 14:09:44","新北市永和區安樂路272巷9弄7號","121.515103333333","25.0046266666667","6500400","永和區"
"234010","9373-KE","2017/10/16 14:09:46","新北市永和區仁愛路352巷94號","121.501195","25.008035","6500400","永和區"
"249005","172-UM","2017/10/16 14:09:42","新北市八里區中山路一段282號","121.413705","25.15961","6502300","八里區"
"248015","026-BX","2017/10/16 14:09:44","新北市五股區成泰路三段553號","121.452","25.10193","6501500","五股區"
"248019","225-UY","2017/10/16 14:09:43","新北市五股區凌雲路三段57號","121.425283333333","25.12503","6501500","五股區"
"248011","247-BX","2017/10/16 14:09:49","新北市五股區工商路38號","121.439378333333","25.08378","6501500","五股區"
"248009","272-BY","2017/10/16 14:09:34","新北市五股區自強路90巷72號","121.430733333333","25.0712516666667","6501500","五股區"
"248003","677-BX","2017/10/16 14:09:46","新北市五股區六合街21號","121.43099","25.08871","6501500","五股區"
"248001","678-BX","2017/10/16 14:09:51","新北市五股區成泰路三段577巷72號","121.450181666667","25.10348","6501500","五股區"
"234022","9380-KE","2017/10/16 14:09:46","新北市永和區永和路二段183號","121.515378333333","25.0134366666667","6500400","永和區"
"234076","969-R7","2017/10/16 14:09:44","新北市永和區民有街75巷10弄1號","121.518401666667","24.9962616666667","6500400","永和區"
"234072","AAC-211","2017/10/16 14:09:55","新北市永和區豫溪街147號","121.520875","25.01037","6500400","永和區"
"234066","AAC-212","2017/10/16 14:09:38","新北市永和區保平路236巷15弄1號","121.50859","25.0062766666667","6500400","永和區"
"234001","AAC-295","2017/10/16 14:09:52","新北市永和區中正路700號","121.516275","25.00986","6500400","永和區"
"244025","742-UY","2017/10/16 09:35:44","新北市林口區粉寮路二段160巷28號","121.405178333333","25.0908166666667","6501700","林口區"
"243005","AAD-798","2017/10/16 14:09:35","新北市泰山區台麗街16巷12號","121.42436","25.0376433333333","6501600","泰山區"
"243007","380-SR","2017/10/16 14:09:49","新北市泰山區明志路一段477號","121.430821666667","25.0556216666667","6501600","泰山區"
"243006","421-VK","2017/10/16 14:09:33","新北市泰山區泰林路二段480號","121.425058333333","25.0640416666667","6501600","泰山區"
"243002","KEA-2215","2017/10/16 14:09:48","新北市泰山區明志路一段481號","121.431031666667","25.0553533333333","6501600","泰山區"
"243003","KEA-2216","2017/10/16 14:09:38","新北市泰山區中央路10號","121.426741666667","25.0439883333333","6501600","泰山區"
"243004","646-TV","2017/10/16 14:09:55","新北市泰山區吳厝窠1號","121.427991666667","25.0585216666667","6501600","泰山區"
"243008","680-BX","2017/10/16 14:09:48","新北市泰山區明志路二段367號","121.425225","25.0440883333333","6501600","泰山區"
"231028","046-UY","2017/10/16 14:09:34","新北市新店區安和路2段237-1號","121.51702","24.9764766666667","6500600","新店區"
"231030","047-UY","2017/10/16 14:09:37","新北市新店區安民街65巷21-2號","121.515193333333","24.9674916666667","6500600","新店區"
"231029","106-UY","2017/10/16 14:09:43","新北市新店區安康路二段147號","121.511401666667","24.9599633333333","6500600","新店區"
"231011","108-UY","2017/10/16 14:09:54","新北市新店區中興路一段263號","121.544735","24.96734","6500600","新店區"
"231019","187-VK","2017/10/16 14:09:39","新北市新店區自強路117號","121.546113333333","24.9229966666667","6500600","新店區"
"231014","KEA-2219","2017/10/16 14:09:37","新北市新店區郵政路64號","121.555283333333","24.9516466666667","6500600","新店區"
"231034","268-BY","2017/10/16 14:09:36","新北市新店區黎明路3號","121.503566666667","24.9525166666667","6500600","新店區"
"231023","AAD-862","2017/10/16 14:09:37","新北市新店區文中路40號","121.539621666667","24.956565","6500600","新店區"
"231002","355-BY","2017/10/16 14:09:46","新北市新店區中正路542-1號","121.533706666667","24.9846783333333","6500600","新店區"
"231027","3712-VJ","2017/10/16 14:09:39","新北市新店區北宜路一段9號","121.538211666667","24.9581766666667","6500600","新店區"
"231025","4716-K9","2017/10/16 14:09:32","新北市新店區中正路328巷42弄12號","121.538525","24.9759516666667","6500600","新店區"
"231038","4715-K9","2017/10/16 14:09:49","新北市新店區溪洲路121號","121.531355","24.962695","6500600","新店區"
"231036","513-UM","2017/10/16 14:09:49","新北市新店區安祥路109巷1弄47號","121.47725","24.9605466666667","6500600","新店區"
"231035","515-UM","2017/10/16 14:09:47","新北市新店區安和路一段52巷2號","121.517648333333","24.9662316666667","6500600","新店區"
"231001","619-UM","2017/10/16 14:09:38","新北市新店區中華路52號","121.539626666667","24.9685283333333","6500600","新店區"
"231003","641-BX","2017/10/16 14:09:48","新北市新店區光明街138巷13弄1號","121.540465","24.96104","6500600","新店區"
"231013","719-UM","2017/10/16 14:09:39","新北市新店區北新路三段49號","121.541846666667","24.980625","6500600","新店區"
"231018","719-UY","2017/10/16 14:09:34","新北市新店區中央五街13號","121.529775","24.9743866666667","6500600","新店區"
"231031","720-UM","2017/10/16 14:09:42","新北市新店區溪洲路101-1號","121.532386666667","24.9621416666667","6500600","新店區"
"231005","897-TW","2017/10/16 14:09:54","新北市新店區中興路三段313號","121.541913333333","24.986085","6500600","新店區"
"231006","898-TW","2017/10/16 14:09:46","新北市新店區北宜路二段317號","121.556905","24.95391","6500600","新店區"
"231004","899-TW","2017/10/16 14:09:50","新北市新店區北新路二段199號","121.542565","24.9781916666667","6500600","新店區"
"231037","AKT-0513","2017/10/16 14:09:45","新北市新店區安康路二段341巷26號","121.49652","24.9544866666667","6500600","新店區"
"235030","003-UY","2017/10/16 14:09:49","新北市中和區廣福路38號","121.504415","25.002155","6500300","中和區"
"235028","005-UY","2017/10/16 14:09:56","新北市中和區泰和街30巷18號","121.499051666667","25.001095","6500300","中和區"
"235027","006-UY","2017/10/16 14:09:47","新北市中和區連城路263號","121.491858333333","24.9965083333333","6500300","中和區"
"235020","096-UM","2017/10/16 14:09:38","新北市中和區員山路568號","121.47865","25.01077","6500300","中和區"
"235003","097-UM","2017/10/16 14:09:50","新北市中和區景平路3號","121.523703333333","24.9902966666667","6500300","中和區"
"235029","098-UM","2017/10/16 14:09:46","新北市中和區中山路二段64巷7弄25號","121.502716666667","25.0046116666667","6500300","中和區"
"235004","150-BY","2017/10/16 14:09:39","新北市中和區宜安路115號","121.510145","24.9977816666667","6500300","中和區"
"235022","151-BY","2017/10/16 14:09:34","新北市中和區員山路122號","121.481185","24.995945","6500300","中和區"
"235019","183-VK","2017/10/16 14:09:40","新北市中和區民德路1號","121.468808333333","25.0034516666667","6500300","中和區"
"235002","185-VK","2017/10/16 14:09:39","新北市中和區立人街69巷3號","121.519988333333","24.9939033333333","6500300","中和區"
"235013","186-VK","2017/10/16 14:09:31","新北市中和區明仁街2號","121.505828333333","24.9955316666667","6500300","中和區"
"235031","255-BX","2017/10/16 14:09:46","新北市中和區新生街189號","121.483711666667","25.000305","6500300","中和區"
"235008","293-VK","2017/10/16 14:09:41","新北市中和區中興街214號","121.499455","24.9899183333333","6500300","中和區"
"235036","301-VK","2017/10/16 14:09:45","新北市中和區中山路二段178巷1號","121.500581666667","25.0027983333333","6500300","中和區"
"235007","352-BY","2017/10/16 14:09:36","新北市中和區景平路112號","121.519671666667","24.991635","6500300","中和區"
"235032","375-QA","2017/10/16 14:09:41","新北市中和區圓通路158巷1弄7號","121.497376666667","24.99589","6500300","中和區"
"235015","376-QA","2017/10/16 14:09:45","新北市中和區景新街377號","121.51233","24.9903783333333","6500300","中和區"
"235025","378-QA","2017/10/16 14:09:38","新北市中和區中山路三段63巷9號","121.477225","25.00432","6500300","中和區"
"235035","269-TV","2017/10/16 14:09:53","新北市中和區立德街98巷99號","121.488828333333","25.00862","6500300","中和區"
"235014","4979-A6","2017/10/16 14:09:43","新北市中和區復興路280巷18弄20號","121.501698333333","24.9921883333333","6500300","中和區"
"235033","4980-A6","2017/10/16 14:09:45","新北市中和區中和路217巷20號","121.50479","25.00036","6500300","中和區"
"235006","551-UM","2017/10/16 14:09:36","新北市中和區忠孝街37-1號","121.510703333333","24.9833416666667","6500300","中和區"
"235034","558-UM","2017/10/16 14:09:42","新北市中和區安和路217號","121.505916666667","24.999315","6500300","中和區"
"235009","565-BX","2017/10/16 14:09:49","新北市中和區景新街467巷38弄2號","121.514533333333","24.9885733333333","6500300","中和區"
"235018","640-BX","2017/10/16 14:09:44","新北市中和區國光街87號","121.470466666667","25.0001416666667","6500300","中和區"
"235024","647-TV","2017/10/16 14:09:44","新北市中和區民治街13巷2號","121.475225","25.00404","6500300","中和區"
"235011","732-UM","2017/10/16 14:09:44","新北市中和區興南路一段56巷3弄2號","121.510538333333","24.9911016666667","6500300","中和區"
"235010","733-UM","2017/10/16 14:09:49","新北市中和區忠孝街1巷12號","121.508696666667","24.9836516666667","6500300","中和區"
"235026","800-TS","2017/10/16 14:09:43","新北市中和區中山路二段380巷4號","121.491011666667","25.0044633333333","6500300","中和區"
"235021","801-TS","2017/10/16 14:09:52","新北市中和區民利街102號","121.477498333333","24.9978683333333","6500300","中和區"
"235005","802-TS","2017/10/16 14:09:45","新北市中和區中安街104-1號","121.511708333333","25.00113","6500300","中和區"
"235016","805-TS","2017/10/16 14:09:37","新北市中和區興南路二段261巷6-5號","121.502236666667","24.9793566666667","6500300","中和區"
"235012","896-TW","2017/10/16 14:09:33","新北市中和區工專路147號","121.508453333333","24.9788983333333","6500300","中和區"
"235017","900-TW","2017/10/16 14:09:47","新北市中和區和平路250號","121.464605","24.997015","6500300","中和區"
"235001","AAC-213","2017/10/16 14:09:44","新北市中和區秀朗路三段60巷49號","121.52476","24.994735","6500300","中和區"
"235023","AAC-215","2017/10/16 14:09:50","新北市中和區圓通路294巷17-5號","121.488633333333","24.990465","6500300","中和區"
"220016","013-TV","2017/10/16 14:09:38","新北市板橋區翠華街6巷15號","121.481011666667","25.0243216666667","6500100","板橋區"
"220013","072-UY","2017/10/16 14:09:49","新北市板橋區民族路247巷7弄44號","121.47053","25.0085666666667","6500100","板橋區"
"220034","073-UY","2017/10/16 14:09:55","新北市板橋區中正路236巷43-1號","121.457655","25.0194116666667","6500100","板橋區"
"220105","075-UY","2017/10/16 14:09:23","新北市板橋區文化路二段263巷20號","121.471228333333","25.0297816666667","6500100","板橋區"
"220017","AAD-861","2017/10/16 14:09:33","新北市板橋區東興街20號","121.45821","25.0053316666667","6500100","板橋區"
"247021","893-R6","2017/10/16 14:09:49","新北市蘆洲區三民路193號","121.470445","25.08774","6501400","蘆洲區"
"247011","546-UM","2017/10/16 14:09:49","新北市蘆洲區信義路268號","121.478096666667","25.0869216666667","6501400","蘆洲區"
"247019","500-BY","2017/10/16 14:09:42","新北市蘆洲區民族路422巷15弄21號","121.473166666667","25.0930083333333","6501400","蘆洲區"
"247009","339-TH","2017/10/16 14:09:50","新北市蘆洲區三民路70號","121.47533","25.0837433333333","6501400","蘆洲區"
"247001","337-TH","2017/10/16 14:09:50","新北市蘆洲區永平街42號","121.458211666667","25.0911733333333","6501400","蘆洲區"
"247003","336-TH","2017/10/16 14:09:37","新北市蘆洲區中華街6巷5號","121.462343333333","25.0825216666667","6501400","蘆洲區"
"247015","057-VK","2017/10/16 14:09:41","新北市蘆洲區中正路185巷19號","121.467503333333","25.0848566666667","6501400","蘆洲區"
"247005","056-VK","2017/10/16 14:09:40","新北市蘆洲區九芎街15巷12號","121.467801666667","25.07784","6501400","蘆洲區"
"247007","053-VK","2017/10/16 14:09:50","新北市五股區四維路142巷23號","121.470326666667","25.0750066666667","6501400","蘆洲區"
"247013","007-UY","2017/10/16 14:09:55","新北市蘆洲區忠孝路86號","121.471481666667","25.0856966666667","6501400","蘆洲區"
"247023","002-UY","2017/10/16 14:09:38","新北市蘆洲區光榮路118-2號","121.464991666667","25.0891633333333","6501400","蘆洲區"
"247017","001-UY","2017/10/16 14:09:49","新北市蘆洲區復興路111-6號","121.476608333333","25.0883266666667","6501400","蘆洲區"
"208004","AAC-292","2017/10/16 14:09:53","新北市金山區山城路29號","121.598391666667","25.202255","6502700","金山區"
"207002","749-BX","2017/10/16 14:09:38","新北市萬里區溪底里瑞泉路8-2號","121.607186666667","25.144565","6502800","萬里區"
"252005","073-UM","2017/10/16 14:09:38","新北市三芝區橫山里橫山57-3號","121.53612","25.2525616666667","6502100","三芝區"
"207001","662-BX","2017/10/16 14:09:42","新北市萬里區磺潭里清水18號","121.637893333333","25.1976683333333","6502800","萬里區"
"237001","159-BY","2017/10/16 10:30:53","新北市三峽區中山路459巷163-3號","121.348883333333","24.93308","6500900","三峽區"
"236064","105-UM","2017/10/16 14:09:46","新北市土城區明德路一段398號","121.453136666667","24.9795116666667","6501300","土城區"
"236040","107-UM","2017/10/16 14:09:43","新北市土城區裕生路64號","121.447545","24.9861083333333","6501300","土城區"
"236074","166-UM","2017/10/16 14:09:40","新北市土城區永寧路32巷42弄9號","121.428148333333","24.96152","6501300","土城區"
"236028","253-BX","2017/10/16 14:09:51","新北市土城區城林路6巷80號","121.438421666667","24.9798066666667","6501300","土城區"
"236024","269-VK","2017/10/16 14:09:53","新北市土城區承天路67號","121.439546666667","24.9635833333333","6501300","土城區"
"236012","270-VK","2017/10/16 14:09:35","新北市土城區學府路一段93號","121.456381666667","24.98799","6501300","土城區"
"236032","271-VK","2017/10/16 14:09:47","新北市土城區明德路一段375-3號","121.454443333333","24.978425","6501300","土城區"
"236016","401-BY","2017/10/16 14:09:37","新北市土城區城林路6巷80號","121.438616666667","24.9798033333333","6501300","土城區"
"236005","498-BY","2017/10/16 14:09:41","新北市土城區中央路一段2-1號","121.449613333333","24.9927033333333","6501300","土城區"
"236056","912-UM","2017/10/16 14:09:46","新北市土城區中央路四段45-1號","121.422521666667","24.96191","6501300","土城區"
"236044","913-UM","2017/10/16 14:09:18","新北市土城區明德路一段398號","121.453303333333","24.9793333333333","6501300","土城區"
"236060","915-UM","2017/10/16 14:09:44","新北市土城區金城路二段200號","121.454935","24.9818533333333","6501300","土城區"
"236052","AAC-216","2017/10/16 14:09:34","新北市土城區中華路二段2號","121.439023333333","24.9797666666667","6501300","土城區"
"238012","303-VK","2017/10/16 13:31:28","新北市樹林區育德街78-1號","121.387831666667","24.9681266666667","6500700","樹林區"
"220027","145-BY","2017/10/16 14:09:47","新北市板橋區民權路202巷9弄10號","121.4601","25.0155316666667","6500100","板橋區"
"220028","200-UY","2017/10/16 14:09:51","新北市板橋區大觀路二段7巷95號","121.450093333333","25.0030083333333","6500100","板橋區"
"220030","610-BX","2017/10/16 14:09:51","新北市板橋區溪北路52號","121.427466666667","24.98993","6500100","板橋區"
"220050","245-BX","2017/10/16 14:09:49","新北市板橋區莊敬路208巷2弄6號","121.471603333333","25.0215983333333","6500100","板橋區"
"220004","276-BY","2017/10/16 14:09:41","新北市板橋區信義路74巷7弄11-1號","121.456726666667","24.9922833333333","6500100","板橋區"
"220020","277-BY","2017/10/16 14:09:45","新北市板橋區金門街369巷67弄1號","121.429016666667","24.9837083333333","6500100","板橋區"
"220043","280-UM","2017/10/16 14:09:34","新北市板橋區光武街100號","121.46599","25.0288833333333","6500100","板橋區"
"220019","283-VK","2017/10/16 14:09:50","新北市板橋區重慶路245巷54號","121.465203333333","25.0009033333333","6500100","板橋區"
"220001","285-VK","2017/10/16 14:09:37","新北市板橋區懷仁街24巷23號","121.475623333333","25.019225","6500100","板橋區"
"220031","286-VK","2017/10/16 14:09:47","新北市板橋區大觀路二段174巷173弄10號","121.441431666667","25.0038933333333","6500100","板橋區"
"220029","287-VK","2017/10/16 13:48:21","新北市板橋區南雅西路二段123巷8號","121.451683333333","25.0107583333333","6500100","板橋區"
"220039","288-VK","2017/10/16 14:09:35","新北市板橋區裕民街45巷3-1號","121.461593333333","25.02834","6500100","板橋區"
"220009","293-UM","2017/10/16 14:09:34","新北市板橋區中山路二段256號","121.478771666667","25.0183766666667","6500100","板橋區"
"220045","295-UM","2017/10/16 14:09:44","新北市板橋區雙十路二段47巷1號","121.476286666667","25.026065","6500100","板橋區"
"220032","296-UM","2017/10/16 14:09:37","新北市板橋區篤行路一段16-1號","121.431325","24.99556","6500100","板橋區"
"220010","303-R5","2017/10/16 14:09:49","新北市板橋區三民路二段居仁巷1弄2-1號","121.479373333333","25.0134283333333","6500100","板橋區"
"220041","307-R5","2017/10/16 14:09:43","新北市板橋區文化路二段225巷60弄68號","121.46912","25.0299683333333","6500100","板橋區"
"220047","317-R6","2017/10/16 14:09:42","新北市板橋區自由路51巷14弄10號","121.464666666667","25.0238133333333","6500100","板橋區"
"220012","486-VK","2017/10/16 14:09:52","新北市板橋區板新路80號","121.472831666667","25.014335","6500100","板橋區"
"220038","487-VK","2017/10/16 14:09:43","新北市板橋區文化路二段444號","121.474413333333","25.0321666666667","6500100","板橋區"
"220037","491-VK","2017/10/16 14:09:36","新北市板橋區莊敬路40-3號","121.472895","25.027115","6500100","板橋區"
"220104","560-BX","2017/10/16 14:09:47","新北市板橋區中正路379巷1弄32號","121.453135","25.0218983333333","6500100","板橋區"
"220052","561-BX","2017/10/16 14:09:51","新北市板橋區文化路一段188巷9弄23號","121.468583333333","25.01944","6500100","板橋區"
"220023","568-UM","2017/10/16 14:09:53","新北市板橋區大智街25巷16號","121.454598333333","25.0148166666667","6500100","板橋區"
"220011","609-BX","2017/10/16 14:09:49","新北市板橋區三民路二段37-2號","121.479366666667","25.017255","6500100","板橋區"
"220040","637-BX","2017/10/16 14:09:42","新北市板橋區萬板路472號","121.47983","25.0259766666667","6500100","板橋區"
"220005","686-BX","2017/10/16 14:09:43","新北市板橋區重慶路253-3號","121.463475","25.000195","6500100","板橋區"
"220025","687-BX","2017/10/16 14:09:48","新北市板橋區大觀路一段38巷156弄4號","121.44263","25.0045266666667","6500100","板橋區"
"220042","689-BX","2017/10/16 14:09:46","新北市板橋區民生路三段203號","121.465338333333","25.0279266666667","6500100","板橋區"
"220002","741-BX","2017/10/16 14:09:35","新北市板橋區重慶路93巷47號","121.463421666667","25.0059933333333","6500100","板橋區"
"220003","827-TW","2017/10/16 14:09:51","新北市板橋區區運路19號","121.4655","25.0102183333333","6500100","板橋區"
"220014","829-TW","2017/10/16 14:09:38","新北市板橋區長安街224巷4號","121.474973333333","25.0120933333333","6500100","板橋區"
"220051","830-TW","2017/10/16 14:09:46","新北市板橋區田單街44號","121.482641666667","25.0278483333333","6500100","板橋區"
"220011","833-TW","2017/10/16 09:27:31","新北市板橋區民生路二段22號","121.47273","25.0166666666667","6500100","板橋區"
"220022","895-R6","2017/10/16 14:09:37","新北市板橋區林園街60號","121.453628333333","25.01075","6500100","板橋區"
"220021","985-R7","2017/10/16 14:09:50","新北市板橋區西門街18-3號","121.454516666667","25.0112583333333","6500100","板橋區"
"220046","AAC-210","2017/10/16 14:09:53","新北市板橋區新海路135巷2號","121.459926666667","25.022905","6500100","板橋區"
"220018","AAC-253","2017/10/16 14:09:47","新北市板橋區忠孝路23號","121.46049","25.0019116666667","6500100","板橋區"
