"lineid","car","time","location","longitude","latitude","cityid","cityname"
"234005","207-UY","2017/10/16 14:29:48","新北市永和區中正路520號","121.517305","25.0048516666667","6500400","永和區"
"234078","298-R6","2017/10/16 14:29:48","新北市永和區永亨路70號","121.520941666667","25.00595","6500400","永和區"
"234036","336-UY","2017/10/16 14:29:40","新北市永和區民樂街31巷13號","121.528446666667","25.0018483333333","6500400","永和區"
"234062","337-UY","2017/10/16 14:29:46","新北市永和區中正路516號","121.517271666667","25.004755","6500400","永和區"
"234084","338-UY","2017/10/16 14:29:44","新北市永和區永和路二段243號","121.515745","25.0146733333333","6500400","永和區"
"234068","552-UM","2017/10/16 14:29:42","新北市永和區永寧街2號","121.520365","25.0065783333333","6500400","永和區"
"234052","553-UM","2017/10/16 14:29:30","新北市永和區光復街31-1號","121.516698333333","25.0179333333333","6500400","永和區"
"234028","746-BX","2017/10/16 14:29:44","新北市永和區民權路84號","121.519861666667","24.997025","6500400","永和區"
"234060","AAD-866","2017/10/16 14:29:47","新北市永和區秀安街1號","121.515245","25.0024383333333","6500400","永和區"
"234040","862-TW","2017/10/16 14:29:52","新北市永和區安樂路248-2號","121.514618333333","25.003365","6500400","永和區"
"234048","863-TW","2017/10/16 14:28:49","新北市永和區新生路140號","121.50665","25.0143516666667","6500400","永和區"
"234025","9371-KE","2017/10/16 14:29:44","新北市中和區中和路400巷27-3號","121.511841666667","25.0022266666667","6500400","永和區"
"234010","9373-KE","2017/10/16 14:29:46","新北市永和區仁愛路352巷122弄13號","121.500731666667","25.0088916666667","6500400","永和區"
"249005","172-UM","2017/10/16 14:29:42","新北市八里區挖子尾街16號","121.415291666667","25.1644116666667","6502300","八里區"
"248015","026-BX","2017/10/16 14:29:44","新北市五股區成泰路四段26號","121.45495","25.1082483333333","6501500","五股區"
"248007","095-VK","2017/10/16 14:29:51","新北市五股區中興路一段95巷13號","121.46659","25.0723283333333","6501500","五股區"
"248019","225-UY","2017/10/16 14:29:43","新北市五股區凌雲路三段57號","121.425311666667","25.1250283333333","6501500","五股區"
"248011","247-BX","2017/10/16 14:29:49","新北市五股區蓬萊路24號","121.433866666667","25.0799533333333","6501500","五股區"
"248013","261-SL","2017/10/16 14:29:50","新北市五股區民義路一段157-22號","121.431573333333","25.08683","6501500","五股區"
"248009","272-BY","2017/10/16 14:29:34","新北市五股區自強路90巷72號","121.430786666667","25.071335","6501500","五股區"
"248003","677-BX","2017/10/16 14:29:46","新北市五股區五福路54號","121.433495","25.0896533333333","6501500","五股區"
"248001","678-BX","2017/10/16 14:29:50","新北市五股區成泰路三段436號","121.450861666667","25.09951","6501500","五股區"
"234022","9380-KE","2017/10/16 14:29:46","新北市永和區文化路14號","121.515343333333","25.01508","6500400","永和區"
"234072","AAC-211","2017/10/16 14:29:43","新北市永和區豫溪街217巷21號","121.524488333333","25.0100266666667","6500400","永和區"
"234066","AAC-212","2017/10/16 14:29:38","新北市中和區保平路231號","121.50798","25.0044183333333","6500400","永和區"
"234001","AAC-295","2017/10/16 14:29:32","新北市永和區自強街2號","121.514138333333","25.0080683333333","6500400","永和區"
"244025","742-UY","2017/10/16 09:35:44","新北市林口區粉寮路二段160巷28號","121.405178333333","25.0908166666667","6501700","林口區"
"243005","AAD-798","2017/10/16 14:29:35","新北市泰山區民國街30號","121.42564","25.0427716666667","6501600","泰山區"
"243007","380-SR","2017/10/16 14:29:49","新北市泰山區民權街66巷2號","121.428633333333","25.04998","6501600","泰山區"
"243006","421-VK","2017/10/16 14:29:33","新北市泰山區仁愛路6巷4弄1號","121.431396666667","25.0535766666667","6501600","泰山區"
"243002","KEA-2215","2017/10/16 14:29:49","新北市泰山區中華街10巷2號","121.428153333333","25.0523866666667","6501600","泰山區"
"243003","KEA-2216","2017/10/16 14:29:38","新北市三重區新北大道六段52號","121.42886","25.0395783333333","6501600","泰山區"
"243004","646-TV","2017/10/16 14:29:49","新北市泰山區全興路18巷1號","121.432013333333","25.0587516666667","6501600","泰山區"
"243008","680-BX","2017/10/16 14:29:50","新北市泰山區明志路三段170號","121.424328333333","25.0390633333333","6501600","泰山區"
"231028","046-UY","2017/10/16 14:29:50","新北市新店區安康路二段147號","121.511231666667","24.9598783333333","6500600","新店區"
"231030","047-UY","2017/10/16 14:29:37","新北市新店區安民街65巷17號","121.516015","24.9669433333333","6500600","新店區"
"231029","106-UY","2017/10/16 14:29:43","新北市新店區安康路二段416號","121.49649","24.9552333333333","6500600","新店區"
"231011","108-UY","2017/10/16 14:29:54","新北市新店區寶興路65巷2號","121.55086","24.9716633333333","6500600","新店區"
"231019","187-VK","2017/10/16 14:29:39","新北市新店區桂山路37號","121.559895","24.9019566666667","6500600","新店區"
"231014","KEA-2219","2017/10/16 14:29:37","新北市新店區北宜路三段66號","121.575866666667","24.9507616666667","6500600","新店區"
"231034","268-BY","2017/10/16 14:29:36","新北市新店區黎明路3號","121.503568333333","24.9524633333333","6500600","新店區"
"231023","AAD-862","2017/10/16 14:29:37","新北市新店區光明街77號","121.53893","24.960655","6500600","新店區"
"231002","355-BY","2017/10/16 14:29:46","新北市新店區中央路99號","121.531151666667","24.974935","6500600","新店區"
"231027","3712-VJ","2017/10/16 14:29:40","新北市新店區北新路二段228巷13號","121.543458333333","24.9771683333333","6500600","新店區"
"231025","4716-K9","2017/10/16 14:29:52","新北市新店區民族路161號","121.537798333333","24.9768233333333","6500600","新店區"
"231038","4715-K9","2017/10/16 14:29:49","新北市新店區溪洲路8巷56號","121.533393333333","24.9622733333333","6500600","新店區"
"231036","513-UM","2017/10/16 14:29:29","新北市新店區安祥路109巷151弄12號","121.478106666667","24.9589116666667","6500600","新店區"
"231035","515-UM","2017/10/16 14:29:47","新北市新店區吉安街21號","121.516268333333","24.9658833333333","6500600","新店區"
"231001","619-UM","2017/10/16 14:29:38","新北市新店區中正路75巷71號","121.54312","24.9689266666667","6500600","新店區"
"231003","641-BX","2017/10/16 14:29:48","新北市新店區中興路一段273號","121.545041666667","24.968235","6500600","新店區"
"231013","719-UM","2017/10/16 14:29:39","新北市新店區民權路96號","121.536528333333","24.9831633333333","6500600","新店區"
"231018","719-UY","2017/10/16 14:29:34","新北市新店區中央二街65號","121.526556666667","24.9746966666667","6500600","新店區"
"231031","720-UM","2017/10/16 14:29:42","新北市新店區安民街65巷17-1號","121.515436666667","24.9668883333333","6500600","新店區"
"231005","897-TW","2017/10/16 14:29:30","新北市新店區中興路三段128號","121.544715","24.9796433333333","6500600","新店區"
"231006","898-TW","2017/10/16 14:29:46","新北市新店區北宜路二段485號","121.562388333333","24.9538633333333","6500600","新店區"
"231004","899-TW","2017/10/16 14:29:30","新北市新店區中正路239號","121.539323333333","24.9732283333333","6500600","新店區"
"235030","003-UY","2017/10/16 14:29:48","新北市中和區景新街117號","121.50564","24.9975466666667","6500300","中和區"
"235028","005-UY","2017/10/16 14:29:35","新北市中和區中和路139號","121.501925","24.99978","6500300","中和區"
"235027","006-UY","2017/10/16 14:29:47","新北市中和區連城路237-1號","121.493861666667","24.9973316666667","6500300","中和區"
"235020","096-UM","2017/10/16 14:29:38","新北市中和區民富街33號","121.476448333333","25.0078366666667","6500300","中和區"
"235003","097-UM","2017/10/16 14:29:50","新北市中和區秀峰街119巷8弄1號","121.519378333333","24.9891216666667","6500300","中和區"
"235029","098-UM","2017/10/16 14:29:46","新北市中和區永和路8巷1號","121.500103333333","25.0031183333333","6500300","中和區"
"235004","150-BY","2017/10/16 14:29:39","新北市中和區宜安路1巷28弄1號","121.512273333333","24.9941183333333","6500300","中和區"
"235022","151-BY","2017/10/16 14:29:34","新北市中和區連城路322號","121.483323333333","24.9960633333333","6500300","中和區"
"235019","183-VK","2017/10/16 14:29:40","新北市中和區中山路三段181巷18弄11號","121.47273","25.0049016666667","6500300","中和區"
"235002","185-VK","2017/10/16 14:29:44","新北市中和區大仁街10巷48-1號","121.519516666667","24.99236","6500300","中和區"
"235013","186-VK","2017/10/16 14:29:32","新北市中和區景新街295巷17號","121.510803333333","24.9933616666667","6500300","中和區"
"235031","255-BX","2017/10/16 14:29:46","新北市中和區新生街264號","121.483711666667","24.9972133333333","6500300","中和區"
"235008","293-VK","2017/10/16 14:29:41","新北市中和區景安路206號","121.504006666667","24.9909","6500300","中和區"
"235036","301-VK","2017/10/16 14:29:45","新北市中和區中山路二段3巷22弄1號","121.50649","25.00539","6500300","中和區"
"235007","352-BY","2017/10/16 14:29:36","新北市中和區景平路374號","121.510841666667","24.9931566666667","6500300","中和區"
"235032","375-QA","2017/10/16 14:29:41","新北市中和區景平路493巷2-6號","121.49975","24.997625","6500300","中和區"
"235015","376-QA","2017/10/16 14:29:45","新北市中和區捷運路173號","121.505928333333","24.9913433333333","6500300","中和區"
"235025","378-QA","2017/10/16 14:29:38","新北市中和區連城路456巷9號","121.478695","24.9952466666667","6500300","中和區"
"235035","269-TV","2017/10/16 14:29:33","新北市中和區中正路645號","121.485251666667","24.995765","6500300","中和區"
"235014","4979-A6","2017/10/16 14:29:43","新北市中和區員山路36巷16-3號","121.484766666667","24.9910283333333","6500300","中和區"
"235033","4980-A6","2017/10/16 14:29:45","新北市中和區連城路126號","121.496173333333","24.9994533333333","6500300","中和區"
"235034","558-UM","2017/10/16 14:28:42","新北市中和區中和路17號","121.499776666667","25.002065","6500300","中和區"
"235009","565-BX","2017/10/16 14:29:49","新北市中和區景新街425號","121.513013333333","24.98919","6500300","中和區"
"235018","640-BX","2017/10/16 14:29:44","新北市中和區國光街109巷4-1號","121.469975","25.0004216666667","6500300","中和區"
"235024","647-TV","2017/10/16 14:29:44","新北市中和區員山路296號","121.48135","25.0025","6500300","中和區"
"235011","732-UM","2017/10/16 14:29:44","新北市中和區景平路259巷18號","121.507743333333","24.992725","6500300","中和區"
"235010","733-UM","2017/10/16 14:29:49","新北市中和區忠孝街37巷52號","121.51108","24.9849983333333","6500300","中和區"
"235026","800-TS","2017/10/16 14:29:43","新北市中和區中山路二段532號","121.485595","25.004925","6500300","中和區"
"235021","801-TS","2017/10/16 14:29:52","新北市中和區員山路423巷2弄1號","121.48056","25.0033033333333","6500300","中和區"
"235005","802-TS","2017/10/16 14:29:44","新北市中和區宜安路112號","121.51045","24.9979283333333","6500300","中和區"
"235016","805-TS","2017/10/16 14:29:37","新北市中和區華新街143巷25號","121.506575","24.9808133333333","6500300","中和區"
"235012","896-TW","2017/10/16 14:29:53","新北市中和區忠孝街37巷5號","121.510915","24.98344","6500300","中和區"
"235017","900-TW","2017/10/16 14:29:46","新北市中和區華順街28號","121.466865","24.9986816666667","6500300","中和區"
"235001","AAC-213","2017/10/16 14:29:44","新北市中和區秀朗路三段10巷14弄47號","121.52378","24.9965033333333","6500300","中和區"
"235023","AAC-215","2017/10/16 14:29:49","新北市中和區圓通路315-5號","121.492983333333","24.9908183333333","6500300","中和區"
"220016","013-TV","2017/10/16 14:29:49","新北市板橋區中山路二段503號","121.48271","25.0211366666667","6500100","板橋區"
"220013","072-UY","2017/10/16 14:29:35","新北市板橋區國泰街75巷1號","121.467478333333","25.0063116666667","6500100","板橋區"
"220034","073-UY","2017/10/16 14:29:37","新北市板橋區中正路265號","121.455705","25.018675","6500100","板橋區"
"220105","075-UY","2017/10/16 14:29:43","新北市板橋區長江路三段68號","121.473801666667","25.0340166666667","6500100","板橋區"
"220017","AAD-861","2017/10/16 14:29:33","新北市板橋區華興街31巷7-2號","121.458365","25.0042066666667","6500100","板橋區"
"247021","893-R6","2017/10/16 14:29:43","新北市蘆洲區民族路512號","121.469193333333","25.0901516666667","6501400","蘆洲區"
"247011","546-UM","2017/10/16 14:29:49","新北市蘆洲區復興路186號","121.477965","25.088725","6501400","蘆洲區"
"247019","500-BY","2017/10/16 14:29:42","新北市蘆洲區水湳街106號","121.469576666667","25.0930166666667","6501400","蘆洲區"
"247009","339-TH","2017/10/16 14:29:50","新北市蘆洲區鷺江街51號","121.477761666667","25.0825","6501400","蘆洲區"
"247001","337-TH","2017/10/16 14:29:50","新北市蘆洲區環堤大道168號","121.456246666667","25.0896433333333","6501400","蘆洲區"
"247003","336-TH","2017/10/16 14:29:37","新北市蘆洲區長安街194巷29號","121.460073333333","25.0846466666667","6501400","蘆洲區"
"247015","057-VK","2017/10/16 14:29:42","新北市蘆洲區中正路185巷60號","121.466635","25.0846883333333","6501400","蘆洲區"
"247005","056-VK","2017/10/16 14:29:40","新北市蘆洲區長安街46巷7弄1號","121.46377","25.0801133333333","6501400","蘆洲區"
"247007","053-VK","2017/10/16 14:29:30","新北市蘆洲區民生街26號","121.474958333333","25.0789683333333","6501400","蘆洲區"
"247013","007-UY","2017/10/16 14:29:35","新北市蘆洲區中山二路211號","121.470408333333","25.0804066666667","6501400","蘆洲區"
"247023","002-UY","2017/10/16 14:29:38","新北市蘆洲區中正路263巷2號","121.46737","25.08754","6501400","蘆洲區"
"247017","001-UY","2017/10/16 14:29:49","新北市蘆洲區復興路231號","121.480006666667","25.0899116666667","6501400","蘆洲區"
"208004","AAC-292","2017/10/16 14:29:33","新北市金山區六股里下六股65號","121.614216666667","25.2234016666667","6502700","金山區"
"207002","749-BX","2017/10/16 14:29:38","新北市萬里區溪底里富士坪路24-2號","121.619793333333","25.1522716666667","6502800","萬里區"
"252005","073-UM","2017/10/16 14:29:46","新北市三芝區橫山里大坑85-1號","121.52866","25.2581616666667","6502100","三芝區"
"207001","662-BX","2017/10/16 14:29:42","新北市萬里區磺潭里清水18-2號","121.638625","25.1984066666667","6502800","萬里區"
"237001","159-BY","2017/10/16 10:30:53","新北市三峽區中山路459巷163-3號","121.348883333333","24.93308","6500900","三峽區"
"236064","105-UM","2017/10/16 14:29:46","新北市土城區永豐路255巷21弄2號","121.475148333333","24.9735766666667","6501300","土城區"
"236040","107-UM","2017/10/16 14:29:43","新北市土城區學成路97巷20號","121.449895","24.9879333333333","6501300","土城區"
"236074","166-UM","2017/10/16 14:29:40","新北市土城區中央路四段2-3號","121.426286666667","24.9633483333333","6501300","土城區"
"236028","253-BX","2017/10/16 14:29:31","新北市土城區水源街83號","121.439616666667","24.9764766666667","6501300","土城區"
"236024","269-VK","2017/10/16 14:29:33","新北市土城區承天路18號","121.43948","24.96342","6501300","土城區"
"236012","270-VK","2017/10/16 14:29:35","新北市土城區青雲路39巷7號","121.460321666667","24.9874666666667","6501300","土城區"
"236032","271-VK","2017/10/16 14:29:47","新北市土城區青雲路451巷2弄1號","121.459261666667","24.9746883333333","6501300","土城區"
"236016","401-BY","2017/10/16 14:29:37","新北市土城區永豐路202巷7-1號","121.466251666667","24.9832083333333","6501300","土城區"
"236005","498-BY","2017/10/16 14:29:41","新北市土城區中華路一段108號","121.444115","24.98667","6501300","土城區"
"236056","912-UM","2017/10/16 14:29:46","新北市土城區中央路四段466號","121.40996","24.950615","6501300","土城區"
"236044","913-UM","2017/10/16 14:29:18","新北市土城區青雲路370號","121.458683333333","24.9736833333333","6501300","土城區"
"236060","915-UM","2017/10/16 14:29:44","新北市土城區延壽路111巷23號","121.468338333333","24.993475","6501300","土城區"
"236052","AAC-216","2017/10/16 14:29:34","新北市土城區中華路二段173號","121.438566666667","24.975045","6501300","土城區"
"238012","303-VK","2017/10/16 13:31:28","新北市樹林區育德街78-1號","121.387831666667","24.9681266666667","6500700","樹林區"
"220027","145-BY","2017/10/16 14:29:46","新北市板橋區民權路202巷18弄1號","121.460848333333","25.0166283333333","6500100","板橋區"
"220028","200-UY","2017/10/16 14:29:40","新北市板橋區大觀路二段3巷68號","121.44943","25.00333","6500100","板橋區"
"220030","610-BX","2017/10/16 14:29:37","新北市板橋區篤行路三段91號","121.42647","24.9848166666667","6500100","板橋區"
"220050","245-BX","2017/10/16 14:29:49","新北市板橋區縣民大道三段121巷20號","121.476595","25.0233583333333","6500100","板橋區"
"220004","276-BY","2017/10/16 14:29:40","新北市板橋區干城路20巷1號","121.45922","24.9935033333333","6500100","板橋區"
"220020","277-BY","2017/10/16 14:29:43","新北市板橋區篤行路二段149號","121.4297","24.9880333333333","6500100","板橋區"
"220043","280-UM","2017/10/16 14:29:14","新北市板橋區吳鳳路50巷7號","121.467895","25.0305366666667","6500100","板橋區"
"220019","283-VK","2017/10/16 14:29:46","新北市板橋區忠孝路48巷9弄19號","121.462","25.0002083333333","6500100","板橋區"
"220001","285-VK","2017/10/16 14:29:51","新北市板橋區富山街98號","121.476303333333","25.02216","6500100","板橋區"
"220031","286-VK","2017/10/16 14:29:47","新北市板橋區龍興街71巷15號","121.4431","25.002065","6500100","板橋區"
"220029","287-VK","2017/10/16 14:23:01","新北市板橋區南雅西路一段56號","121.4538","25.004965","6500100","板橋區"
"220039","288-VK","2017/10/16 14:29:35","新北市板橋區長江路一段106巷20弄11號","121.46022","25.028255","6500100","板橋區"
"220009","293-UM","2017/10/16 14:29:34","新北市板橋區中山路二段98號","121.475466666667","25.0165233333333","6500100","板橋區"
"220045","295-UM","2017/10/16 14:29:44","新北市板橋區大同街5巷3號","121.476761666667","25.0270866666667","6500100","板橋區"
"220032","296-UM","2017/10/16 14:29:47","新北市板橋區滿平街136巷10弄12號","121.427213333333","24.9874783333333","6500100","板橋區"
"220010","303-R5","2017/10/16 14:29:49","新北市板橋區三民路二段181巷3號","121.479743333333","25.0144533333333","6500100","板橋區"
"220041","307-R5","2017/10/16 14:29:43","新北市板橋區光武街2巷22號","121.468666666667","25.02525","6500100","板橋區"
"220047","317-R6","2017/10/16 14:29:52","新北市板橋區四維路266巷5弄14號","121.463676666667","25.0288583333333","6500100","板橋區"
"220012","486-VK","2017/10/16 14:29:32","新北市板橋區中山路一段90號","121.461985","25.0102016666667","6500100","板橋區"
"220038","487-VK","2017/10/16 14:29:43","新北市板橋區文化路一段201號","121.463206666667","25.0165933333333","6500100","板橋區"
"220037","491-VK","2017/10/16 14:29:36","新北市板橋區雙十路二段37-1號","121.476891666667","25.025875","6500100","板橋區"
"220104","560-BX","2017/10/16 14:29:47","新北市板橋區中正路399巷34號","121.452918333333","25.0229616666667","6500100","板橋區"
"220052","561-BX","2017/10/16 14:29:30","新北市板橋區文化路一段210號","121.466523333333","25.02017","6500100","板橋區"
"220023","568-UM","2017/10/16 14:29:42","新北市板橋區南雅西路一段10巷7弄1號","121.454603333333","25.00451","6500100","板橋區"
"220011","609-BX","2017/10/16 14:29:49","新北市板橋區三民路二段241號","121.479003333333","25.01256","6500100","板橋區"
"220040","637-BX","2017/10/16 14:29:44","新北市板橋區文聖街74巷2號","121.477038333333","25.0302983333333","6500100","板橋區"
"220005","686-BX","2017/10/16 14:29:49","新北市板橋區五權街14號","121.46435","24.9940416666667","6500100","板橋區"
"220025","687-BX","2017/10/16 14:29:48","新北市板橋區大觀路二段113號","121.446078333333","25.0015216666667","6500100","板橋區"
"220042","689-BX","2017/10/16 14:29:46","新北市板橋區雨農路50號","121.461045","25.0242983333333","6500100","板橋區"
"220002","741-BX","2017/10/16 14:29:35","新北市板橋區光明街86號","121.461801666667","25.0027616666667","6500100","板橋區"
"220003","827-TW","2017/10/16 14:29:31","新北市板橋區實踐路129號","121.464173333333","25.004815","6500100","板橋區"
"220014","829-TW","2017/10/16 14:29:38","新北市板橋區漢生東路279巷8號","121.471906666667","25.0091316666667","6500100","板橋區"
"220051","830-TW","2017/10/16 14:29:46","新北市板橋區松柏街22巷3號","121.474681666667","25.0296383333333","6500100","板橋區"
"220011","833-TW","2017/10/16 09:27:31","新北市板橋區民生路二段22號","121.47273","25.0166666666667","6500100","板橋區"
"220022","895-R6","2017/10/16 14:29:50","新北市板橋區府中路99號","121.456883333333","25.0095316666667","6500100","板橋區"
"220021","985-R7","2017/10/16 14:29:30","新北市板橋區中正路213號","121.456096666667","25.01761","6500100","板橋區"
"220046","AAC-210","2017/10/16 14:29:33","新北市板橋區陽明街239號","121.463185","25.024545","6500100","板橋區"
"220018","AAC-253","2017/10/16 14:29:45","新北市板橋區四川路一段76號","121.459718333333","25.005315","6500100","板橋區"
