"lineid","car","time","location","longitude","latitude","cityid","cityname"
"234005","207-UY","2017/10/16 14:43:48","新北市永和區安樂路218號","121.515025","25.0021383333333","6500400","永和區"
"234084","338-UY","2017/10/16 14:43:44","新北市永和區保順路59號","121.502718333333","25.01167","6500400","永和區"
"234068","552-UM","2017/10/16 14:43:42","新北市永和區環河西路二段185號","121.502236666667","25.0112933333333","6500400","永和區"
"234028","746-BX","2017/10/16 14:43:44","新北市永和區民權路84號","121.5198","24.997085","6500400","永和區"
"234025","9371-KE","2017/10/16 14:43:44","新北市永和區雙和街52巷1號","121.509053333333","25.0031966666667","6500400","永和區"
"248015","026-BX","2017/10/16 14:43:44","新北市五股區成泰路三段577巷81號","121.449651666667","25.1036433333333","6501500","五股區"
"248007","095-VK","2017/10/16 14:43:31","新北市五股區四維路118巷13號","121.4692","25.0742266666667","6501500","五股區"
"248019","225-UY","2017/10/16 14:43:43","新北市五股區中直路10-6號","121.427386666667","25.1114366666667","6501500","五股區"
"248011","247-BX","2017/10/16 14:43:49","新北市五股區民義路一段158號","121.433015","25.0876216666667","6501500","五股區"
"248013","261-SL","2017/10/16 14:43:47","新北市五股區五福路42巷22號","121.434778333333","25.0900116666667","6501500","五股區"
"248009","272-BY","2017/10/16 14:43:45","新北市五股區登林路100-1號","121.428101666667","25.0701466666667","6501500","五股區"
"248003","677-BX","2017/10/16 14:43:46","新北市五股區成泰路二段38號","121.437121666667","25.081295","6501500","五股區"
"248001","678-BX","2017/10/16 14:43:30","新北市五股區成泰路三段191號","121.445633333333","25.092375","6501500","五股區"
"234072","AAC-211","2017/10/16 14:43:43","新北市永和區竹林路39巷34號","121.519661666667","25.0151133333333","6500400","永和區"
"234001","AAC-295","2017/10/16 14:43:31","新北市永和區中正路626號","121.517028333333","25.0079583333333","6500400","永和區"
"244025","742-UY","2017/10/16 09:35:44","新北市林口區粉寮路二段160巷28號","121.405178333333","25.0908166666667","6501700","林口區"
"243005","AAD-798","2017/10/16 14:43:35","新北市泰山區應化街7號","121.423875","25.0437466666667","6501600","泰山區"
"243007","380-SR","2017/10/16 14:43:49","新北市泰山區明志路二段214巷16弄17號","121.426771666667","25.049725","6501600","泰山區"
"243006","421-VK","2017/10/16 14:43:33","新北市泰山區明志路一段180號","121.433055","25.062365","6501600","泰山區"
"243002","KEA-2215","2017/10/16 14:43:48","新北市泰山區明志路二段214巷19號","121.426675","25.0491583333333","6501600","泰山區"
"243003","KEA-2216","2017/10/16 14:43:38","新北市泰山區明志路三段448號","121.420925","25.0326433333333","6501600","泰山區"
"243004","646-TV","2017/10/16 14:43:35","新北市泰山區楓江路46巷5-1號","121.435388333333","25.062065","6501600","泰山區"
"243008","680-BX","2017/10/16 14:43:48","新北市泰山區明志路三段516號","121.420701666667","25.03083","6501600","泰山區"
"231028","046-UY","2017/10/16 14:43:34","新北市新店區安德街75號","121.510133333333","24.961475","6500600","新店區"
"231030","047-UY","2017/10/16 14:43:39","新北市新店區安民街202號","121.517188333333","24.9718233333333","6500600","新店區"
"231029","106-UY","2017/10/16 14:43:43","新北市新店區安康路三段422號","121.485383333333","24.95158","6500600","新店區"
"231011","108-UY","2017/10/16 14:43:34","新北市新店區寶橋路164號","121.549018333333","24.9772366666667","6500600","新店區"
"231019","187-VK","2017/10/16 14:43:39","新北市新店區新烏路二段393號","121.551095","24.90977","6500600","新店區"
"231014","KEA-2219","2017/10/16 14:43:37","新北市新店區北宜路三段251號","121.596846666667","24.95278","6500600","新店區"
"231034","268-BY","2017/10/16 14:43:36","新北市新店區車子路11號","121.50291","24.9513583333333","6500600","新店區"
"231023","AAD-862","2017/10/16 14:43:37","新北市新店區檳榔路43巷2號","121.543065","24.96302","6500600","新店區"
"231002","355-BY","2017/10/16 14:43:46","新北市新店區民權路137號","121.534818333333","24.9827433333333","6500600","新店區"
"231027","3712-VJ","2017/10/16 14:43:39","新北市新店區中正路102巷8弄2號","121.54338","24.9710766666667","6500600","新店區"
"231025","4716-K9","2017/10/16 14:43:32","新北市新店區民族路161號","121.537683333333","24.9767733333333","6500600","新店區"
"231038","4715-K9","2017/10/16 14:43:49","新北市新店區安康路一段76巷34-1號","121.52854","24.9635283333333","6500600","新店區"
"231036","513-UM","2017/10/16 14:43:49","新北市新店區安祥路106巷327號","121.47247","24.9587116666667","6500600","新店區"
"231035","515-UM","2017/10/16 14:43:47","新北市新店區安德街60巷27號","121.51104","24.9632016666667","6500600","新店區"
"231001","619-UM","2017/10/16 14:43:46","新北市新店區中正路209號","121.539891666667","24.9725333333333","6500600","新店區"
"231003","641-BX","2017/10/16 14:43:49","新北市新店區中興路二段192號","121.548371666667","24.9736016666667","6500600","新店區"
"231039","718-UY","2017/10/16 14:43:47","新北市新店區寶橋路78巷3號","121.546945","24.9750183333333","6500600","新店區"
"231013","719-UM","2017/10/16 14:43:39","新北市新店區北新路二段121巷1-1號","121.542198333333","24.975","6500600","新店區"
"231018","719-UY","2017/10/16 14:43:34","新北市新店區中央五街28號","121.529098333333","24.9746383333333","6500600","新店區"
"231031","720-UM","2017/10/16 14:43:42","新北市新店區安康路三段182號","121.489225","24.9518366666667","6500600","新店區"
"231005","897-TW","2017/10/16 14:43:30","新北市新店區順安街69號","121.54076","24.9865783333333","6500600","新店區"
"231006","898-TW","2017/10/16 14:43:46","新北市新店區北宜路二段85號","121.550143333333","24.9522333333333","6500600","新店區"
"231004","899-TW","2017/10/16 14:43:46","新北市新店區中正路293號","121.537245","24.9746","6500600","新店區"
"231037","AKT-0513","2017/10/16 14:43:45","新北市新店區柴埕路52巷1-6號","121.51272","24.9648133333333","6500600","新店區"
"235030","003-UY","2017/10/16 14:43:49","新北市中和區光華街59-1號","121.506385","25.00324","6500300","中和區"
"235028","005-UY","2017/10/16 14:43:35","新北市中和區南山路127巷23號","121.503241666667","24.9974816666667","6500300","中和區"
"235027","006-UY","2017/10/16 14:43:47","新北市中和區連城路237-1號","121.49389","24.9974133333333","6500300","中和區"
"235020","096-UM","2017/10/16 14:43:38","新北市中和區民富街37號","121.476368333333","25.0081183333333","6500300","中和區"
"235003","097-UM","2017/10/16 14:43:50","新北市中和區安平路161號","121.512326666667","24.9984366666667","6500300","中和區"
"235029","098-UM","2017/10/16 14:43:46","新北市中和區福美路252號","121.498445","25.0052116666667","6500300","中和區"
"235004","150-BY","2017/10/16 14:43:39","新北市中和區安平路99號","121.511148333333","24.9968616666667","6500300","中和區"
"235022","151-BY","2017/10/16 14:43:34","新北市中和區員山路142巷11號","121.481946666667","24.9965783333333","6500300","中和區"
"235019","183-VK","2017/10/16 14:43:40","新北市中和區民生街6-1號","121.471305","25.00625","6500300","中和區"
"235002","185-VK","2017/10/16 14:43:39","新北市中和區自立路29巷14弄18號","121.522935","24.995355","6500300","中和區"
"235013","186-VK","2017/10/16 14:43:31","新北市中和區景安路139號","121.505705","24.9955383333333","6500300","中和區"
"235031","255-BX","2017/10/16 14:43:46","新北市中和區新生街220巷4號","121.483025","24.9985366666667","6500300","中和區"
"235008","293-VK","2017/10/16 14:43:41","新北市中和區興南路一段146號","121.508443333333","24.9870416666667","6500300","中和區"
"235036","301-VK","2017/10/16 14:43:45","新北市中和區板南路411號","121.492903333333","24.9999283333333","6500300","中和區"
"235007","352-BY","2017/10/16 14:43:36","新北市中和區安和路51號","121.509006666667","24.994805","6500300","中和區"
"235032","375-QA","2017/10/16 14:43:41","新北市中和區員山路36巷16-3號","121.484715","24.9909833333333","6500300","中和區"
"235015","376-QA","2017/10/16 14:43:45","新北市中和區中興街180巷52弄4號","121.498726666667","24.9885616666667","6500300","中和區"
"235025","378-QA","2017/10/16 14:43:38","新北市中和區員山路327巷7號","121.48058","25.00134","6500300","中和區"
"235035","269-TV","2017/10/16 14:43:33","新北市中和區連城路469巷11號","121.483625","24.9955783333333","6500300","中和區"
"235014","4979-A6","2017/10/16 14:43:43","新北市中和區景平路241巷84弄54號","121.506113333333","24.9923433333333","6500300","中和區"
"235034","558-UM","2017/10/16 14:43:42","新北市中和區景平路628號","121.50036","24.997895","6500300","中和區"
"235009","565-BX","2017/10/16 14:43:49","新北市中和區景平路332號","121.51211","24.9927383333333","6500300","中和區"
"235018","640-BX","2017/10/16 14:43:44","新北市中和區民德路8-1號","121.468816666667","25.0028966666667","6500300","中和區"
"235024","647-TV","2017/10/16 14:43:44","新北市中和區中山路二段523巷35號","121.482248333333","25.00331","6500300","中和區"
"235011","732-UM","2017/10/16 14:43:44","新北市中和區興南路一段71號","121.510251666667","24.9892866666667","6500300","中和區"
"235010","733-UM","2017/10/16 14:43:30","新北市中和區景新街496巷33弄2號","121.513578333333","24.9860183333333","6500300","中和區"
"235026","800-TS","2017/10/16 14:43:43","新北市中和區中山路二段504號","121.486715","25.004905","6500300","中和區"
"235021","801-TS","2017/10/16 14:43:37","新北市中和區員山路270號","121.48137","25.0018283333333","6500300","中和區"
"235005","802-TS","2017/10/16 14:43:44","新北市中和區中和路260-1號","121.508111666667","24.9994016666667","6500300","中和區"
"235016","805-TS","2017/10/16 14:43:37","新北市中和區華新街204號","121.506621666667","24.9819233333333","6500300","中和區"
"235012","896-TW","2017/10/16 14:43:33","新北市中和區景新街557號","121.515366666667","24.98654","6500300","中和區"
"235017","900-TW","2017/10/16 14:43:46","新北市中和區國光街215巷27號","121.467218333333","25.0005583333333","6500300","中和區"
"235001","AAC-213","2017/10/16 14:43:44","新北市中和區秀朗路三段99號","121.526545","24.99489","6500300","中和區"
"235023","AAC-215","2017/10/16 14:43:50","新北市中和區圓通路335巷71號","121.494228333333","24.9894266666667","6500300","中和區"
"220016","013-TV","2017/10/16 14:43:38","新北市板橋區中山路二段416巷36-1號","121.48316","25.019825","6500100","板橋區"
"220013","072-UY","2017/10/16 14:43:29","新北市板橋區國泰街111巷15號","121.466161666667","25.0060316666667","6500100","板橋區"
"220105","075-UY","2017/10/16 14:43:43","新北市板橋區文化路二段548巷23-1號","121.476648333333","25.0338216666667","6500100","板橋區"
"220017","AAD-861","2017/10/16 14:43:33","新北市板橋區稚暉街1號","121.456016666667","25.004525","6500100","板橋區"
"247021","893-R6","2017/10/16 14:43:43","新北市蘆洲區三民路158號","121.470225","25.0881","6501400","蘆洲區"
"247011","546-UM","2017/10/16 14:43:29","新北市蘆洲區集賢路224巷46弄60-1號","121.480805","25.0879283333333","6501400","蘆洲區"
"247019","500-BY","2017/10/16 14:43:47","新北市蘆洲區民義街73號","121.473255","25.0901016666667","6501400","蘆洲區"
"247009","339-TH","2017/10/16 14:43:30","新北市蘆洲區信義路222巷35號","121.480098333333","25.085575","6501400","蘆洲區"
"247001","337-TH","2017/10/16 14:43:30","新北市蘆洲區永樂街38巷57弄3號","121.458193333333","25.0901716666667","6501400","蘆洲區"
"247003","336-TH","2017/10/16 14:43:37","新北市蘆洲區永安南路二段328巷15弄2號","121.456765","25.08382","6501400","蘆洲區"
"247015","057-VK","2017/10/16 14:43:41","新北市蘆洲區正和街19-4號","121.470041666667","25.0821","6501400","蘆洲區"
"247007","053-VK","2017/10/16 14:43:31","新北市蘆洲區民生街70號","121.473038333333","25.0789533333333","6501400","蘆洲區"
"247013","007-UY","2017/10/16 14:43:35","新北市蘆洲區得勝街84號","121.472201666667","25.083405","6501400","蘆洲區"
"247023","002-UY","2017/10/16 14:43:38","新北市蘆洲區中山二路222巷21弄10號","121.468968333333","25.08015","6501400","蘆洲區"
"208004","AAC-292","2017/10/16 14:43:33","新北市金山區重和里六股林口39號","121.602516666667","25.2194066666667","6502700","金山區"
"207002","749-BX","2017/10/16 14:43:38","新北市萬里區崁腳里內崁路9號","121.64415","25.1594016666667","6502800","萬里區"
"252005","073-UM","2017/10/16 14:43:38","新北市三芝區埔坪里埔頭坑91-3號","121.508313333333","25.2524716666667","6502100","三芝區"
"207001","662-BX","2017/10/16 14:43:42","新北市萬里區雙興里豐稟路26號","121.641376666667","25.1876783333333","6502800","萬里區"
"237001","159-BY","2017/10/16 10:30:53","新北市三峽區中山路459巷163-3號","121.348883333333","24.93308","6500900","三峽區"
"236064","105-UM","2017/10/16 14:43:46","新北市土城區永豐路139號","121.466985","24.9831483333333","6501300","土城區"
"236040","107-UM","2017/10/16 14:43:43","新北市土城區裕民路94號","121.450405","24.9870433333333","6501300","土城區"
"236074","166-UM","2017/10/16 14:43:40","新北市土城區中央路四段52巷48號","121.418641666667","24.9601966666667","6501300","土城區"
"236028","253-BX","2017/10/16 14:43:39","新北市土城區慶樂街4號","121.439701666667","24.9726366666667","6501300","土城區"
"236024","269-VK","2017/10/16 14:43:33","新北市土城區和平路5巷5號","121.44282","24.9746416666667","6501300","土城區"
"236012","270-VK","2017/10/16 14:43:35","新北市土城區清水路278巷28弄20號","121.46231","24.98234","6501300","土城區"
"236032","271-VK","2017/10/16 14:43:47","新北市土城區明德路一段226號","121.46069","24.9775","6501300","土城區"
"236016","401-BY","2017/10/16 14:43:37","新北市土城區延吉街253巷7號","121.467685","24.9845266666667","6501300","土城區"
"236056","912-UM","2017/10/16 14:43:46","新北市土城區中央路四段29號","121.423941666667","24.9622233333333","6501300","土城區"
"236044","913-UM","2017/10/16 14:43:38","新北市土城區青雲路107-1號","121.45917","24.9854916666667","6501300","土城區"
"236060","915-UM","2017/10/16 14:43:44","新北市土城區延和路177巷13號","121.470021666667","24.9907733333333","6501300","土城區"
"236052","AAC-216","2017/10/16 14:43:34","新北市土城區裕民路6-5號","121.446946666667","24.9890633333333","6501300","土城區"
"238006","599-UM","2017/10/16 14:43:31","新北市樹林區育德街78-1號","121.387736666667","24.9680766666667","6500700","樹林區"
"238018","571-TV","2017/10/16 14:43:30","新北市樹林區育德街78號","121.38781","24.96834","6500700","樹林區"
"238012","303-VK","2017/10/16 14:43:20","新北市樹林區育德街78-1號","121.387711666667","24.96817","6500700","樹林區"
"220027","145-BY","2017/10/16 14:43:46","新北市板橋區復興街87號","121.45947","25.017745","6500100","板橋區"
"220028","200-UY","2017/10/16 14:43:43","新北市板橋區大觀路二段153巷46弄20號","121.449206666667","24.9999716666667","6500100","板橋區"
"220030","610-BX","2017/10/16 14:43:37","新北市板橋區金門街293號","121.430276666667","24.986735","6500100","板橋區"
"220050","245-BX","2017/10/16 14:43:43","新北市板橋區縣民大道三段33巷11號","121.47393","25.0210066666667","6500100","板橋區"
"220004","276-BY","2017/10/16 14:43:40","新北市板橋區四川路二段47巷1弄2號","121.454123333333","24.9949133333333","6500100","板橋區"
"220020","277-BY","2017/10/16 14:43:35","新北市板橋區金門街215巷2弄1號","121.432515","24.988975","6500100","板橋區"
"220043","280-UM","2017/10/16 14:43:34","新北市板橋區長江路二段248號","121.46895","25.0323616666667","6500100","板橋區"
"220019","283-VK","2017/10/16 14:43:46","新北市板橋區信義路16號","121.456998333333","24.9960366666667","6500100","板橋區"
"220001","285-VK","2017/10/16 14:43:37","新北市板橋區中山路二段148巷19號","121.477113333333","25.0164516666667","6500100","板橋區"
"220031","286-VK","2017/10/16 14:43:47","新北市板橋區僑中二街92巷2號","121.446396666667","25.008915","6500100","板橋區"
"220029","287-VK","2017/10/16 14:39:21","新北市板橋區大觀路一段29巷179弄23號","121.44995","25.0046666666667","6500100","板橋區"
"220039","288-VK","2017/10/16 14:43:46","新北市板橋區新海路431巷1號","121.457781666667","25.0275216666667","6500100","板橋區"
"220009","293-UM","2017/10/16 14:43:34","新北市板橋區漢生東路113巷27號","121.46836","25.0156366666667","6500100","板橋區"
"220045","295-UM","2017/10/16 14:43:44","新北市板橋區民生路二段240巷70號","121.470085","25.0227233333333","6500100","板橋區"
"220032","296-UM","2017/10/16 14:43:37","新北市板橋區滿平二街32-3號","121.425205","24.9874683333333","6500100","板橋區"
"220010","303-R5","2017/10/16 14:43:49","新北市板橋區三民路二段40號","121.479241666667","25.01761","6500100","板橋區"
"220041","307-R5","2017/10/16 14:43:43","新北市板橋區四維路152號","121.464863333333","25.02575","6500100","板橋區"
"220047","317-R6","2017/10/16 14:43:43","新北市板橋區裕民街91號","121.460323333333","25.0279733333333","6500100","板橋區"
"220012","486-VK","2017/10/16 14:43:32","新北市板橋區中山路一段24號","121.46039","25.0082333333333","6500100","板橋區"
"220038","487-VK","2017/10/16 14:43:43","新北市板橋區陽明街261號","121.462588333333","25.0255616666667","6500100","板橋區"
"220037","491-VK","2017/10/16 14:43:44","新北市板橋區雙十路二段223號","121.473118333333","25.0292666666667","6500100","板橋區"
"220104","560-BX","2017/10/16 14:43:47","新北市板橋區金華街85巷14號","121.45845","25.0213683333333","6500100","板橋區"
"220052","561-BX","2017/10/16 14:43:30","新北市板橋區文化路一段288號","121.4674","25.02144","6500100","板橋區"
"220023","568-UM","2017/10/16 14:43:33","新北市板橋區中正路253巷27號","121.45416","25.0177166666667","6500100","板橋區"
"220011","609-BX","2017/10/16 14:43:29","新北市板橋區三民路二段107號","121.479223333333","25.016","6500100","板橋區"
"220002","630-UY","2017/10/16 14:43:42","新北市板橋區華東街11號","121.450585","24.9977266666667","6500100","板橋區"
"220040","637-BX","2017/10/16 14:43:35","新北市板橋區懷德街201巷20號","121.481741666667","25.0296833333333","6500100","板橋區"
"220005","686-BX","2017/10/16 14:43:43","新北市板橋區和平路安樂巷3弄5號","121.462008333333","24.9936533333333","6500100","板橋區"
"220025","687-BX","2017/10/16 14:43:48","新北市板橋區僑中二街88巷1號","121.446466666667","25.0092866666667","6500100","板橋區"
"220042","689-BX","2017/10/16 14:43:46","新北市板橋區新海路368號","121.459485","25.0253633333333","6500100","板橋區"
"220002","741-BX","2017/10/16 14:43:48","新北市板橋區忠孝路241號","121.466263333333","25.0030216666667","6500100","板橋區"
"220003","827-TW","2017/10/16 14:43:31","新北市板橋區國慶路149巷11號","121.460996666667","24.9971566666667","6500100","板橋區"
"220014","829-TW","2017/10/16 14:43:38","新北市板橋區長安街255巷2號","121.472933333333","25.0103883333333","6500100","板橋區"
"220051","830-TW","2017/10/16 14:43:46","新北市板橋區松柏街59-4號","121.475768333333","25.0303216666667","6500100","板橋區"
"220011","833-TW","2017/10/16 09:27:31","新北市板橋區民生路二段22號","121.47273","25.0166666666667","6500100","板橋區"
"220022","895-R6","2017/10/16 14:43:37","新北市板橋區府中路29-2號","121.458583333333","25.0080766666667","6500100","板橋區"
"220021","985-R7","2017/10/16 14:43:50","新北市板橋區新生街92號","121.458236666667","25.0218383333333","6500100","板橋區"
"220046","AAC-210","2017/10/16 14:43:33","新北市板橋區漢生西路89巷2弄4號","121.461903333333","25.0194133333333","6500100","板橋區"
"220018","AAC-253","2017/10/16 14:43:45","新北市板橋區民族路166號","121.464845","25.0085483333333","6500100","板橋區"
