"lineid","car","time","location","longitude","latitude","cityid","cityname"
"249005","172-UM","2017/10/16 16:49:46","新北市八里區大堀湖2-3號","121.42234","25.153725","6502300","八里區"
"249001","173-UM","2017/10/16 16:49:45","新北市八里區博物館路10-1號","121.415223333333","25.1640083333333","6502300","八里區"
"249004","303-UY","2017/10/16 16:49:46","新北市八里區博物館路165號","121.406466666667","25.1573716666667","6502300","八里區"
"249002","305-UY","2017/10/16 16:49:44","新北市八里區牛寮埔31號","121.429876666667","25.1457266666667","6502300","八里區"
"249003","593-UM","2017/10/16 16:49:48","新北市八里區中山路二段275號","121.401918333333","25.14877","6502300","八里區"
"248018","225-UY","2017/10/16 15:29:50","新北市五股區中興路二段83巷26-6號","121.460101666667","25.0752983333333","6501500","五股區"
"244007","080-UY","2017/10/16 16:49:53","新北市林口區竹林路320巷2號","121.390703333333","25.082285","6501700","林口區"
"244025","742-UY","2017/10/16 16:47:47","新北市林口區粉寮路二段160巷28號","121.405195","25.0907633333333","6501700","林口區"
"243016","680-BX","2017/10/16 16:06:48","新北市泰山區黎明路25號","121.422038333333","25.0607466666667","6501600","泰山區"
"231046","278-BY","2017/10/16 16:49:51","新北市新店區灣潭路15-2號","121.54263","24.94286","6500600","新店區"
"241011","013-R5","2017/10/16 16:49:46","新北市三重區仁愛街53巷132號","121.499188333333","25.0725866666667","6500200","三重區"
"241028","022-UY","2017/10/16 16:49:55","新北市三重區光興街93號","121.497316666667","25.0599533333333","6500200","三重區"
"241008","059-VK","2017/10/16 16:49:41","新北市三重區永福街179巷25號","121.478021666667","25.0749533333333","6500200","三重區"
"241009","060-VK","2017/10/16 16:49:52","新北市三重區三和路四段203巷102號","121.48465","25.0801766666667","6500200","三重區"
"241031","061-VK","2017/10/16 16:49:52","新北市三重區三寧街2號","121.488383333333","25.05952","6500200","三重區"
"241015","062-VK","2017/10/16 16:49:45","新北市三重區文化北路43巷10號","121.499213333333","25.06557","6500200","三重區"
"241017","063-VK","2017/10/16 16:49:41","新北市三重區國隆路8巷29號","121.492741666667","25.0635183333333","6500200","三重區"
"241026","066-VK","2017/10/16 16:49:52","新北市三重區文化南路8-4號","121.500318333333","25.0621216666667","6500200","三重區"
"241002","090-VK","2017/10/16 16:49:39","新北市三重區仁義街241巷6號","121.49649","25.0827766666667","6500200","三重區"
"241003","091-VK","2017/10/16 16:49:54","新北市三重區五華街89號","121.492013333333","25.08328","6500200","三重區"
"241005","262-UM","2017/10/16 16:49:51","新北市三重區仁華街80巷24號","121.484365","25.0838933333333","6500200","三重區"
"241016","266-UM","2017/10/16 16:49:56","新北市三重區大同北路117號","121.49413","25.06427","6500200","三重區"
"241022","267-UM","2017/10/16 16:49:49","新北市三重區中華路95號","121.483525","25.0629816666667","6500200","三重區"
"241018","268-UM","2017/10/16 16:49:37","新北市三重區安樂街81號","121.494713333333","25.0693983333333","6500200","三重區"
"241032","269-UM","2017/10/16 16:49:48","新北市三重區重陽路一段120巷48號","121.485071666667","25.060125","6500200","三重區"
"241025","271-UM","2017/10/16 16:49:48","新北市三重區中正北路530巷21號","121.471948333333","25.070345","6500200","三重區"
"241007","398-BY","2017/10/16 16:49:53","新北市三重區三和路四段181巷70號","121.484151666667","25.0794566666667","6500200","三重區"
"241024","KEA-2210","2017/10/16 16:49:55","新北市三重區中正北路317巷41號","121.476341666667","25.073115","6500200","三重區"
"241020","413-TH","2017/10/16 16:49:47","新北市三重區忠孝路二段34號","121.485723333333","25.0710216666667","6500200","三重區"
"241004","475-VK","2017/10/16 16:49:54","新北市三重區仁愛街401號","121.491105","25.0810216666667","6500200","三重區"
"241019","478-VK","2017/10/16 16:49:51","新北市三重區力行路一段179巷17弄2號","121.485358333333","25.0699966666667","6500200","三重區"
"241030","480-VK","2017/10/16 16:49:38","新北市三重區中正南路263號","121.49286","25.052905","6500200","三重區"
"241014","543-UM","2017/10/16 16:49:44","新北市三重區長壽街120巷23號","121.502423333333","25.0693683333333","6500200","三重區"
"241023","545-UM","2017/10/16 16:49:46","新北市三重區中華路76巷45號","121.481835","25.0625966666667","6500200","三重區"
"241001","547-UM","2017/10/16 16:49:49","新北市三重區仁政街51號","121.492988333333","25.0770933333333","6500200","三重區"
"241006","AAD-863","2017/10/16 16:49:52","新北市三重區力行路二段164號","121.482931666667","25.0766183333333","6500200","三重區"
"241013","887-TS","2017/10/16 16:49:54","新北市三重區三和路三段103號","121.49441","25.07252","6500200","三重區"
"241012","941-UM","2017/10/16 16:49:38","新北市三重區仁興街11巷8號","121.500086666667","25.0741916666667","6500200","三重區"
"241029","942-UM","2017/10/16 16:49:47","新北市三重區集美街175號","121.491411666667","25.0541283333333","6500200","三重區"
"241033","AAC-255","2017/10/16 16:49:56","新北市三重區新北大道二段139巷9號","121.466435","25.0608533333333","6500200","三重區"
"235036","301-VK","2017/10/16 15:10:51","新北市中和區員山路36巷13號","121.484058333333","24.9910083333333","6500300","中和區"
"235062","800-TS","2017/10/16 16:28:51","新北市中和區員山路36巷16-3號","121.484813333333","24.9918783333333","6500300","中和區"
"247010","339-TH","2017/10/16 16:49:50","新北市蘆洲區信義路222巷35號","121.480076666667","25.0854566666667","6501400","蘆洲區"
"247004","336-TH","2017/10/16 16:49:40","新北市蘆洲區長榮路669號","121.46025","25.091685","6501400","蘆洲區"
"247016","057-VK","2017/10/16 16:49:51","新北市蘆洲區中正路314號","121.464546666667","25.0909166666667","6501400","蘆洲區"
"247006","056-VK","2017/10/16 16:49:56","新北市蘆洲區中華街107號","121.46114","25.0795116666667","6501400","蘆洲區"
"247008","053-VK","2017/10/16 16:49:54","新北市蘆洲區中山二路45巷30號","121.474243333333","25.0811733333333","6501400","蘆洲區"
"228003","097-TW","2017/10/16 16:49:56","新北市貢寮區貢寮里朝陽街1-2號","121.912358333333","25.0213","6502600","貢寮區"
"228002","585-TW","2017/10/16 16:49:53","新北市貢寮區貢寮里朝陽街120巷1號","121.908028333333","25.0228033333333","6502600","貢寮區"
"224010","AGQ-8101","2017/10/16 08:48:31","新北市瑞芳區民權街3-1號","121.809451666667","25.1082383333333","6501200","瑞芳區"
"224009","285-BY","2017/10/16 16:49:41","新北市瑞芳區中山路176號","121.801686666667","25.1065983333333","6501200","瑞芳區"
"224008","275-VK","2017/10/16 16:49:47","新北市瑞芳區民權街3-1號","121.80933","25.1083616666667","6501200","瑞芳區"
"224007","273-VK","2017/10/16 16:49:54","新北市瑞芳區中央路48巷56-30號","121.759305","25.10378","6501200","瑞芳區"
"224005","271-BY","2017/10/16 16:49:48","新北市瑞芳區洞頂路116號","121.861343333333","25.1230933333333","6501200","瑞芳區"
"227001","642-TC","2017/10/16 16:49:55","新北市雙溪區外柑里外柑腳71號","121.807131666667","25.0175633333333","6502500","雙溪區"
"227008","400-TW","2017/10/16 16:49:39","新北市雙溪區牡丹里聖南10-3號","121.860928333333","25.049305","6502500","雙溪區"
"251007","179-VK","2017/10/16 16:49:36","新北市淡水區中正路二段31號","121.419171666667","25.18193","6501000","淡水區"
"251008","181-VK","2017/10/16 16:49:11","台北市北投區中央北路四段30巷158號","121.474823333333","25.141245","6501000","淡水區"
"251013","182-VK","2017/10/16 16:49:43","新北市淡水區北新路三段171-1號","121.492188333333","25.19162","6501000","淡水區"
"251012","441-VK","2017/10/16 16:49:46","新北市淡水區中正路二段31號","121.41974","25.1815566666667","6501000","淡水區"
"251015","442-VK","2017/10/16 16:49:21","新北市淡水區忠愛街5-2號","121.460633333333","25.1716383333333","6501000","淡水區"
"251011","650-BX","2017/10/16 16:49:38","新北市淡水區中正路二段31號","121.41933","25.1818666666667","6501000","淡水區"
"252002","178-VK","2017/10/16 16:49:51","新北市三芝區忠孝街171號","121.505585","25.2613483333333","6502100","三芝區"
"252001","292-VK","2017/10/16 16:49:44","新北市三芝區淡金路二段76-1號","121.503883333333","25.26083","6502100","三芝區"
"252006","AAC-283","2017/10/16 16:46:08","新北市三芝區埔坪里埔頭坑41號","121.504503333333","25.2644066666667","6502100","三芝區"
"237001","159-BY","2017/10/16 10:30:53","新北市三峽區中山路459巷163-3號","121.348883333333","24.93308","6500900","三峽區"
"236074","166-UM","2017/10/16 16:49:40","新北市土城區永平街72號","121.427323333333","24.9591233333333","6501300","土城區"
"236056","912-UM","2017/10/16 16:49:46","新北市土城區中華路二段181號","121.438515","24.9748633333333","6501300","土城區"
"242060","362-BY","2017/10/16 16:49:53","新北市新莊區新泰路255巷83號","121.442208333333","25.0388533333333","6500500","新莊區"
"242036","133-UY","2017/10/16 16:49:39","新北市新莊區新泰路255巷83號","121.442093333333","25.0389633333333","6500500","新莊區"
"242019","348-TH","2017/10/16 16:49:46","新北市新莊區新泰路357巷3弄57號","121.442306666667","25.0396216666667","6500500","新莊區"
"238006","599-UM","2017/10/16 16:49:31","新北市樹林區中華路190-16號","121.411816666667","24.980685","6500700","樹林區"
"238004","283-BY","2017/10/16 16:49:47","新北市樹林區光武街28號","121.415853333333","25.005505","6500700","樹林區"
"238001","282-BY","2017/10/16 16:49:53","新北市樹林區中正路22-1號","121.427761666667","24.99964","6500700","樹林區"
"239007","AAC-297","2017/10/16 04:38:59","新北市鶯歌區二甲路175號","121.344601666667","24.9355883333333","6500800","鶯歌區"
"239008","527-UM","2017/10/16 02:32:13","新北市鶯歌區二甲路13-16號","121.34517","24.935135","6500800","鶯歌區"
"239005","526-UM","2017/10/16 03:10:45","新北市鶯歌區二甲路13-16號","121.345021666667","24.9352433333333","6500800","鶯歌區"
"239001","417-VK","2017/10/16 16:34:38","新北市鶯歌區二甲路13號","121.343963333333","24.935075","6500800","鶯歌區"
"239003","360-BY","2017/10/16 16:49:47","新北市鶯歌區二甲路12-2號","121.34549","24.93505","6500800","鶯歌區"
"239002","359-BY","2017/10/15 16:39:51","新北市鶯歌區二甲路13號","121.344255","24.9352516666667","6500800","鶯歌區"
"220010","303-R5","2017/10/16 16:49:49","新北市三重區重新路五段326巷25-1號","121.47925","25.04259","6500100","板橋區"
"242034","280-VK","2017/10/16 16:49:36","新北市新莊區三和路12-21號","121.441956666667","25.0384983333333","6500500","新莊區"
"220011","833-TW","2017/10/16 09:27:31","新北市板橋區民生路二段22號","121.47273","25.0166666666667","6500100","板橋區"
