"lineid","car","time","location","longitude","latitude","cityid","cityname"
"249005","172-UM","2017/10/16 17:29:46","新北市八里區荖阡坑路28-8號","121.403843333333","25.1293883333333","6502300","八里區"
"249001","173-UM","2017/10/16 17:29:45","新北市八里區龍米路三段49-1號","121.424225","25.1589216666667","6502300","八里區"
"249004","303-UY","2017/10/16 17:29:46","新北市八里區民有街78號","121.414981666667","25.1563066666667","6502300","八里區"
"249002","305-UY","2017/10/16 17:29:44","新北市八里區龍米路二段65巷15弄1號","121.447126666667","25.1408033333333","6502300","八里區"
"249003","593-UM","2017/10/16 17:29:48","新北市八里區中山路二段315號","121.400631666667","25.1477333333333","6502300","八里區"
"248018","225-UY","2017/10/16 15:29:50","新北市五股區中興路二段83巷26-6號","121.460101666667","25.0752983333333","6501500","五股區"
"244013","069-UM","2017/10/16 17:29:37","新北市林口區粉寮路一段147號","121.399143333333","25.0813033333333","6501700","林口區"
"244007","080-UY","2017/10/16 17:29:53","新北市林口區湖子4-3號","121.391426666667","25.0922833333333","6501700","林口區"
"244019","403-UM","2017/10/16 17:29:48","新北市林口區公園路225號","121.373841666667","25.074335","6501700","林口區"
"244025","742-UY","2017/10/16 17:29:40","新北市林口區民族路157號","121.366965","25.0764083333333","6501700","林口區"
"244009","410-SL","2017/10/16 17:29:50","新北市林口區中北一街80號","121.38577","25.0888416666667","6501700","林口區"
"244023","483-VK","2017/10/16 17:29:49","新北市林口區東明一街55巷2號","121.39161","25.0716383333333","6501700","林口區"
"244017","485-VK","2017/10/16 17:29:41","新北市林口區粉寮路31-2號","121.40368","25.0872483333333","6501700","林口區"
"244011","701-TV","2017/10/16 17:29:33","新北市林口區中正路443號","121.38472","25.07773","6501700","林口區"
"244021","838-TS","2017/10/16 17:29:49","新北市林口區粉寮路67-16號","121.404096666667","25.0910633333333","6501700","林口區"
"243016","680-BX","2017/10/16 17:28:55","新北市泰山區犁頭窠3-1號","121.421963333333","25.06021","6501600","泰山區"
"231046","278-BY","2017/10/16 17:29:31","新北市新店區直潭路92號","121.530933333333","24.937675","6500600","新店區"
"241011","013-R5","2017/10/16 17:29:46","新北市三重區龍濱路191號","121.501988333333","25.07109","6500200","三重區"
"241009","060-VK","2017/10/16 17:29:33","新北市三重區車路頭街135-1號","121.484276666667","25.076095","6500200","三重區"
"241015","062-VK","2017/10/16 17:29:45","新北市三重區長元街65巷16弄15號","121.503561666667","25.0661766666667","6500200","三重區"
"241017","063-VK","2017/10/16 17:29:41","新北市三重區中正北路25巷25弄3號","121.493276666667","25.0626416666667","6500200","三重區"
"241026","066-VK","2017/10/16 17:29:51","新北市三重區文化南路42號","121.500353333333","25.060305","6500200","三重區"
"241002","090-VK","2017/10/16 17:29:39","新北市三重區集賢路87-1號","121.493675","25.0869016666667","6500200","三重區"
"241003","091-VK","2017/10/16 17:29:34","新北市三重區富福街8號","121.490015","25.0832833333333","6500200","三重區"
"241005","262-UM","2017/10/16 17:29:31","新北市三重區永安北路二段43巷20號","121.482978333333","25.0827933333333","6500200","三重區"
"241016","266-UM","2017/10/16 17:29:36","新北市三重區信義西街49號","121.495223333333","25.0638833333333","6500200","三重區"
"241022","267-UM","2017/10/16 17:29:48","新北市三重區新北大道一段7號","121.489641666667","25.0612666666667","6500200","三重區"
"241018","268-UM","2017/10/16 17:29:37","新北市三重區大智街67號","121.492481666667","25.0682366666667","6500200","三重區"
"241032","269-UM","2017/10/16 17:29:48","新北市三重區名源街31號","121.481776666667","25.060415","6500200","三重區"
"241025","271-UM","2017/10/16 17:29:48","新北市三重區中正北路380號","121.476515","25.0699333333333","6500200","三重區"
"241007","398-BY","2017/10/16 17:29:37","新北市三重區三和路四段145巷76號","121.48617","25.0787916666667","6500200","三重區"
"241024","KEA-2210","2017/10/16 17:29:35","新北市三重區大勇街82巷15弄8號","121.479951666667","25.0717166666667","6500200","三重區"
"241020","413-TH","2017/10/16 17:29:47","新北市三重區自強路二段100號","121.487406666667","25.07139","6500200","三重區"
"241019","478-VK","2017/10/16 17:29:51","新北市三重區自強路二段26巷33號","121.488438333333","25.0689233333333","6500200","三重區"
"241030","480-VK","2017/10/16 17:29:38","新北市三重區集美街198號","121.4909","25.053675","6500200","三重區"
"241014","543-UM","2017/10/16 17:29:44","新北市三重區長壽街56號","121.500771666667","25.0682666666667","6500200","三重區"
"241023","545-UM","2017/10/16 17:29:46","新北市三重區三民街146巷3弄1號","121.481791666667","25.0646716666667","6500200","三重區"
"241013","887-TS","2017/10/16 17:29:34","新北市三重區仁愛街97號","121.495743333333","25.0736733333333","6500200","三重區"
"241012","941-UM","2017/10/16 17:29:38","新北市三重區仁昌街76號","121.498835","25.0747533333333","6500200","三重區"
"241033","AAC-255","2017/10/16 17:29:36","新北市三重區興德路133號","121.470206666667","25.0528666666667","6500200","三重區"
"235036","301-VK","2017/10/16 15:10:51","新北市中和區員山路36巷13號","121.484058333333","24.9910083333333","6500300","中和區"
"235062","800-TS","2017/10/16 16:28:51","新北市中和區員山路36巷16-3號","121.484813333333","24.9918783333333","6500300","中和區"
"247022","893-R6","2017/10/16 17:29:40","新北市蘆洲區三民路296號","121.466713333333","25.09053","6501400","蘆洲區"
"247012","546-UM","2017/10/16 17:29:41","新北市蘆洲區民族路42號","121.476608333333","25.0844133333333","6501400","蘆洲區"
"247020","500-BY","2017/10/16 17:29:31","新北市蘆洲區仁愛街101巷6號","121.470788333333","25.09424","6501400","蘆洲區"
"247010","339-TH","2017/10/16 17:29:50","新北市蘆洲區中山一路120巷29號","121.478221666667","25.082145","6501400","蘆洲區"
"247002","337-TH","2017/10/16 17:29:33","新北市蘆洲區永樂街38巷57弄4號","121.45823","25.0902883333333","6501400","蘆洲區"
"247004","336-TH","2017/10/16 17:29:40","新北市蘆洲區長安街233巷36號","121.458078333333","25.0822733333333","6501400","蘆洲區"
"247016","057-VK","2017/10/16 17:29:31","新北市蘆洲區光華路22巷1號","121.46936","25.08346","6501400","蘆洲區"
"247006","056-VK","2017/10/16 17:29:36","新北市蘆洲區九芎街90巷17號","121.46487","25.0810883333333","6501400","蘆洲區"
"247008","053-VK","2017/10/16 17:29:34","新北市蘆洲區民生街38號","121.474003333333","25.078685","6501400","蘆洲區"
"247014","007-UY","2017/10/16 17:29:49","新北市蘆洲區三民路33號","121.475433333333","25.0830283333333","6501400","蘆洲區"
"247024","002-UY","2017/10/16 17:29:35","新北市蘆洲區三民路589號","121.461328333333","25.0931066666667","6501400","蘆洲區"
"247018","001-UY","2017/10/16 17:29:44","新北市蘆洲區民義街24號","121.471496666667","25.0886533333333","6501400","蘆洲區"
"228003","097-TW","2017/10/16 17:29:36","新北市貢寮區仁理村研海街62-2號","121.925518333333","25.0456383333333","6502600","貢寮區"
"228002","585-TW","2017/10/16 17:29:33","新北市貢寮區福隆里興隆街20號","121.944748333333","25.016725","6502600","貢寮區"
"228001","670-TC","2017/10/16 17:29:44","新北市貢寮區仁理村仁愛路62巷1號","121.925811666667","25.0535033333333","6502600","貢寮區"
"224010","AGQ-8101","2017/10/16 17:29:50","新北市瑞芳區明燈路二段2巷7號","121.814348333333","25.10884","6501200","瑞芳區"
"224006","676-BX","2017/10/16 17:29:42","新北市瑞芳區傑魚坑路163號","121.789838333333","25.1094866666667","6501200","瑞芳區"
"224009","285-BY","2017/10/16 17:29:47","新北市瑞芳區汽車路13-1號","121.845775","25.1107816666667","6501200","瑞芳區"
"224008","275-VK","2017/10/16 17:29:47","新北市瑞芳區九芎橋路17號","121.832783333333","25.0927383333333","6501200","瑞芳區"
"224005","271-BY","2017/10/16 17:29:48","新北市瑞芳區洞頂路295號","121.858986666667","25.1237183333333","6501200","瑞芳區"
"227001","642-TC","2017/10/16 17:29:35","新北市雙溪區平林里外平林72號","121.844141666667","25.0329783333333","6502500","雙溪區"
"251009","008-UM","2017/10/16 17:29:35","新北市淡水區新生街92號","121.439556666667","25.1745583333333","6501000","淡水區"
"251004","009-UM","2017/10/16 17:29:52","新北市淡水區中正東路二段88巷15號","121.459011666667","25.1504283333333","6501000","淡水區"
"251007","179-VK","2017/10/16 17:29:36","新北市淡水區民生路47-4號","121.46201","25.1380316666667","6501000","淡水區"
"251008","181-VK","2017/10/16 17:29:31","新北市淡水區大同路100巷2號","121.462353333333","25.13965","6501000","淡水區"
"251013","182-VK","2017/10/16 17:29:43","新北市淡水區大竹圍5號","121.466575","25.1952516666667","6501000","淡水區"
"251010","413-VK","2017/10/16 17:29:37","新北市淡水區中正路二段215號","121.42623","25.1892716666667","6501000","淡水區"
"251012","441-VK","2017/10/16 17:29:45","新北市淡水區北新路100號","121.447606666667","25.1784366666667","6501000","淡水區"
"251015","442-VK","2017/10/16 17:29:41","新北市淡水區樹林口7-1號","121.478946666667","25.16702","6501000","淡水區"
"251005","443-VK","2017/10/16 17:29:39","新北市淡水區鄧公路31巷1號","121.451306666667","25.17085","6501000","淡水區"
"251006","561-UM","2017/10/16 17:29:35","新北市淡水區大仁街23號","121.442503333333","25.1752383333333","6501000","淡水區"
"251011","650-BX","2017/10/16 17:29:38","新北市淡水區坪頂路712號","121.482513333333","25.1584866666667","6501000","淡水區"
"251002","672-BX","2017/10/16 17:29:47","新北市淡水區中正路261號","121.431663333333","25.1748633333333","6501000","淡水區"
"251003","673-BX","2017/10/16 17:29:41","新北市淡水區中山路159-5號","121.440845","25.1731633333333","6501000","淡水區"
"207003","550-UM","2017/10/16 17:29:49","新北市萬里區龜吼里日光路6巷16號","121.683501666667","25.1865666666667","6502800","萬里區"
"207004","225-TW","2017/10/16 17:29:35","新北市萬里區萬里里景美路11-2號","121.685305","25.1732083333333","6502800","萬里區"
"252002","178-VK","2017/10/16 17:29:51","新北市三芝區忠孝街1-14號","121.50548","25.25397","6502100","三芝區"
"252001","292-VK","2017/10/16 17:29:44","新北市三芝區長安街119號","121.498063333333","25.2596916666667","6502100","三芝區"
"252006","AAC-283","2017/10/16 16:46:08","新北市三芝區埔坪里埔頭坑41號","121.504503333333","25.2644066666667","6502100","三芝區"
"237008","302-VK","2017/10/16 17:29:33","新北市三峽區中山路459巷137號","121.349923333333","24.9338233333333","6500900","三峽區"
"237001","159-BY","2017/10/16 10:30:53","新北市三峽區中山路459巷163-3號","121.348883333333","24.93308","6500900","三峽區"
"237011","572-TV","2017/10/16 12:58:55","新北市三峽區中山路459巷137號","121.349771666667","24.93372","6500900","三峽區"
"237016","649-BX","2017/10/16 17:29:45","新北市三峽區中山路333-7號","121.359328333333","24.9374783333333","6500900","三峽區"
"242031","AAC-296","2017/10/16 17:29:47","新北市新莊區新泰路401巷29-1號","121.442436666667","25.0438483333333","6500500","新莊區"
"242029","986-R7","2017/10/16 17:29:48","新北市新莊區幸福路16號","121.459056666667","25.0494566666667","6500500","新莊區"
"242050","751-BX","2017/10/16 17:29:37","新北市新莊區新樹路449巷8弄2號","121.43308","25.0136033333333","6500500","新莊區"
"242025","615-BX","2017/10/16 17:29:38","新北市新莊區中港路272號","121.453093333333","25.0439283333333","6500500","新莊區"
"242023","613-BX","2017/10/16 17:29:40","新北市新莊區公園路148號","121.453121666667","25.040125","6500500","新莊區"
"242027","612-BX","2017/10/16 17:29:46","新北市新莊區思源路32號","121.46031","25.0404983333333","6500500","新莊區"
"242039","566-BX","2017/10/16 17:29:35","新北市新莊區民安東路1號","121.42737","25.0211466666667","6500500","新莊區"
"242044","497-BY","2017/10/16 17:29:36","新北市新莊區富國路69號","121.41987","25.02599","6500500","新莊區"
"242002","442-UM","2017/10/16 17:29:37","新北市新莊區新莊路154號","121.455281666667","25.0354866666667","6500500","新莊區"
"242048","441-UM","2017/10/16 17:29:38","新北市新莊區四維路210號","121.42139","25.020005","6500500","新莊區"
"242053","440-UM","2017/10/16 17:29:36","新北市新莊區瓊林南路305巷10號","121.434846666667","25.0053866666667","6500500","新莊區"
"242042","400-BY","2017/10/16 17:29:41","新北市新莊區建國一路13號","121.433878333333","25.0317283333333","6500500","新莊區"
"242060","362-BY","2017/10/16 17:29:33","新北市新莊區瓊林路59-88號","121.439606666667","25.021235","6500500","新莊區"
"242058","353-BY","2017/10/16 17:29:50","新北市新莊區中正路615號","121.43231","25.0318883333333","6500500","新莊區"
"242007","132-UY","2017/10/16 17:29:40","新北市新莊區自強街21號","121.454703333333","25.046195","6500500","新莊區"
"242036","133-UY","2017/10/16 17:29:39","新北市新莊區民安路429巷10號","121.433988333333","25.023445","6500500","新莊區"
"242021","135-UY","2017/10/16 17:29:47","新北市新莊區中華路一段18號","121.452003333333","25.0371266666667","6500500","新莊區"
"242046","172-VK","2017/10/16 17:29:43","新北市新莊區新樹路65-5號","121.439513333333","25.0308733333333","6500500","新莊區"
"242009","173-VK","2017/10/16 17:29:39","新北市新莊區中原路189號","121.452685","25.0541783333333","6500500","新莊區"
"242015","175-VK","2017/10/16 17:29:52","新北市新莊區新泰路182號","121.447308333333","25.037985","6500500","新莊區"
"242013","346-TH","2017/10/16 17:29:38","新北市新莊區中誠街14號","121.452016666667","25.0482383333333","6500500","新莊區"
"242019","348-TH","2017/10/16 17:29:46","新北市新莊區中港路77號","121.45542","25.03893","6500500","新莊區"
"242056","349-TH","2017/10/16 17:29:50","新北市新莊區新泰路18號","121.44973","25.0331633333333","6500500","新莊區"
"242017","350-TH","2017/10/16 17:29:51","新北市新莊區德豐街4號","121.451618333333","25.043975","6500500","新莊區"
"242011","351-TH","2017/10/16 17:29:41","新北市新莊區中港路497號","121.45211","25.05022","6500500","新莊區"
"238015","755-BX","2017/10/16 17:29:45","新北市樹林區大安路267號","121.419076666667","24.993715","6500700","樹林區"
"238023","601-UM","2017/10/16 17:29:30","新北市樹林區中正路433-2號","121.414903333333","25.0082766666667","6500700","樹林區"
"238019","599-UM","2017/10/16 17:29:51","新北市樹林區太平路58-2號","121.419033333333","24.9816","6500700","樹林區"
"238018","571-TV","2017/10/16 17:29:50","新北市樹林區太平路1-5號","121.418591666667","24.9846716666667","6500700","樹林區"
"238024","5061-A6","2017/10/16 17:29:39","新北市樹林區鎮前街144號","121.42461","24.9904283333333","6500700","樹林區"
"238021","KEA-2217","2017/10/16 17:29:48","新北市樹林區民權街68號","121.399793333333","24.9610266666667","6500700","樹林區"
"238022","KEA-2213","2017/10/16 17:29:36","新北市樹林區和平街19號","121.422063333333","24.9815766666667","6500700","樹林區"
"238025","303-VK","2017/10/16 17:29:49","新北市樹林區保安二街二段6-1號","121.416041666667","25.0008866666667","6500700","樹林區"
"238017","283-BY","2017/10/16 17:29:47","新北市樹林區光武街35號","121.41664","25.0066666666667","6500700","樹林區"
"238014","282-BY","2017/10/16 17:29:33","新北市樹林區長壽街23-7號","121.420888333333","24.9947883333333","6500700","樹林區"
"238026","172-UY","2017/10/16 17:29:45","新北市樹林區味王街46巷36號","121.402351666667","24.9736533333333","6500700","樹林區"
"238016","169-UY","2017/10/16 17:29:52","新北市樹林區長壽街6號","121.423841666667","24.993475","6500700","樹林區"
"239007","AAC-297","2017/10/16 17:29:42","新北市鶯歌區中山路24號","121.35248","24.9571333333333","6500800","鶯歌區"
"239006","891-R6","2017/10/16 17:29:33","新北市鶯歌區鳳鳴路45號","121.333475","24.96542","6500800","鶯歌區"
"239008","527-UM","2017/10/16 17:29:38","新北市鶯歌區大湖路746號","121.33204","24.9771933333333","6500800","鶯歌區"
"239005","526-UM","2017/10/16 17:29:48","新北市鶯歌區福隆一街77號","121.324235","24.9710583333333","6500800","鶯歌區"
"239001","417-VK","2017/10/16 17:29:39","新北市鶯歌區高職西街106號","121.335971666667","24.9412866666667","6500800","鶯歌區"
"239003","360-BY","2017/10/16 17:29:47","新北市鶯歌區德昌街5-1號","121.333756666667","24.9605583333333","6500800","鶯歌區"
"239002","359-BY","2017/10/16 17:29:51","新北市鶯歌區育才街85號","121.34711","24.9545133333333","6500800","鶯歌區"
"239004","193-VK","2017/10/16 17:29:37","新北市鶯歌區三鶯路29巷34號","121.353705","24.9393183333333","6500800","鶯歌區"
"221033","647-BX","2017/10/16 17:29:36","新北市汐止區康寧街901號","121.651566666667","25.074945","6501100","汐止區"
"242034","280-VK","2017/10/16 17:29:36","新北市新莊區新莊路364號","121.449523333333","25.033485","6500500","新莊區"
"220011","833-TW","2017/10/16 09:27:31","新北市板橋區民生路二段22號","121.47273","25.0166666666667","6500100","板橋區"
