"lineid","car","time","location","longitude","latitude","cityid","cityname"
"234026","9371-KE","2017/10/16 17:39:30","新北市永和區中正路736號","121.515326666667","25.010145","6500400","永和區"
"249005","172-UM","2017/10/16 17:39:46","新北市八里區荖阡坑路34號","121.402691666667","25.1297033333333","6502300","八里區"
"249001","173-UM","2017/10/16 17:39:44","新北市八里區龍米路二段148號","121.437031666667","25.155765","6502300","八里區"
"249004","303-UY","2017/10/16 17:39:46","新北市八里區民享街106號","121.413058333333","25.1571216666667","6502300","八里區"
"249002","305-UY","2017/10/16 17:39:44","新北市八里區坪子頂5號","121.442078333333","25.1254583333333","6502300","八里區"
"249003","593-UM","2017/10/16 17:39:48","新北市八里區中山路二段257號","121.402681666667","25.1489583333333","6502300","八里區"
"248006","077-UY","2017/10/16 17:39:51","新北市五股區中興路二段37巷28號","121.460223333333","25.0749516666667","6501500","五股區"
"248018","225-UY","2017/10/16 15:29:50","新北市五股區中興路二段83巷26-6號","121.460101666667","25.0752983333333","6501500","五股區"
"232011","375-UM","2017/10/16 17:39:32","新北市坪林區九芎林14-1號","121.707741666667","24.9307716666667","6502000","坪林區"
"244013","069-UM","2017/10/16 17:39:37","新北市林口區中正路555號","121.381118333333","25.076895","6501700","林口區"
"244007","080-UY","2017/10/16 17:39:33","新北市林口區文化一路二段303號","121.385721666667","25.08577","6501700","林口區"
"244019","403-UM","2017/10/16 17:39:48","新北市林口區文化一路一段135巷18號","121.373221666667","25.072475","6501700","林口區"
"244025","742-UY","2017/10/16 17:39:40","新北市林口區文化二路一段289-5號","121.367466666667","25.071885","6501700","林口區"
"244009","410-SL","2017/10/16 17:39:30","新北市林口區中北三街146號","121.383546666667","25.0835283333333","6501700","林口區"
"244023","483-VK","2017/10/16 17:39:38","新北市林口區東明一街142巷20號","121.389813333333","25.0714016666667","6501700","林口區"
"244017","485-VK","2017/10/16 17:39:41","新北市林口區文化一路一段190巷5弄1號","121.378465","25.0751333333333","6501700","林口區"
"244011","701-TV","2017/10/16 17:39:33","新北市林口區竹林路35號","121.386543333333","25.0776816666667","6501700","林口區"
"244021","838-TS","2017/10/16 17:39:49","新北市林口區粉寮路一段77號","121.396521666667","25.0788333333333","6501700","林口區"
"243016","680-BX","2017/10/16 17:28:55","新北市泰山區犁頭窠3-1號","121.421963333333","25.06021","6501600","泰山區"
"231046","278-BY","2017/10/16 17:39:51","新北市新店區直潭路92號","121.530916666667","24.93767","6500600","新店區"
"241017","063-VK","2017/10/16 17:39:41","新北市三重區大同北路34巷7號","121.494725","25.0624533333333","6500200","三重區"
"241005","262-UM","2017/10/16 17:39:51","新北市三重區仁華街6號","121.48339","25.0813316666667","6500200","三重區"
"241016","266-UM","2017/10/16 17:39:36","新北市三重區正義北路49號","121.497383333333","25.0640233333333","6500200","三重區"
"241007","398-BY","2017/10/16 17:39:33","新北市三重區三和路四段147號","121.484256666667","25.0783183333333","6500200","三重區"
"241024","462-BY","2017/10/16 17:39:40","新北市三重區大勇街20號","121.482801666667","25.07154","6500200","三重區"
"241019","478-VK","2017/10/16 17:39:31","新北市三重區六張街241號","121.487828333333","25.0685033333333","6500200","三重區"
"241014","543-UM","2017/10/16 17:39:44","新北市三重區長壽街125號","121.50358","25.06886","6500200","三重區"
"241023","545-UM","2017/10/16 17:39:46","新北市三重區三民街157巷2號","121.483625","25.064575","6500200","三重區"
"241013","887-TS","2017/10/16 17:39:34","新北市三重區仁愛街112巷16號","121.494521666667","25.0740283333333","6500200","三重區"
"241012","941-UM","2017/10/16 17:39:38","新北市三重區仁興街39巷14-7號","121.5","25.07616","6500200","三重區"
"241033","AAC-255","2017/10/16 17:39:36","新北市三重區興德路139號","121.469771666667","25.0526116666667","6500200","三重區"
"235064","005-UY","2017/10/16 17:39:50","新北市中和區員山路36巷16-3號","121.485053333333","24.9913116666667","6500300","中和區"
"235036","301-VK","2017/10/16 15:10:51","新北市中和區員山路36巷13號","121.484058333333","24.9910083333333","6500300","中和區"
"235062","800-TS","2017/10/16 16:28:51","新北市中和區員山路36巷16-3號","121.484813333333","24.9918783333333","6500300","中和區"
"247022","893-R6","2017/10/16 17:39:40","新北市蘆洲區民族路548巷37號","121.467351666667","25.089585","6501400","蘆洲區"
"247012","546-UM","2017/10/16 17:39:41","新北市蘆洲區民權路3巷10號","121.476003333333","25.085395","6501400","蘆洲區"
"247020","500-BY","2017/10/16 17:39:31","新北市蘆洲區民族路331號","121.473816666667","25.09174","6501400","蘆洲區"
"247010","339-TH","2017/10/16 17:39:50","新北市蘆洲區中山一路74巷23號","121.479093333333","25.081365","6501400","蘆洲區"
"247002","337-TH","2017/10/16 17:39:30","新北市蘆洲區永平街48號","121.457953333333","25.0913316666667","6501400","蘆洲區"
"247004","336-TH","2017/10/16 17:39:40","新北市蘆洲區長安街172巷17號","121.45978","25.083685","6501400","蘆洲區"
"247016","057-VK","2017/10/16 17:39:31","新北市蘆洲區光華路46巷25號","121.468126666667","25.0837883333333","6501400","蘆洲區"
"247006","056-VK","2017/10/16 17:39:36","新北市蘆洲區長安街23巷1號","121.463848333333","25.0789016666667","6501400","蘆洲區"
"247008","053-VK","2017/10/16 17:39:34","新北市蘆洲區和平路15號","121.472598333333","25.079275","6501400","蘆洲區"
"247014","007-UY","2017/10/16 17:39:49","新北市蘆洲區中正路32號","121.47126","25.0822783333333","6501400","蘆洲區"
"247024","002-UY","2017/10/16 17:39:35","新北市蘆洲區長樂路93號","121.461995","25.0873566666667","6501400","蘆洲區"
"247018","001-UY","2017/10/16 17:39:44","新北市蘆洲區民權路122號","121.47344","25.0885866666667","6501400","蘆洲區"
"228003","097-TW","2017/10/16 17:39:36","新北市貢寮區仁理村仁和路39號","121.923988333333","25.0539583333333","6502600","貢寮區"
"228002","585-TW","2017/10/16 17:39:33","新北市貢寮區福隆里龜壽谷街12號","121.956285","25.0062466666667","6502600","貢寮區"
"228001","670-TC","2017/10/16 17:39:44","新北市貢寮區仁理村仁愛路95-1號","121.927723333333","25.05553","6502600","貢寮區"
"224010","AGQ-8101","2017/10/16 17:37:10","新北市瑞芳區岳王路25號","121.807433333333","25.111095","6501200","瑞芳區"
"224006","676-BX","2017/10/16 17:39:42","新北市瑞芳區傑魚坑路2號","121.795343333333","25.1103583333333","6501200","瑞芳區"
"224009","285-BY","2017/10/16 17:39:40","新北市瑞芳區烏勢巷137號","121.846788333333","25.1076466666667","6501200","瑞芳區"
"224008","275-VK","2017/10/16 17:39:47","新北市瑞芳區瑞柑新村34號","121.829411666667","25.106945","6501200","瑞芳區"
"224007","273-VK","2017/10/16 17:39:34","新北市平溪區新寮里五分寮10-2號","121.799965","25.074065","6501200","瑞芳區"
"224005","271-BY","2017/10/16 17:39:47","新北市瑞芳區海濱路8-6號","121.830848333333","25.125585","6501200","瑞芳區"
"251009","008-UM","2017/10/16 17:39:33","新北市淡水區中正路65號","121.441165","25.16952","6501000","淡水區"
"251004","009-UM","2017/10/16 17:39:32","新北市淡水區中正東路二段88巷37-23號","121.45926","25.1436716666667","6501000","淡水區"
"251007","179-VK","2017/10/16 17:39:36","新北市淡水區民生路124巷21號","121.464198333333","25.1376716666667","6501000","淡水區"
"251008","181-VK","2017/10/16 17:39:31","新北市淡水區八勢二街53巷10號","121.461996666667","25.1483833333333","6501000","淡水區"
"251013","182-VK","2017/10/16 17:39:43","新北市淡水區演戲埔腳12-1號","121.469278333333","25.1944283333333","6501000","淡水區"
"251010","413-VK","2017/10/16 17:39:17","新北市淡水區淡海路280巷97號","121.419953333333","25.1890066666667","6501000","淡水區"
"251012","441-VK","2017/10/16 17:39:45","新北市淡水區北新路200巷8號","121.45176","25.1796633333333","6501000","淡水區"
"251015","442-VK","2017/10/16 17:39:21","新北市淡水區興福寮1-8號","121.489388333333","25.1648433333333","6501000","淡水區"
"251005","443-VK","2017/10/16 17:39:39","新北市淡水區鄧公路33巷1號","121.451486666667","25.17106","6501000","淡水區"
"251001","559-UM","2017/10/16 17:39:36","新北市淡水區民權路92巷35-1號","121.462153333333","25.126595","6501000","淡水區"
"251006","561-UM","2017/10/16 17:39:35","新北市淡水區大信街24巷2號","121.442015","25.1767616666667","6501000","淡水區"
"251011","650-BX","2017/10/16 17:39:38","新北市淡水區小坪頂20-1號","121.484626666667","25.1576116666667","6501000","淡水區"
"251002","672-BX","2017/10/16 17:39:36","新北市淡水區重建街永興巷11號","121.439421666667","25.1726233333333","6501000","淡水區"
"251003","673-BX","2017/10/16 17:39:41","新北市淡水區中山北路一段104號","121.442901666667","25.1764916666667","6501000","淡水區"
"207003","550-UM","2017/10/16 17:39:29","新北市萬里區龜吼里漁澳路5-1號","121.68661","25.194405","6502800","萬里區"
"207004","225-TW","2017/10/16 17:39:35","新北市萬里區中幅里中福路21號","121.68249","25.165025","6502800","萬里區"
"252002","178-VK","2017/10/16 17:39:31","新北市三芝區中正路二段11號","121.504583333333","25.25555","6502100","三芝區"
"252001","292-VK","2017/10/16 17:39:50","新北市三芝區淡金路一段69號","121.501593333333","25.2588683333333","6502100","三芝區"
"252006","AAC-283","2017/10/16 16:46:08","新北市三芝區埔坪里埔頭坑41號","121.504503333333","25.2644066666667","6502100","三芝區"
"237008","302-VK","2017/10/16 17:39:33","新北市三峽區中山路321-2號","121.360803333333","24.9380666666667","6500900","三峽區"
"237001","159-BY","2017/10/16 10:30:53","新北市三峽區中山路459巷163-3號","121.348883333333","24.93308","6500900","三峽區"
"237011","572-TV","2017/10/16 12:58:55","新北市三峽區中山路459巷137號","121.349771666667","24.93372","6500900","三峽區"
"237016","649-BX","2017/10/16 17:39:45","新北市三峽區正義街153號","121.368221666667","24.9152966666667","6500900","三峽區"
"237010","706-TV","2017/10/16 17:39:08","新北市三峽區中山路198號","121.363281666667","24.9371266666667","6500900","三峽區"
"236069","105-UM","2017/10/16 17:39:25","新北市土城區城林路6巷80號","121.438436666667","24.9797016666667","6501300","土城區"
"236078","166-UM","2017/10/16 17:39:46","新北市土城區城林路6巷80號","121.438415","24.97966","6501300","土城區"
"242031","AAC-296","2017/10/16 17:39:47","新北市新莊區新泰路361巷1號","121.44382","25.043245","6500500","新莊區"
"242029","986-R7","2017/10/16 17:39:48","新北市新莊區復興路二段98號","121.456338333333","25.0442916666667","6500500","新莊區"
"242050","751-BX","2017/10/16 17:39:44","新北市新莊區西盛街201巷1號","121.42837","25.0169766666667","6500500","新莊區"
"242025","615-BX","2017/10/16 17:39:38","新北市新莊區思源路98號","121.460138333333","25.0460083333333","6500500","新莊區"
"242023","613-BX","2017/10/16 17:39:40","新北市新莊區民樂街40號","121.457806666667","25.0411483333333","6500500","新莊區"
"242027","612-BX","2017/10/16 17:39:46","新北市新莊區幸福路1號","121.459916666667","25.0493916666667","6500500","新莊區"
"242039","566-BX","2017/10/16 17:39:35","新北市新莊區民安路334號","121.429045","25.02205","6500500","新莊區"
"242044","497-BY","2017/10/16 17:39:48","新北市新莊區中正路871巷9弄37號","121.419723333333","25.02686","6500500","新莊區"
"242002","442-UM","2017/10/16 17:39:37","新北市新莊區新莊路266號","121.451786666667","25.0339683333333","6500500","新莊區"
"242048","441-UM","2017/10/16 17:39:42","新北市新莊區萬安街131號","121.420606666667","25.0222083333333","6500500","新莊區"
"242053","440-UM","2017/10/16 17:39:36","新北市新莊區新樹路699巷9號","121.432571666667","25.0018466666667","6500500","新莊區"
"242042","400-BY","2017/10/16 17:39:41","新北市泰山區漢口街32號","121.426045","25.035295","6500500","新莊區"
"242060","362-BY","2017/10/16 17:39:40","新北市新莊區瓊林南路79-1號","121.4344","25.0129916666667","6500500","新莊區"
"242058","353-BY","2017/10/16 17:39:50","新北市新莊區中正路654號","121.421246666667","25.0285633333333","6500500","新莊區"
"242007","132-UY","2017/10/16 17:39:32","新北市新莊區福樂街69號","121.457113333333","25.0476983333333","6500500","新莊區"
"242036","133-UY","2017/10/16 17:39:39","新北市新莊區後港一路138號","121.429706666667","25.0273933333333","6500500","新莊區"
"242021","135-UY","2017/10/16 17:39:47","新北市新莊區中華路一段118號","121.452466666667","25.04059","6500500","新莊區"
"242046","172-VK","2017/10/16 17:39:43","新北市新莊區福營路101號","121.434156666667","25.03226","6500500","新莊區"
"242009","173-VK","2017/10/16 17:39:39","新北市新莊區昌明街14巷16號","121.457371666667","25.0534","6500500","新莊區"
"242015","175-VK","2017/10/16 17:39:32","新北市新莊區新泰路326號","121.444985","25.0418333333333","6500500","新莊區"
"242013","346-TH","2017/10/16 17:39:50","新北市新莊區中誠街107號","121.449743333333","25.04767","6500500","新莊區"
"242019","348-TH","2017/10/16 17:39:46","新北市新莊區中港路205號","121.45487","25.0419633333333","6500500","新莊區"
"242056","349-TH","2017/10/16 17:39:38","新北市新莊區新莊路493巷4弄30號","121.448758333333","25.032075","6500500","新莊區"
"242017","350-TH","2017/10/16 17:39:31","新北市新莊區復興路一段149巷22弄2號","121.450266666667","25.04405","6500500","新莊區"
"242011","351-TH","2017/10/16 17:39:41","新北市新莊區榮華路二段2號","121.450865","25.055795","6500500","新莊區"
"238015","755-BX","2017/10/16 17:39:46","新北市樹林區啟智街26號","121.420933333333","24.99347","6500700","樹林區"
"238023","601-UM","2017/10/16 17:39:50","新北市樹林區三福街4-1號","121.40888","25.0168483333333","6500700","樹林區"
"238019","599-UM","2017/10/16 17:39:51","新北市樹林區太順街36號","121.419025","24.97986","6500700","樹林區"
"238018","571-TV","2017/10/16 17:39:30","新北市樹林區鎮前街127號","121.424201666667","24.9896533333333","6500700","樹林區"
"238024","5061-A6","2017/10/16 17:39:39","新北市樹林區國凱街136巷48-2號","121.425051666667","24.9787833333333","6500700","樹林區"
"238021","KEA-2217","2017/10/16 17:39:48","新北市樹林區西圳街一段203巷13號","121.393308333333","24.95965","6500700","樹林區"
"238022","KEA-2213","2017/10/16 17:39:48","新北市樹林區和平街2巷2號","121.420866666667","24.9814883333333","6500700","樹林區"
"238025","303-VK","2017/10/16 17:39:49","新北市樹林區保安街三段40號","121.412648333333","25.011595","6500700","樹林區"
"238017","283-BY","2017/10/16 17:39:47","新北市樹林區三德街30巷16弄25號","121.413621666667","25.0123466666667","6500700","樹林區"
"238014","282-BY","2017/10/16 17:39:33","新北市樹林區保安街一段294巷41號","121.420241666667","24.9987433333333","6500700","樹林區"
"238020","268-VK","2017/10/16 17:39:36","新北市樹林區俊英街90號","121.427768333333","25.0049366666667","6500700","樹林區"
"238026","172-UY","2017/10/16 17:39:45","新北市樹林區中山路三段89號","121.400158333333","24.97454","6500700","樹林區"
"238016","169-UY","2017/10/16 17:39:33","新北市樹林區育英街53號","121.42081","24.9892466666667","6500700","樹林區"
"239007","AAC-297","2017/10/16 17:39:41","新北市鶯歌區鶯桃路182巷96弄5號","121.339848333333","24.9574516666667","6500800","鶯歌區"
"239006","891-R6","2017/10/16 17:39:33","新北市鶯歌區永和街34巷10弄2號","121.333426666667","24.9672683333333","6500800","鶯歌區"
"239008","527-UM","2017/10/16 17:39:38","新北市鶯歌區大湖路732巷33號","121.333276666667","24.9780866666667","6500800","鶯歌區"
"239005","526-UM","2017/10/16 17:39:48","新北市鶯歌區鳳吉四街1號","121.326083333333","24.9724783333333","6500800","鶯歌區"
"239001","417-VK","2017/10/16 17:39:39","新北市鶯歌區中正三路236-8號","121.330433333333","24.9369533333333","6500800","鶯歌區"
"239003","360-BY","2017/10/16 17:39:47","新北市鶯歌區鶯桃路206巷30號","121.337771666667","24.9597483333333","6500800","鶯歌區"
"239002","359-BY","2017/10/16 17:39:31","新北市鶯歌區育德街36號","121.343645","24.9552166666667","6500800","鶯歌區"
"239004","193-VK","2017/10/16 17:39:37","新北市鶯歌區三鶯路11號","121.356215","24.9411083333333","6500800","鶯歌區"
"221008","489-VK","2017/10/16 17:39:47","新北市汐止區汐萬路一段278巷5號","121.651365","25.0747133333333","6501100","汐止區"
"221015","131-UY","2017/10/16 17:39:44","新北市汐止區康寧街901號","121.650933333333","25.0752233333333","6501100","汐止區"
"221010","269-BY","2017/10/16 17:39:40","新北市汐止區汐萬路一段312號","121.650673333333","25.0753533333333","6501100","汐止區"
"221023","279-VK","2017/10/16 17:39:51","新北市汐止區汐萬路一段256巷1號","121.6517","25.0748733333333","6501100","汐止區"
"221032","280-BY","2017/10/16 17:39:41","新北市汐止區樟樹二路351-1號","121.643615","25.0739183333333","6501100","汐止區"
"221033","647-BX","2017/10/16 17:39:36","新北市汐止區工建路199號","121.636016666667","25.0619333333333","6501100","汐止區"
"221018","753-BX","2017/10/16 17:39:38","新北市汐止區汐萬路一段160號","121.65253","25.0715766666667","6501100","汐止區"
"242034","280-VK","2017/10/16 17:39:36","新北市新莊區新莊路500號","121.446266666667","25.0332733333333","6500500","新莊區"
"220011","833-TW","2017/10/16 09:27:31","新北市板橋區民生路二段22號","121.47273","25.0166666666667","6500100","板橋區"
