"lineid","car","time","location","longitude","latitude","cityid","cityname"
"234026","9371-KE","2017/10/16 17:49:50","新北市永和區中山路一段101號","121.511168333333","25.0104733333333","6500400","永和區"
"234011","9373-KE","2017/10/16 17:47:24","新北市永和區福和路1號","121.525575","25.0093966666667","6500400","永和區"
"249005","172-UM","2017/10/16 17:49:46","新北市八里區荖阡坑路27號","121.40204","25.1357033333333","6502300","八里區"
"249001","173-UM","2017/10/16 17:48:04","新北市八里區龍米路二段147-1號","121.443328333333","25.1498933333333","6502300","八里區"
"249004","303-UY","2017/10/16 17:49:46","新北市八里區中華路一段79巷9號","121.42098","25.1563816666667","6502300","八里區"
"249002","305-UY","2017/10/16 17:49:44","新北市八里區龍形一街7號","121.45055","25.13058","6502300","八里區"
"249003","593-UM","2017/10/16 17:49:48","新北市八里區中山路二段125號","121.405486666667","25.151855","6502300","八里區"
"248016","026-BX","2017/10/16 17:47:20","新北市五股區中興路二段83巷26-6號","121.459975","25.07532","6501500","五股區"
"248006","077-UY","2017/10/16 17:49:51","新北市五股區中興路二段83巷26-6號","121.460065","25.0750583333333","6501500","五股區"
"248008","095-VK","2017/10/16 17:49:48","新北市五股區中興路二段37巷28號","121.460176666667","25.07513","6501500","五股區"
"248018","225-UY","2017/10/16 17:49:47","新北市五股區中興路二段83巷26-6號","121.460066666667","25.0752466666667","6501500","五股區"
"232011","375-UM","2017/10/16 17:49:52","新北市坪林區北宜路八段103號","121.706086666667","24.9347883333333","6502000","坪林區"
"244013","069-UM","2017/10/16 17:49:37","新北市林口區中正路420號","121.384383333333","25.0777816666667","6501700","林口區"
"244007","080-UY","2017/10/16 17:49:53","新北市林口區林口路197號","121.387505","25.0825916666667","6501700","林口區"
"244019","403-UM","2017/10/16 17:49:48","新北市林口區文化一路一段89-5號","121.371686666667","25.0704683333333","6501700","林口區"
"244025","742-UY","2017/10/16 17:49:40","新北市林口區忠孝三路42號","121.36019","25.0700183333333","6501700","林口區"
"244009","410-SL","2017/10/16 17:49:50","新北市林口區中北三街59號","121.384743333333","25.08561","6501700","林口區"
"244023","483-VK","2017/10/16 17:49:38","新北市林口區興林路50-5號","121.388905","25.0745716666667","6501700","林口區"
"244017","485-VK","2017/10/16 17:49:41","新北市林口區忠孝路377號","121.369323333333","25.0715483333333","6501700","林口區"
"244011","701-TV","2017/10/16 17:49:52","新北市林口區中正路198號","121.39115","25.0775783333333","6501700","林口區"
"244021","838-TS","2017/10/16 17:49:49","新北市林口區仁愛路一段139巷18號","121.397886666667","25.0717033333333","6501700","林口區"
"243015","380-SR","2017/10/16 17:48:34","新北市泰山區犁頭窠3-1號","121.422156666667","25.0604633333333","6501600","泰山區"
"243016","680-BX","2017/10/16 17:28:55","新北市泰山區犁頭窠3-1號","121.421963333333","25.06021","6501600","泰山區"
"222003","436-BY","2017/10/16 17:49:54","新北市深坑區阿柔洋60-1號","121.608595","24.9985316666667","6501800","深坑區"
"222002","659-BX","2017/10/16 17:49:40","新北市深坑區平埔街22巷17弄1號","121.614813333333","25.0007733333333","6501800","深坑區"
"231046","278-BY","2017/10/16 17:49:31","新北市新店區下石厝路19-1號","121.532128333333","24.9274616666667","6500600","新店區"
"241005","262-UM","2017/10/16 17:49:51","新北市三重區碧華街246號","121.487636666667","25.0828266666667","6500200","三重區"
"241016","266-UM","2017/10/16 17:49:56","新北市三重區重新路二段126號","121.49625","25.0616716666667","6500200","三重區"
"241024","462-BY","2017/10/16 17:49:40","新北市三重區車路頭街62巷24號","121.483216666667","25.072375","6500200","三重區"
"241012","941-UM","2017/10/16 17:49:38","新北市三重區龍濱路285號","121.500968333333","25.07341","6500200","三重區"
"241033","AAC-255","2017/10/16 17:49:36","新北市三重區光復路一段11號","121.472085","25.0471683333333","6500200","三重區"
"235064","005-UY","2017/10/16 17:49:50","新北市中和區員山路36巷16-3號","121.485098333333","24.9913283333333","6500300","中和區"
"235063","006-UY","2017/10/16 17:49:51","新北市中和區員山路36巷16-3號","121.485141666667","24.991405","6500300","中和區"
"235062","800-TS","2017/10/16 17:49:52","新北市中和區員山路36巷16-3號","121.484881666667","24.991505","6500300","中和區"
"235059","AAC-215","2017/10/16 17:49:47","新北市中和區員山路36巷16-3號","121.485028333333","24.9912066666667","6500300","中和區"
"247022","893-R6","2017/10/16 17:49:40","新北市蘆洲區中正路284-1號","121.46501","25.0902683333333","6501400","蘆洲區"
"247012","546-UM","2017/10/16 17:49:41","新北市蘆洲區復興路107號","121.477043333333","25.0877766666667","6501400","蘆洲區"
"247020","500-BY","2017/10/16 17:49:51","新北市蘆洲區民義街71巷28號","121.47245","25.0908516666667","6501400","蘆洲區"
"247010","339-TH","2017/10/16 17:49:53","新北市蘆洲區民族路60號","121.477165","25.0846483333333","6501400","蘆洲區"
"247002","337-TH","2017/10/16 17:49:50","新北市蘆洲區永平街32巷21弄34號","121.457855","25.0923716666667","6501400","蘆洲區"
"247004","336-TH","2017/10/16 17:49:39","新北市蘆洲區永安南路二段328巷17弄16號","121.455705","25.0838833333333","6501400","蘆洲區"
"247016","057-VK","2017/10/16 17:49:51","新北市蘆洲區中正路185巷25弄5號","121.466885","25.08441","6501400","蘆洲區"
"247006","056-VK","2017/10/16 17:49:36","新北市蘆洲區九芎街140號","121.464896666667","25.07896","6501400","蘆洲區"
"247008","053-VK","2017/10/16 17:49:54","新北市蘆洲區中山一路234號","121.472828333333","25.0802883333333","6501400","蘆洲區"
"247014","007-UY","2017/10/16 17:49:49","新北市蘆洲區保和街50-5號","121.469718333333","25.0862616666667","6501400","蘆洲區"
"247024","002-UY","2017/10/16 17:49:35","新北市蘆洲區長樂路120巷8號","121.462301666667","25.08974","6501400","蘆洲區"
"247018","001-UY","2017/10/16 17:49:44","新北市蘆洲區復興路227巷2弄2號","121.479986666667","25.0900166666667","6501400","蘆洲區"
"228003","097-TW","2017/10/16 17:49:56","新北市貢寮區真理里延平街72-5號","121.925191666667","25.05816","6502600","貢寮區"
"228002","585-TW","2017/10/16 17:49:53","新北市貢寮區福隆里龜壽谷街12號","121.95562","25.0064166666667","6502600","貢寮區"
"228001","670-TC","2017/10/16 17:49:44","新北市貢寮區仁理村仁愛路95-1號","121.927691666667","25.0555166666667","6502600","貢寮區"
"224010","AGQ-8101","2017/10/16 17:49:50","新北市瑞芳區逢甲路17號","121.809491666667","25.10857","6501200","瑞芳區"
"224006","676-BX","2017/10/16 17:49:55","新北市瑞芳區傑魚坑路86號","121.792628333333","25.1104616666667","6501200","瑞芳區"
"224002","639-TC","2017/10/16 17:49:44","新北市瑞芳區逢甲路56號","121.810741666667","25.1086016666667","6501200","瑞芳區"
"224009","285-BY","2017/10/16 17:49:41","新北市瑞芳區山尖路213號","121.849165","25.1122683333333","6501200","瑞芳區"
"224008","275-VK","2017/10/16 17:49:47","新北市瑞芳區明燈路一段18巷10號","121.822246666667","25.1073116666667","6501200","瑞芳區"
"224007","273-VK","2017/10/16 17:49:54","新北市瑞芳區八分寮路10號","121.797253333333","25.08807","6501200","瑞芳區"
"224005","271-BY","2017/10/16 17:49:47","新北市瑞芳區豎崎路32-5號","121.824128333333","25.1209616666667","6501200","瑞芳區"
"253006","295-VK","2017/10/16 17:49:40","新北市石門區中山路64號","121.567235","25.2909266666667","6502200","石門區"
"208002","742-BX","2017/10/16 17:49:46","新北市金山區磺清路135號","121.639328333333","25.2274616666667","6502700","金山區"
"208003","665-BX","2017/10/16 17:49:43","新北市金山區磺清路135號","121.639306666667","25.2276833333333","6502700","金山區"
"208001","761-BX","2017/10/16 17:49:47","新北市金山區磺清路135號","121.639328333333","25.2276883333333","6502700","金山區"
"251009","008-UM","2017/10/16 17:49:52","新北市淡水區長興街31-1號","121.444013333333","25.171325","6501000","淡水區"
"251004","009-UM","2017/10/16 17:49:52","新北市淡水區民權一街33-3號","121.459526666667","25.1364033333333","6501000","淡水區"
"251007","179-VK","2017/10/16 17:49:56","新北市淡水區民生路26號","121.46123","25.1378383333333","6501000","淡水區"
"251008","181-VK","2017/10/16 17:49:51","新北市淡水區八勢路一段125-1號","121.467263333333","25.1568366666667","6501000","淡水區"
"251013","182-VK","2017/10/16 17:49:43","新北市淡水區泉洲厝30號","121.479673333333","25.1909733333333","6501000","淡水區"
"251010","413-VK","2017/10/16 17:49:36","新北市淡水區淡海路280巷33弄34-2號","121.418711666667","25.18862","6501000","淡水區"
"251012","441-VK","2017/10/16 17:49:52","新北市淡水區北新路二段40號","121.4773","25.1857183333333","6501000","淡水區"
"251015","442-VK","2017/10/16 17:49:41","新北市淡水區興福寮88巷1號","121.485555","25.1651133333333","6501000","淡水區"
"251005","443-VK","2017/10/16 17:49:39","新北市淡水區學府路96號","121.449628333333","25.1716616666667","6501000","淡水區"
"251001","559-UM","2017/10/16 17:49:56","新北市淡水區自強路201巷39號","121.462195","25.126745","6501000","淡水區"
"251006","561-UM","2017/10/16 17:49:55","新北市淡水區中山北路一段45巷17號","121.44095","25.1758166666667","6501000","淡水區"
"251011","650-BX","2017/10/16 17:49:49","新北市淡水區吳(仔)厝36號","121.4795","25.14942","6501000","淡水區"
"251002","672-BX","2017/10/16 17:49:36","新北市淡水區中山路92號","121.442665","25.1706","6501000","淡水區"
"251003","673-BX","2017/10/16 17:49:41","新北市淡水區大忠街13號","121.443443333333","25.1759233333333","6501000","淡水區"
"207003","550-UM","2017/10/16 17:49:49","新北市萬里區野柳里東澳路66號","121.692841666667","25.200975","6502800","萬里區"
"207004","225-TW","2017/10/16 17:49:35","新北市萬里區萬里里瑪鋉頂街61號","121.688383333333","25.180475","6502800","萬里區"
"252002","178-VK","2017/10/16 17:49:51","新北市三芝區智成街47號","121.504223333333","25.2563066666667","6502100","三芝區"
"252001","292-VK","2017/10/16 17:49:44","新北市三芝區淡金路一段30號","121.500153333333","25.2592933333333","6502100","三芝區"
"252006","AAC-283","2017/10/16 16:46:08","新北市三芝區埔坪里埔頭坑41號","121.504503333333","25.2644066666667","6502100","三芝區"
"237004","078-UY","2017/10/16 17:49:44","新北市三峽區中山路234號","121.362645","24.9373466666667","6500900","三峽區"
"237009","210-TH","2017/10/16 17:49:48","新北市三峽區大勇路27號","121.36722","24.9363916666667","6500900","三峽區"
"237013","252-BX","2017/10/16 17:49:54","新北市三峽區愛國路33-8號","121.374626666667","24.9332883333333","6500900","三峽區"
"237012","275-BY","2017/10/16 17:49:48","新北市三峽區文化路158號","121.370188333333","24.9361333333333","6500900","三峽區"
"237008","302-VK","2017/10/16 17:49:53","新北市三峽區中園街205號","121.36699","24.920665","6500900","三峽區"
"237001","159-BY","2017/10/16 10:30:53","新北市三峽區中山路459巷163-3號","121.348883333333","24.93308","6500900","三峽區"
"237014","433-BY","2017/10/16 17:49:51","新北市三峽區文化路120巷7號","121.371005","24.9365133333333","6500900","三峽區"
"237006","5529-G3","2017/10/16 17:49:50","新北市三峽區介壽路二段38巷75號","121.391981666667","24.9339866666667","6500900","三峽區"
"237011","572-TV","2017/10/16 12:58:55","新北市三峽區中山路459巷137號","121.349771666667","24.93372","6500900","三峽區"
"237016","649-BX","2017/10/16 17:49:45","新北市三峽區白雞149-2號","121.400193333333","24.9056633333333","6500900","三峽區"
"237010","706-TV","2017/10/16 17:39:08","新北市三峽區中山路198號","121.363281666667","24.9371266666667","6500900","三峽區"
"237005","AKY-6261","2017/10/16 17:49:39","新北市三峽區中山路459巷92號","121.354423333333","24.9362033333333","6500900","三峽區"
"236069","105-UM","2017/10/16 17:49:45","新北市土城區城林路6巷80號","121.438421666667","24.9797016666667","6501300","土城區"
"236042","107-UM","2017/10/16 17:49:51","新北市土城區城林路6巷80號","121.438681666667","24.979805","6501300","土城區"
"236078","166-UM","2017/10/16 17:49:46","新北市土城區永寧路95號","121.429486666667","24.9558633333333","6501300","土城區"
"236030","253-BX","2017/10/16 17:49:54","新北市土城區城林路6巷80號","121.438455","24.9797633333333","6501300","土城區"
"236026","269-VK","2017/10/16 17:49:43","新北市土城區中華路二段196號","121.437496666667","24.9707933333333","6501300","土城區"
"236014","270-VK","2017/10/16 17:49:42","新北市土城區城林路6巷80號","121.438541666667","24.9795933333333","6501300","土城區"
"236036","271-VK","2017/10/16 17:49:54","新北市土城區城林路6巷80號","121.43852","24.9797983333333","6501300","土城區"
"236020","401-BY","2017/10/16 17:49:50","新北市土城區城林路6巷80號","121.438815","24.9796483333333","6501300","土城區"
"236058","912-UM","2017/10/16 17:49:39","新北市土城區城林路6巷80號","121.438513333333","24.9795766666667","6501300","土城區"
"236048","913-UM","2017/10/16 16:45:17","新北市土城區城林路6巷80號","121.438483333333","24.9797933333333","6501300","土城區"
"236053","AAC-216","2017/10/16 17:49:49","新北市土城區城林路6巷80號","121.438433333333","24.9797183333333","6501300","土城區"
"242031","AAC-296","2017/10/16 17:49:47","新北市新莊區新泰路357巷3弄1號","121.442413333333","25.0412","6500500","新莊區"
"242029","986-R7","2017/10/16 17:49:48","新北市新莊區復興路一段101號","121.449003333333","25.0428433333333","6500500","新莊區"
"242050","751-BX","2017/10/16 17:49:40","新北市新莊區西盛街220號","121.428035","25.01686","6500500","新莊區"
"242025","615-BX","2017/10/16 17:49:38","新北市三重區新北大道二段25號","121.47132","25.061325","6500500","新莊區"
"242023","613-BX","2017/10/16 17:49:40","新北市新莊區福樂街78號","121.457748333333","25.046735","6500500","新莊區"
"242027","612-BX","2017/10/16 17:49:46","新北市新莊區福壽街140號","121.457733333333","25.0518316666667","6500500","新莊區"
"242039","566-BX","2017/10/16 17:49:55","新北市新莊區民安路166號","121.424971666667","25.0242333333333","6500500","新莊區"
"242044","497-BY","2017/10/16 17:49:53","新北市新莊區中正路857號","121.41965","25.027915","6500500","新莊區"
"242002","442-UM","2017/10/16 17:49:57","新北市新莊區景德路163號","121.450545","25.0340233333333","6500500","新莊區"
"242048","441-UM","2017/10/16 17:49:38","新北市新莊區萬安街60巷1號","121.420671666667","25.0235766666667","6500500","新莊區"
"242053","440-UM","2017/10/16 17:49:36","新北市新莊區新樹路569號","121.432878333333","25.00709","6500500","新莊區"
"242042","400-BY","2017/10/16 17:49:52","新北市新莊區壽山路31號","121.420043333333","25.0289166666667","6500500","新莊區"
"242060","362-BY","2017/10/16 17:49:53","新北市新莊區新樹路575號","121.432936666667","25.0069983333333","6500500","新莊區"
"242058","353-BY","2017/10/16 17:49:54","新北市新莊區中正路730號","121.414955","25.023735","6500500","新莊區"
"242007","132-UY","2017/10/16 17:49:52","新北市新莊區福樂街122號","121.457006666667","25.047875","6500500","新莊區"
"242036","133-UY","2017/10/16 17:49:39","新北市新莊區後港一路92號","121.42759","25.0266866666667","6500500","新莊區"
"242021","135-UY","2017/10/16 17:49:47","新北市新莊區永寧街37巷1號","121.452875","25.0395633333333","6500500","新莊區"
"242046","172-VK","2017/10/16 17:49:43","新北市新莊區福營路97巷25號","121.435211666667","25.0318283333333","6500500","新莊區"
"242009","173-VK","2017/10/16 17:49:39","新北市新莊區昌明街50號","121.45596","25.052205","6500500","新莊區"
"242015","175-VK","2017/10/16 17:49:52","新北市新莊區新泰路462號","121.443358333333","25.04484","6500500","新莊區"
"242013","346-TH","2017/10/16 17:49:38","新北市新莊區中誠街171號","121.448111666667","25.0473183333333","6500500","新莊區"
"242019","348-TH","2017/10/16 17:49:46","新北市新莊區民樂街64號","121.457961666667","25.0419766666667","6500500","新莊區"
"242056","349-TH","2017/10/16 17:49:53","新北市新莊區瓊林路40巷29號","121.44653","25.0301016666667","6500500","新莊區"
"242017","350-TH","2017/10/16 17:49:51","新北市新莊區永安街38號","121.451671666667","25.0447533333333","6500500","新莊區"
"242011","351-TH","2017/10/16 17:49:41","新北市新莊區中港路681巷18號","121.449816666667","25.0563933333333","6500500","新莊區"
"238015","755-BX","2017/10/16 17:49:45","新北市樹林區長壽街80-5號","121.420805","24.9949383333333","6500700","樹林區"
"238023","601-UM","2017/10/16 17:49:50","新北市樹林區福興街3巷11號","121.404776666667","25.0168116666667","6500700","樹林區"
"238019","599-UM","2017/10/16 17:49:51","新北市樹林區太平路176號","121.418498333333","24.9768283333333","6500700","樹林區"
"238018","571-TV","2017/10/16 17:49:50","新北市樹林區鎮前街10號","121.426278333333","24.9932983333333","6500700","樹林區"
"238021","KEA-2217","2017/10/16 17:49:48","新北市樹林區柑園街一段253巷19號","121.396433333333","24.9546116666667","6500700","樹林區"
"238022","KEA-2213","2017/10/16 17:49:56","新北市樹林區太順街64號","121.417823333333","24.9793583333333","6500700","樹林區"
"238025","303-VK","2017/10/16 17:49:48","新北市樹林區俊興街209-4號","121.417468333333","25.0141816666667","6500700","樹林區"
"238017","283-BY","2017/10/16 17:49:47","新北市樹林區三德街30巷27號","121.414701666667","25.0122983333333","6500700","樹林區"
"238014","282-BY","2017/10/16 17:49:53","新北市樹林區保安街一段289巷3號","121.41685","24.9962283333333","6500700","樹林區"
"238020","268-VK","2017/10/16 17:49:56","新北市樹林區俊英街158號","121.426811666667","25.006525","6500700","樹林區"
"238026","172-UY","2017/10/16 17:49:45","新北市樹林區新興街17號","121.400333333333","24.97286","6500700","樹林區"
"238016","169-UY","2017/10/16 17:49:52","新北市樹林區復興路294號","121.417258333333","24.987425","6500700","樹林區"
"239007","AAC-297","2017/10/16 17:49:41","新北市鶯歌區鶯桃路118號","121.338518333333","24.95464","6500800","鶯歌區"
"239006","891-R6","2017/10/16 17:49:33","新北市鶯歌區鳳鳴路21號","121.333605","24.9650966666667","6500800","鶯歌區"
"239008","527-UM","2017/10/16 17:49:58","新北市鶯歌區香賓街29巷1號","121.337716666667","24.9796216666667","6500800","鶯歌區"
"239005","526-UM","2017/10/16 17:49:48","新北市鶯歌區鶯桃路二段8號","121.326391666667","24.9721666666667","6500800","鶯歌區"
"239001","417-VK","2017/10/16 17:49:39","新北市鶯歌區中正三路454號","121.32195","24.934575","6500800","鶯歌區"
"239003","360-BY","2017/10/16 17:49:47","新北市鶯歌區鶯桃路285巷23號","121.334178333333","24.9588533333333","6500800","鶯歌區"
"239002","359-BY","2017/10/16 17:49:51","新北市鶯歌區國華路37號","121.342831666667","24.9555","6500800","鶯歌區"
"221008","489-VK","2017/10/16 17:49:47","新北市汐止區康寧街901號","121.6514","25.0748483333333","6501100","汐止區"
"221036","130-UY","2017/10/16 17:49:40","新北市汐止區長江街43號","121.655813333333","25.0712933333333","6501100","汐止區"
"221015","131-UY","2017/10/16 17:49:44","新北市汐止區長江街249-1號","121.66288","25.07935","6501100","汐止區"
"221010","269-BY","2017/10/16 17:49:40","新北市汐止區汐萬路一段397號","121.649416666667","25.0789183333333","6501100","汐止區"
"221012","278-VK","2017/10/16 17:49:38","新北市汐止區長江街57巷2號","121.656461666667","25.07169","6501100","汐止區"
"221023","279-VK","2017/10/16 17:49:51","新北市汐止區民族二街9號","121.634941666667","25.0708716666667","6501100","汐止區"
"221032","280-BY","2017/10/16 17:49:40","新北市汐止區大同路一段215-1號","121.633705","25.0574266666667","6501100","汐止區"
"221027","281-BY","2017/10/16 17:49:42","新北市汐止區汐萬路一段312號","121.650368333333","25.07495","6501100","汐止區"
"221029","298-VK","2017/10/16 17:49:49","新北市汐止區康寧街901號","121.651646666667","25.0749116666667","6501100","汐止區"
"221021","299-VK","2017/10/16 17:49:48","新北市汐止區大同路二段340號","121.65653","25.0669666666667","6501100","汐止區"
"221031","353-TW","2017/10/16 17:49:57","新北市汐止區康寧街861巷1號","121.645425","25.0759483333333","6501100","汐止區"
"221035","622-UM","2017/10/16 17:49:51","新北市汐止區汐萬路一段213號","121.652013333333","25.0721083333333","6501100","汐止區"
"221025","623-UM","2017/10/16 17:49:47","新北市汐止區大同路二段132號","121.651646666667","25.0636516666667","6501100","汐止區"
"221038","646-BX","2017/10/16 17:49:47","新北市汐止區汐萬路一段312號","121.650403333333","25.0750416666667","6501100","汐止區"
"221033","647-BX","2017/10/16 17:49:36","新北市汐止區橫科路73巷20弄22號","121.619801666667","25.0516916666667","6501100","汐止區"
"221018","753-BX","2017/10/16 17:49:38","新北市汐止區忠孝東路382巷1弄1號","121.665621666667","25.069795","6501100","汐止區"
"242034","280-VK","2017/10/16 17:49:40","新北市新莊區新莊路783號","121.441168333333","25.032705","6500500","新莊區"
"220011","833-TW","2017/10/16 09:27:31","新北市板橋區民生路二段22號","121.47273","25.0166666666667","6500100","板橋區"
