"lineid","car","time","location","longitude","latitude","cityid","cityname"
"234026","9371-KE","2017/10/16 17:59:50","新北市永和區永和路一段45-1號","121.512816666667","25.0063","6500400","永和區"
"234011","9373-KE","2017/10/16 17:47:24","新北市永和區福和路1號","121.525575","25.0093966666667","6500400","永和區"
"249005","172-UM","2017/10/16 17:59:46","新北市八里區荖阡坑路20號","121.396988333333","25.1365616666667","6502300","八里區"
"249001","173-UM","2017/10/16 17:59:44","新北市八里區龍米路二段37號","121.448241666667","25.1400116666667","6502300","八里區"
"249004","303-UY","2017/10/16 17:59:46","新北市八里區賢一街15號","121.42127","25.158585","6502300","八里區"
"249002","305-UY","2017/10/16 17:59:44","新北市八里區龍米路一段440巷10號","121.451378333333","25.1338816666667","6502300","八里區"
"249003","593-UM","2017/10/16 17:59:49","新北市八里區中山路二段298號","121.404788333333","25.150395","6502300","八里區"
"248016","026-BX","2017/10/16 17:59:48","新北市五股區中興路二段83巷26-6號","121.459568333333","25.0752316666667","6501500","五股區"
"248006","077-UY","2017/10/16 17:59:51","新北市五股區中興路二段37巷28號","121.460088333333","25.0749683333333","6501500","五股區"
"248008","095-VK","2017/10/16 17:59:48","新北市五股區更洲路18號","121.458166666667","25.0789566666667","6501500","五股區"
"248018","225-UY","2017/10/16 17:59:47","新北市五股區中興路二段83巷26-6號","121.460025","25.0752966666667","6501500","五股區"
"248014","261-SL","2017/10/16 17:59:41","新北市五股區更洲路47號","121.456896666667","25.079085","6501500","五股區"
"248010","272-BY","2017/10/16 17:59:37","新北市五股區中興路二段163號","121.457578333333","25.07769","6501500","五股區"
"248004","677-BX","2017/10/16 15:34:04","新北市五股區中興路二段37巷28號","121.460055","25.074925","6501500","五股區"
"232011","375-UM","2017/10/16 17:59:52","新北市坪林區北宜路八段363號","121.709701666667","24.9328016666667","6502000","坪林區"
"244013","069-UM","2017/10/16 17:59:37","新北市林口區中山路67號","121.393723333333","25.0784666666667","6501700","林口區"
"244007","080-UY","2017/10/16 17:59:53","新北市林口區林口路88號","121.388973333333","25.0809183333333","6501700","林口區"
"244019","403-UM","2017/10/16 17:59:48","新北市林口區忠孝路542巷11弄9-3號","121.373373333333","25.0670683333333","6501700","林口區"
"244025","742-UY","2017/10/16 17:59:40","新北市林口區惠民街28號","121.356746666667","25.066065","6501700","林口區"
"244009","410-SL","2017/10/16 17:59:50","新北市林口區竹林路564號","121.386786666667","25.0836966666667","6501700","林口區"
"244023","483-VK","2017/10/16 17:59:54","新北市林口區東湖路55巷42號","121.38559","25.0725816666667","6501700","林口區"
"244017","485-VK","2017/10/16 17:59:41","新北市林口區文化二路一段232號","121.369828333333","25.072505","6501700","林口區"
"244011","701-TV","2017/10/16 17:59:53","新北市林口區中正路54號","121.395113333333","25.077455","6501700","林口區"
"244021","838-TS","2017/10/16 17:59:49","新北市林口區新寮45號","121.404266666667","25.064295","6501700","林口區"
"243015","380-SR","2017/10/16 17:48:34","新北市泰山區犁頭窠3-1號","121.422156666667","25.0604633333333","6501600","泰山區"
"243016","680-BX","2017/10/16 17:28:55","新北市泰山區犁頭窠3-1號","121.421963333333","25.06021","6501600","泰山區"
"222003","436-BY","2017/10/16 17:59:34","新北市深坑區炮子崙24號","121.605223333333","24.98773","6501800","深坑區"
"222002","659-BX","2017/10/16 17:59:40","新北市深坑區文化街98號","121.617025","25.0018083333333","6501800","深坑區"
"231046","278-BY","2017/10/16 17:59:51","新北市新店區康雅崙路1號","121.540346666667","24.926105","6500600","新店區"
"241016","266-UM","2017/10/16 17:59:36","新北市三重區新北大道一段58號","121.487293333333","25.0614633333333","6500200","三重區"
"241024","462-BY","2017/10/16 17:59:40","新北市三重區力行路一段277號","121.482316666667","25.0716633333333","6500200","三重區"
"241033","AAC-255","2017/10/16 17:59:36","新北市三重區重新路五段625號","121.467813333333","25.044195","6500200","三重區"
"235064","005-UY","2017/10/16 17:59:50","新北市中和區員山路36巷16-3號","121.485158333333","24.9913816666667","6500300","中和區"
"235063","006-UY","2017/10/16 17:59:51","新北市中和區員山路36巷16-2號","121.485188333333","24.9914266666667","6500300","中和區"
"235065","098-UM","2017/10/16 17:59:40","新北市中和區連城路469-1號","121.483523333333","24.9958416666667","6500300","中和區"
"235038","185-VK","2017/10/16 17:59:39","新北市中和區中正路501號","121.48877","24.994095","6500300","中和區"
"235067","255-BX","2017/10/16 17:59:49","新北市中和區和城路一段271巷1號","121.485435","24.9919016666667","6500300","中和區"
"235051","376-QA","2017/10/16 15:29:08","新北市中和區員山路36巷13號","121.48425","24.9908266666667","6500300","中和區"
"235042","551-UM","2017/10/16 17:59:37","新北市中和區和城路一段271巷1號","121.485658333333","24.9916783333333","6500300","中和區"
"235062","800-TS","2017/10/16 17:59:52","新北市中和區連城路308號","121.48365","24.9962933333333","6500300","中和區"
"235037","AAC-213","2017/10/16 17:59:38","新北市中和區員山路36巷13號","121.484391666667","24.9913","6500300","中和區"
"235059","AAC-215","2017/10/16 17:59:47","新北市中和區員山路36巷16-3號","121.485","24.9911966666667","6500300","中和區"
"247022","893-R6","2017/10/16 17:59:40","新北市蘆洲區中正路516巷12號","121.462586666667","25.0980933333333","6501400","蘆洲區"
"247012","546-UM","2017/10/16 17:59:41","新北市蘆洲區民族路193號","121.47841","25.089035","6501400","蘆洲區"
"247020","500-BY","2017/10/16 17:59:27","新北市蘆洲區民義街9巷9號","121.470968333333","25.0890783333333","6501400","蘆洲區"
"247010","339-TH","2017/10/16 17:59:49","新北市蘆洲區信義路259巷11號","121.478378333333","25.0844533333333","6501400","蘆洲區"
"247002","337-TH","2017/10/16 17:59:50","新北市蘆洲區永平街32巷57弄32號","121.45855","25.0934583333333","6501400","蘆洲區"
"247016","057-VK","2017/10/16 17:59:51","新北市蘆洲區中正路185巷78弄4號","121.466061666667","25.0845733333333","6501400","蘆洲區"
"247008","053-VK","2017/10/16 17:59:54","新北市蘆洲區中山一路246號","121.47229","25.079965","6501400","蘆洲區"
"247024","002-UY","2017/10/16 17:59:35","新北市蘆洲區光復路41巷16號","121.46291","25.0853333333333","6501400","蘆洲區"
"247018","001-UY","2017/10/16 17:59:44","新北市蘆洲區復興路294號","121.480978333333","25.08993","6501400","蘆洲區"
"226004","312-R5","2017/10/16 17:59:52","新北市平溪區菁桐里菁桐街11號","121.72787","25.0240383333333","6502400","平溪區"
"228003","097-TW","2017/10/16 17:59:36","新北市貢寮區真理里美艷山街6-2號","121.928945","25.060725","6502600","貢寮區"
"228002","585-TW","2017/10/16 17:59:53","新北市貢寮區福連里香蘭街2-1號","121.970046666667","25.0238166666667","6502600","貢寮區"
"228001","670-TC","2017/10/16 17:59:44","新北市貢寮區真理里新港街26巷53號","121.928243333333","25.0537583333333","6502600","貢寮區"
"224006","676-BX","2017/10/16 17:59:45","新北市瑞芳區傑魚坑路191號","121.788046666667","25.10752","6501200","瑞芳區"
"224002","639-TC","2017/10/16 17:59:44","新北市瑞芳區三爪子坑路34號","121.810461666667","25.1061516666667","6501200","瑞芳區"
"224009","285-BY","2017/10/16 17:59:41","新北市瑞芳區新山路147號","121.852066666667","25.1087983333333","6501200","瑞芳區"
"224008","275-VK","2017/10/16 17:59:47","新北市瑞芳區明燈路一段45巷61-1號","121.821783333333","25.1053766666667","6501200","瑞芳區"
"224007","273-VK","2017/10/16 17:59:54","新北市瑞芳區大寮路84號","121.7804","25.1013416666667","6501200","瑞芳區"
"224005","271-BY","2017/10/16 17:59:47","新北市瑞芳區深澳路10-4號","121.818548333333","25.13003","6501200","瑞芳區"
"253005","032-BX","2017/10/16 17:59:53","新北市石門區中山路62-11號","121.567541666667","25.2896683333333","6502200","石門區"
"253006","295-VK","2017/10/16 17:59:40","新北市石門區大丘田45-2號","121.549806666667","25.2749266666667","6502200","石門區"
"222001","KEA-2212","2017/10/16 17:59:49","新北市深坑區北深路二段187號","121.612206666667","25.0012716666667","6501800","深坑區"
"208002","742-BX","2017/10/16 17:59:48","新北市金山區三界壇路60號","121.620183333333","25.2306983333333","6502700","金山區"
"208003","665-BX","2017/10/16 17:59:43","新北市金山區磺港里磺港路309號","121.644111666667","25.22762","6502700","金山區"
"208001","761-BX","2017/10/16 17:59:47","新北市金山區磺港里磺港路247號","121.643793333333","25.2250016666667","6502700","金山區"
"251009","008-UM","2017/10/16 17:59:52","新北市淡水區大仁街6巷1號","121.442403333333","25.174605","6501000","淡水區"
"251004","009-UM","2017/10/16 17:59:52","新北市淡水區民權路84號","121.458963333333","25.13363","6501000","淡水區"
"251008","181-VK","2017/10/16 17:59:51","新北市淡水區八勢一街55號","121.461855","25.1555183333333","6501000","淡水區"
"251013","182-VK","2017/10/16 17:59:43","新北市淡水區泉洲厝31號","121.47949","25.1910333333333","6501000","淡水區"
"251010","413-VK","2017/10/16 17:59:36","新北市淡水區中正路一段87巷13弄1號","121.420851666667","25.1785933333333","6501000","淡水區"
"251012","441-VK","2017/10/16 17:59:45","新北市淡水區北新路三段38巷7號","121.484545","25.1870266666667","6501000","淡水區"
"251015","442-VK","2017/10/16 17:59:41","新北市淡水區興福寮88巷1號","121.485563333333","25.1651116666667","6501000","淡水區"
"251005","443-VK","2017/10/16 17:59:39","新北市淡水區英專路135號","121.446523333333","25.1727283333333","6501000","淡水區"
"251001","559-UM","2017/10/16 17:59:36","新北市淡水區民權路14號","121.463035","25.124605","6501000","淡水區"
"251006","561-UM","2017/10/16 17:59:55","新北市淡水區真理街4-5號","121.43821","25.1731","6501000","淡水區"
"251011","650-BX","2017/10/16 17:59:48","新北市淡水區三空泉6-1號","121.477438333333","25.162085","6501000","淡水區"
"251002","672-BX","2017/10/16 17:59:36","新北市淡水區鼻頭街18-1號","121.446841666667","25.1667183333333","6501000","淡水區"
"251003","673-BX","2017/10/16 17:59:41","新北市淡水區大忠街79-6號","121.445768333333","25.1772066666667","6501000","淡水區"
"207003","550-UM","2017/10/16 17:59:49","新北市萬里區港東路野柳風景區攤販66號","121.691336666667","25.2058566666667","6502800","萬里區"
"207004","225-TW","2017/10/16 17:59:55","新北市萬里區中幅里中福路48號","121.683246666667","25.174095","6502800","萬里區"
"252002","178-VK","2017/10/16 17:59:51","新北市三芝區中山路二段43號","121.502795","25.25489","6502100","三芝區"
"252001","292-VK","2017/10/16 17:59:44","新北市三芝區中興街一段30號","121.497688333333","25.257795","6502100","三芝區"
"252006","AAC-283","2017/10/16 16:46:08","新北市三芝區埔坪里埔頭坑41號","121.504503333333","25.2644066666667","6502100","三芝區"
"237004","078-UY","2017/10/16 17:59:44","新北市三峽區中園街167號","121.367196666667","24.92193","6500900","三峽區"
"237007","153-BY","2017/10/16 17:59:49","新北市三峽區中園街108-4號","121.36672","24.9230183333333","6500900","三峽區"
"237009","210-TH","2017/10/16 17:59:48","新北市三峽區中山路106巷7號","121.36607","24.9360816666667","6500900","三峽區"
"237013","252-BX","2017/10/16 17:59:54","新北市三峽區愛國路33-9號","121.374826666667","24.9327916666667","6500900","三峽區"
"237012","275-BY","2017/10/16 17:59:48","新北市三峽區民生街27巷30號","121.37606","24.9361433333333","6500900","三峽區"
"237008","302-VK","2017/10/16 17:59:33","新北市三峽區正義街206號","121.368008333333","24.9136033333333","6500900","三峽區"
"237001","159-BY","2017/10/16 10:30:53","新北市三峽區中山路459巷163-3號","121.348883333333","24.93308","6500900","三峽區"
"237014","433-BY","2017/10/16 17:59:51","新北市三峽區復興路141-1號","121.370988333333","24.93775","6500900","三峽區"
"237006","5529-G3","2017/10/16 17:59:50","新北市三峽區介壽路二段138巷1弄21號","121.396618333333","24.9335216666667","6500900","三峽區"
"237011","572-TV","2017/10/16 12:58:55","新北市三峽區中山路459巷137號","121.349771666667","24.93372","6500900","三峽區"
"237015","649-BX","2017/10/16 17:59:45","新北市三峽區白雞115-3號","121.401746666667","24.9074233333333","6500900","三峽區"
"237010","706-TV","2017/10/16 17:39:08","新北市三峽區中山路198號","121.363281666667","24.9371266666667","6500900","三峽區"
"237005","AKY-6261","2017/10/16 17:59:39","新北市三峽區復興路237巷30號","121.36872","24.9375","6500900","三峽區"
"236069","105-UM","2017/10/16 17:59:45","新北市土城區城林路6巷80號","121.438446666667","24.9797116666667","6501300","土城區"
"236042","107-UM","2017/10/16 17:59:51","新北市土城區裕生路61號","121.447626666667","24.986035","6501300","土城區"
"236078","166-UM","2017/10/16 17:59:46","新北市土城區永寧路32巷10弄3號","121.428823333333","24.9609983333333","6501300","土城區"
"236030","253-BX","2017/10/16 17:59:34","新北市土城區城林路6巷80號","121.438455","24.9797633333333","6501300","土城區"
"236026","269-VK","2017/10/16 17:59:43","新北市土城區承天路65號","121.43947","24.9637266666667","6501300","土城區"
"236014","270-VK","2017/10/16 17:59:42","新北市土城區城林路6巷80號","121.438523333333","24.979645","6501300","土城區"
"236036","271-VK","2017/10/16 17:59:54","新北市土城區城林路6巷80號","121.438498333333","24.9798183333333","6501300","土城區"
"236020","401-BY","2017/10/16 17:59:50","新北市土城區城林路6巷80號","121.438806666667","24.97965","6501300","土城區"
"236058","912-UM","2017/10/16 17:59:39","新北市土城區中央路三段180號","121.430831666667","24.965195","6501300","土城區"
"236048","913-UM","2017/10/16 17:52:20","新北市土城區城林路6巷80號","121.438548333333","24.9794816666667","6501300","土城區"
"236062","915-UM","2017/10/16 17:59:44","新北市土城區城林路6巷80號","121.438425","24.9797983333333","6501300","土城區"
"236053","AAC-216","2017/10/16 17:59:49","新北市土城區城林路6巷80號","121.438431666667","24.979695","6501300","土城區"
"242031","AAC-296","2017/10/16 17:59:47","新北市新莊區新泰路305巷10號","121.444725","25.041025","6500500","新莊區"
"242029","986-R7","2017/10/16 17:59:48","新北市新莊區中平路32號","121.444756666667","25.043465","6500500","新莊區"
"242050","751-BX","2017/10/16 17:59:37","新北市新莊區西盛街232巷20號","121.42727","25.0164483333333","6500500","新莊區"
"242025","615-BX","2017/10/16 17:59:38","新北市新莊區五工路58號","121.458658333333","25.0630416666667","6500500","新莊區"
"242023","613-BX","2017/10/16 17:59:40","新北市新莊區福壽街72號","121.458261666667","25.04931","6500500","新莊區"
"242027","612-BX","2017/10/16 17:59:46","新北市新莊區中原路55號","121.458003333333","25.0542033333333","6500500","新莊區"
"242039","566-BX","2017/10/16 17:59:35","新北市新莊區民安西路15號","121.42684","25.0215083333333","6500500","新莊區"
"242044","497-BY","2017/10/16 17:59:53","新北市新莊區雙鳳路121號","121.413368333333","25.0279933333333","6500500","新莊區"
"242002","442-UM","2017/10/16 17:59:37","新北市新莊區中正路92號","121.455365","25.0366866666667","6500500","新莊區"
"242048","441-UM","2017/10/16 17:59:38","新北市新莊區萬安街28號","121.421378333333","25.0243683333333","6500500","新莊區"
"242053","440-UM","2017/10/16 17:59:43","新北市新莊區光華街8號","121.428778333333","25.010685","6500500","新莊區"
"242042","400-BY","2017/10/16 17:59:41","新北市新莊區中正路857-4號","121.41914","25.02794","6500500","新莊區"
"242060","362-BY","2017/10/16 17:59:53","新北市新莊區新樹路327號","121.433186666667","25.0189566666667","6500500","新莊區"
"242058","353-BY","2017/10/16 17:59:50","新北市新莊區雙鳳路134巷8號","121.41287","25.0282416666667","6500500","新莊區"
"242007","132-UY","2017/10/16 17:59:52","新北市新莊區自信街67號","121.455433333333","25.0482566666667","6500500","新莊區"
"242036","133-UY","2017/10/16 17:59:39","新北市新莊區建福路44號","121.426638333333","25.0277433333333","6500500","新莊區"
"242021","135-UY","2017/10/16 17:59:47","新北市新莊區建興街6號","121.450216666667","25.0365816666667","6500500","新莊區"
"242046","172-VK","2017/10/16 17:59:43","新北市新莊區福營路184號","121.431326666667","25.03084","6500500","新莊區"
"242009","173-VK","2017/10/16 17:59:39","新北市新莊區中華路二段260號","121.452453333333","25.0532266666667","6500500","新莊區"
"242015","175-VK","2017/10/16 17:59:52","新北市新莊區中平路119巷8號","121.444313333333","25.0466966666667","6500500","新莊區"
"242019","348-TH","2017/10/16 17:59:46","新北市新莊區明中街49巷15號","121.456778333333","25.0389633333333","6500500","新莊區"
"242056","349-TH","2017/10/16 17:59:50","新北市新莊區豐年街124巷22號","121.445441666667","25.029895","6500500","新莊區"
"242017","350-TH","2017/10/16 17:59:51","新北市新莊區中和街60巷13號","121.448511666667","25.0448033333333","6500500","新莊區"
"242011","351-TH","2017/10/16 17:59:41","新北市新莊區中榮街56巷13弄2號","121.449155","25.0534333333333","6500500","新莊區"
"238015","755-BX","2017/10/16 17:59:45","新北市樹林區啟智街78號","121.419805","24.9918833333333","6500700","樹林區"
"238023","601-UM","2017/10/16 17:59:50","新北市樹林區龍興街32巷8號","121.402521666667","25.0157633333333","6500700","樹林區"
"238019","599-UM","2017/10/16 17:59:51","新北市樹林區水源街15號","121.425205","24.9831133333333","6500700","樹林區"
"238018","571-TV","2017/10/16 17:59:50","新北市樹林區樹新路98號","121.429463333333","24.99759","6500700","樹林區"
"238021","KEA-2217","2017/10/16 17:59:50","新北市樹林區柑園街一段49號","121.403251666667","24.9602416666667","6500700","樹林區"
"238022","KEA-2213","2017/10/16 17:59:36","新北市樹林區太順街86巷7號","121.416811666667","24.9784766666667","6500700","樹林區"
"238025","303-VK","2017/10/16 17:59:49","新北市樹林區三俊街4號","121.41088","25.0153833333333","6500700","樹林區"
"238017","283-BY","2017/10/16 17:59:47","新北市樹林區三德街4號","121.413015","25.0127766666667","6500700","樹林區"
"238014","282-BY","2017/10/16 17:59:53","新北市樹林區大安路179號","121.421241666667","24.9961916666667","6500700","樹林區"
"238020","268-VK","2017/10/16 17:59:56","新北市樹林區俊英街284號","121.423693333333","25.013775","6500700","樹林區"
"238026","172-UY","2017/10/16 17:59:45","新北市樹林區中洲街51巷4號","121.396743333333","24.97102","6500700","樹林區"
"238016","169-UY","2017/10/16 17:59:52","新北市樹林區復興路284號","121.417755","24.987935","6500700","樹林區"
"239007","AAC-297","2017/10/16 17:59:41","新北市鶯歌區永樂街34號","121.34196","24.9538983333333","6500800","鶯歌區"
"239006","891-R6","2017/10/16 17:59:53","新北市鶯歌區鶯桃路413巷34弄34號","121.330795","24.9640833333333","6500800","鶯歌區"
"239008","527-UM","2017/10/16 17:59:38","新北市鶯歌區明圓街23號","121.336233333333","24.9773066666667","6500800","鶯歌區"
"239005","526-UM","2017/10/16 17:59:48","新北市鶯歌區鶯桃路668巷73號","121.329908333333","24.9717883333333","6500800","鶯歌區"
"239001","417-VK","2017/10/16 17:59:39","新北市鶯歌區中正三路171號","121.336213333333","24.93988","6500800","鶯歌區"
"239003","360-BY","2017/10/16 17:59:47","新北市鶯歌區永吉街7巷2號","121.336621666667","24.9584683333333","6500800","鶯歌區"
"239002","359-BY","2017/10/16 17:59:51","新北市鶯歌區光明街94號","121.346413333333","24.9557833333333","6500800","鶯歌區"
"221008","489-VK","2017/10/16 17:59:47","新北市汐止區明峰街21號","121.634566666667","25.0713133333333","6501100","汐止區"
"221036","130-UY","2017/10/16 17:59:40","新北市汐止區忠孝東路473巷24-1號","121.665113333333","25.0737266666667","6501100","汐止區"
"221015","131-UY","2017/10/16 17:59:44","新北市汐止區長江街333號","121.666886666667","25.0818383333333","6501100","汐止區"
"221010","269-BY","2017/10/16 17:59:40","新北市汐止區汐萬路二段221巷2號","121.646868333333","25.08751","6501100","汐止區"
"221012","278-VK","2017/10/16 17:59:38","新北市汐止區長興街二段20號","121.672923333333","25.0812666666667","6501100","汐止區"
"221023","279-VK","2017/10/16 17:59:51","新北市汐止區明峰街160號","121.629248333333","25.070565","6501100","汐止區"
"221032","280-BY","2017/10/16 17:59:41","新北市汐止區橫科路73巷2-1號","121.619418333333","25.0508","6501100","汐止區"
"221027","281-BY","2017/10/16 17:59:42","新北市汐止區大同路二段374號","121.657801666667","25.0671333333333","6501100","汐止區"
"221029","298-VK","2017/10/16 17:59:49","新北市汐止區樟樹二路332號","121.641443333333","25.07034","6501100","汐止區"
"221021","299-VK","2017/10/16 17:59:48","新北市汐止區新興路14號","121.656336666667","25.0646916666667","6501100","汐止區"
"221031","353-TW","2017/10/16 17:59:37","新北市汐止區中興路96巷1-3號","121.6352","25.0625366666667","6501100","汐止區"
"221035","622-UM","2017/10/16 17:59:51","新北市汐止區新江北路30巷15號","121.65275","25.069795","6501100","汐止區"
"221025","623-UM","2017/10/16 17:59:47","新北市汐止區仁愛路41號","121.659595","25.0632783333333","6501100","汐止區"
"221038","646-BX","2017/10/16 17:59:47","新北市汐止區連興街120號","121.653668333333","25.062365","6501100","汐止區"
"221033","647-BX","2017/10/16 17:59:36","新北市汐止區合順街33號","121.62047","25.0432766666667","6501100","汐止區"
"221002","707-TV","2017/10/16 17:59:34","新北市汐止區樟樹二路108號","121.639695","25.06473","6501100","汐止區"
"221018","753-BX","2017/10/16 17:59:38","新北市汐止區招商街11巷3號","121.666635","25.068765","6501100","汐止區"
"242034","280-VK","2017/10/16 17:59:36","新北市新莊區中正路421巷7號","121.444681666667","25.033945","6500500","新莊區"
"220011","833-TW","2017/10/16 09:27:31","新北市板橋區民生路二段22號","121.47273","25.0166666666667","6500100","板橋區"
