"lineid","car","time","location","longitude","latitude","cityid","cityname"
"234046","148-BY","2017/10/16 18:39:28","新北市永和區林森路44巷6弄8號","121.525518333333","25.0050933333333","6500400","永和區"
"234013","149-BY","2017/10/16 18:39:47","新北市永和區保福路二段105號","121.510223333333","25.0133516666667","6500400","永和區"
"234007","207-UY","2017/10/16 18:39:32","新北市永和區環河西路二段9-1號","121.508471666667","25.0165466666667","6500400","永和區"
"234081","298-R6","2017/10/16 18:39:38","新北市永和區林森路81號","121.523833333333","25.0039166666667","6500400","永和區"
"234038","336-UY","2017/10/16 18:39:40","新北市永和區福和路1號","121.526615","25.0099983333333","6500400","永和區"
"234064","337-UY","2017/10/16 18:39:50","新北市永和區福和路1號","121.526485","25.0098966666667","6500400","永和區"
"234086","338-UY","2017/10/16 18:39:45","新北市中和區景新街273巷32號","121.510881666667","24.99403","6500400","永和區"
"234017","745-BX","2017/10/16 18:39:43","新北市永和區福和路1號","121.526245","25.0096916666667","6500400","永和區"
"234030","746-BX","2017/10/16 18:39:43","新北市永和區得和路328號","121.523375","24.9995516666667","6500400","永和區"
"234061","AAD-866","2017/10/16 18:39:31","新北市永和區豫溪街217巷7號","121.52513","25.0098883333333","6500400","永和區"
"234042","862-TW","2017/10/16 18:39:38","新北市永和區永貞路306號","121.51195","25.00488","6500400","永和區"
"234050","863-TW","2017/10/16 18:39:36","新北市永和區環河東路二段10號","121.522328333333","25.013295","6500400","永和區"
"234011","9373-KE","2017/10/16 18:39:39","新北市永和區文化路9巷20號","121.515205","25.0145716666667","6500400","永和區"
"249005","172-UM","2017/10/16 18:39:26","新北市八里區中華路三段212號","121.388916666667","25.12526","6502300","八里區"
"249001","173-UM","2017/10/16 18:39:44","新北市八里區龍米路一段360號","121.451523333333","25.1313866666667","6502300","八里區"
"249004","303-UY","2017/10/16 18:39:46","新北市八里區觀海大道51巷1號","121.42845","25.1617433333333","6502300","八里區"
"248016","026-BX","2017/10/16 18:39:28","新北市五股區凌雲路一段149巷42號","121.448618333333","25.1009","6501500","五股區"
"248008","095-VK","2017/10/16 18:39:48","新北市五股區中興路一段149號","121.465108333333","25.07352","6501500","五股區"
"248018","225-UY","2017/10/16 18:39:47","新北市五股區民義路二段122號","121.405446666667","25.1143","6501500","五股區"
"248012","247-BX","2017/10/16 18:39:41","新北市五股區成泰路三段2巷1-10號","121.44137","25.0869233333333","6501500","五股區"
"248014","261-SL","2017/10/16 18:39:41","新北市五股區蓬萊路24號","121.433993333333","25.0798566666667","6501500","五股區"
"248010","272-BY","2017/10/16 18:39:37","新北市五股區明德路8號","121.43343","25.071375","6501500","五股區"
"248004","677-BX","2017/10/16 18:39:34","新北市五股區民義路一段189號","121.430898333333","25.088615","6501500","五股區"
"248002","678-BX","2017/10/16 18:39:46","新北市五股區西雲路207號","121.448525","25.0966116666667","6501500","五股區"
"234023","9380-KE","2017/10/16 18:39:46","新北市永和區豫溪街199號","121.523351666667","25.0098283333333","6500400","永和區"
"234077","969-R7","2017/10/16 18:39:48","新北市永和區中正路11號","121.514078333333","24.9956783333333","6500400","永和區"
"234003","AAC-295","2017/10/16 18:39:40","新北市永和區福和路1號","121.526513333333","25.0100066666667","6500400","永和區"
"232011","375-UM","2017/10/16 18:25:35","新北市坪林區坪雙路一段43號","121.711721666667","24.9424283333333","6502000","坪林區"
"244013","069-UM","2017/10/16 18:39:37","新北市林口區中正路514巷27號","121.38209","25.0779233333333","6501700","林口區"
"244007","080-UY","2017/10/16 18:39:41","新北市林口區後湖56號","121.384308333333","25.1012","6501700","林口區"
"244019","403-UM","2017/10/16 18:39:28","新北市林口區忠孝路604巷8號","121.37653","25.067715","6501700","林口區"
"244025","742-UY","2017/10/16 18:39:40","新北市林口區南勢五街65號","121.356836666667","25.0751683333333","6501700","林口區"
"244009","410-SL","2017/10/16 18:39:30","新北市林口區文林一街12巷1號","121.377188333333","25.0853083333333","6501700","林口區"
"244023","483-VK","2017/10/16 18:39:38","新北市林口區信義路152號","121.379733333333","25.0797016666667","6501700","林口區"
"244017","485-VK","2017/10/16 18:39:41","新北市林口區文化二路一段156號","121.368341666667","25.07144","6501700","林口區"
"244011","701-TV","2017/10/16 18:39:36","新北市林口區仁愛路一段270號","121.393838333333","25.075985","6501700","林口區"
"244021","838-TS","2017/10/16 18:39:49","新北市林口區工六路2號","121.397613333333","25.079355","6501700","林口區"
"243013","AAD-798","2017/10/16 18:39:46","新北市泰山區明志路三段206巷1號","121.423326666667","25.0379183333333","6501600","泰山區"
"243015","380-SR","2017/10/16 18:39:45","新北市泰山區犁頭窠3-1號","121.422326666667","25.0605516666667","6501600","泰山區"
"243012","646-TV","2017/10/16 18:39:33","新北市泰山區福興三街13號","121.434433333333","25.0577883333333","6501600","泰山區"
"243016","680-BX","2017/10/16 18:39:40","新北市泰山區黎明路23-1號","121.421603333333","25.06117","6501600","泰山區"
"222003","436-BY","2017/10/16 18:39:34","新北市深坑區翠谷街39號","121.626723333333","25.0094783333333","6501800","深坑區"
"222002","659-BX","2017/10/16 18:39:40","新北市深坑區雲鄉路2號","121.620953333333","24.9996783333333","6501800","深坑區"
"231041","002-UM","2017/10/16 18:39:30","新北市新店區安華路28-1號","121.51966","24.9607883333333","6500600","新店區"
"231059","046-UY","2017/10/16 18:39:41","新北市新店區安華路28-1號","121.519598333333","24.960795","6500600","新店區"
"231061","047-UY","2017/10/16 18:39:45","新北市新店區安華路28-1號","121.519095","24.960975","6500600","新店區"
"231060","106-UY","2017/10/16 18:39:39","新北市新店區安華路28-1號","121.519561666667","24.9606883333333","6500600","新店區"
"231047","108-UY","2017/10/16 18:39:41","新北市新店區環河路1-1號","121.537801666667","24.9615566666667","6500600","新店區"
"231052","187-VK","2017/10/16 18:39:44","新北市新店區新烏路一段50-20號","121.546011666667","24.9480316666667","6500600","新店區"
"231050","KEA-2219","2017/10/16 18:39:37","新北市新店區安華路28-1號","121.519735","24.9611883333333","6500600","新店區"
"231057","256-BX","2017/10/16 18:39:43","新北市新店區新烏路一段201號","121.547686666667","24.9325333333333","6500600","新店區"
"231046","278-BY","2017/10/16 18:39:51","新北市新店區直潭二街1號","121.535548333333","24.9432033333333","6500600","新店區"
"231054","AAD-862","2017/10/16 18:39:48","新北市新店區安康路一段355-3號","121.519803333333","24.9626883333333","6500600","新店區"
"231058","3712-VJ","2017/10/16 18:39:45","新北市新店區國校路77號","121.538535","24.9523116666667","6500600","新店區"
"231055","3713-VJ","2017/10/16 18:39:41","新北市新店區華興街27號","121.537441666667","24.9690233333333","6500600","新店區"
"231056","4716-K9","2017/10/16 18:39:40","新北市新店區自立街45巷1號","121.537133333333","24.979935","6500600","新店區"
"231067","4772-VM","2017/10/16 18:39:34","新北市新店區安華路1-1號","121.519221666667","24.9605366666667","6500600","新店區"
"231065","513-UM","2017/10/16 18:39:37","新北市新店區安華路28-1號","121.519193333333","24.96121","6500600","新店區"
"231064","515-UM","2017/10/16 18:39:33","新北市新店區安華路28-1號","121.519653333333","24.9611466666667","6500600","新店區"
"231040","619-UM","2017/10/16 18:39:50","新北市新店區安華路28-1號","121.519531666667","24.9607633333333","6500600","新店區"
"231042","641-BX","2017/10/16 18:39:35","新北市新店區安康路一段257號","121.524488333333","24.9633433333333","6500600","新店區"
"231063","645-TV","2017/10/16 18:39:41","新北市新店區安華路28-1號","121.519428333333","24.9607583333333","6500600","新店區"
"231049","719-UM","2017/10/16 18:39:34","新北市新店區安康路一段88號","121.528015","24.9619283333333","6500600","新店區"
"231051","719-UY","2017/10/16 18:39:32","新北市新店區安康路一段146號","121.526435","24.962915","6500600","新店區"
"231062","720-UM","2017/10/16 18:39:36","新北市新店區安華路28-1號","121.519256666667","24.9611883333333","6500600","新店區"
"231044","897-TW","2017/10/16 18:39:38","新北市新店區環河路1-2號","121.53805","24.9615966666667","6500600","新店區"
"231045","898-TW","2017/10/16 18:39:46","新北市新店區安華路28-1號","121.519406666667","24.9609816666667","6500600","新店區"
"231043","899-TW","2017/10/16 18:39:38","新北市新店區安華路28-1號","121.51927","24.96087","6500600","新店區"
"231066","AKT-0513","2017/10/16 18:39:35","新北市新店區安華路28-1號","121.519625","24.9605333333333","6500600","新店區"
"235066","003-UY","2017/10/16 18:39:28","新北市中和區水源路37號","121.504436666667","25.0035666666667","6500300","中和區"
"235064","005-UY","2017/10/16 18:39:50","新北市中和區連城路139巷47號","121.49669","24.997515","6500300","中和區"
"235063","006-UY","2017/10/16 18:39:31","新北市中和區連城路268-6號","121.486406666667","24.99632","6500300","中和區"
"235056","096-UM","2017/10/16 18:39:40","新北市中和區員山路611巷1號","121.477905","25.011265","6500300","中和區"
"235039","097-UM","2017/10/16 18:39:39","新北市永和區中正路97號","121.514831666667","24.997555","6500300","中和區"
"235065","098-UM","2017/10/16 18:39:40","新北市中和區莊敬路49巷18號","121.501645","25.00604","6500300","中和區"
"235040","150-BY","2017/10/16 18:39:34","新北市中和區景安路117號","121.505821666667","24.996485","6500300","中和區"
"235055","183-VK","2017/10/16 18:39:34","新北市中和區民生街72號","121.468633333333","25.0048166666667","6500300","中和區"
"235038","185-VK","2017/10/16 18:39:39","新北市中和區立人街14巷26號","121.519516666667","24.995485","6500300","中和區"
"235049","186-VK","2017/10/16 18:39:46","新北市中和區景平路500巷7號","121.50439","24.993675","6500300","中和區"
"235067","255-BX","2017/10/16 18:39:51","新北市中和區中正路875號","121.484365","25.0040266666667","6500300","中和區"
"235044","293-VK","2017/10/16 18:39:46","新北市中和區復興路280號","121.502385","24.9903966666667","6500300","中和區"
"235072","301-VK","2017/10/16 18:39:34","新北市中和區中山路二段12號","121.505003333333","25.0055266666667","6500300","中和區"
"235043","352-BY","2017/10/16 18:39:40","新北市中和區景平路105號","121.516966666667","24.9918383333333","6500300","中和區"
"235051","376-QA","2017/10/16 18:39:48","新北市中和區興南路二段114巷10弄1號","121.50393","24.9849633333333","6500300","中和區"
"235068","377-QA","2017/10/16 18:39:48","新北市中和區板南路218號","121.498041666667","24.993905","6500300","中和區"
"235050","4979-A6","2017/10/16 18:39:35","新北市中和區景新街496巷28弄39號","121.512696666667","24.9859133333333","6500300","中和區"
"235069","4980-A6","2017/10/16 18:39:32","新北市中和區泰和街2號","121.499983333333","25.0012066666667","6500300","中和區"
"235042","551-UM","2017/10/16 18:39:37","新北市中和區成功路97巷2號","121.526655","24.99173","6500300","中和區"
"235070","558-UM","2017/10/16 18:39:46","新北市中和區景平路433號","121.501111666667","24.9957216666667","6500300","中和區"
"235045","565-BX","2017/10/16 18:39:46","新北市中和區南山路236巷26號","121.505665","24.9887383333333","6500300","中和區"
"235054","640-BX","2017/10/16 18:39:44","新北市中和區民享街86巷24號","121.473481666667","25.0006566666667","6500300","中和區"
"235060","647-TV","2017/10/16 18:39:44","新北市中和區中山路二段570號","121.483063333333","25.005095","6500300","中和區"
"235047","732-UM","2017/10/16 18:39:42","新北市中和區南山路318號","121.507863333333","24.986635","6500300","中和區"
"235046","733-UM","2017/10/16 18:39:34","新北市中和區中興街124-1號","121.499708333333","24.9929916666667","6500300","中和區"
"235062","800-TS","2017/10/16 18:39:32","新北市中和區中山路二段312巷3弄2號","121.49556","25.0030866666667","6500300","中和區"
"235057","801-TS","2017/10/16 18:39:45","新北市中和區民安街65巷2號","121.478601666667","24.9997","6500300","中和區"
"235052","805-TS","2017/10/16 18:39:50","新北市中和區興南路三段73巷8號","121.492255","24.9743333333333","6500300","中和區"
"235048","896-TW","2017/10/16 18:39:35","新北市中和區南山路233號","121.503591666667","24.99316","6500300","中和區"
"235053","900-TW","2017/10/16 18:39:44","新北市中和區民享街457號","121.47039","24.993175","6500300","中和區"
"235037","AAC-213","2017/10/16 18:39:38","新北市中和區景平路111巷75號","121.514948333333","24.9902316666667","6500300","中和區"
"235059","AAC-215","2017/10/16 18:39:47","新北市中和區錦和路350-1號","121.49055","24.9935566666667","6500300","中和區"
"220068","013-TV","2017/10/16 18:39:32","新北市板橋區民生路二段120號","121.470378333333","25.0195683333333","6500100","板橋區"
"220065","072-UY","2017/10/16 18:39:34","新北市板橋區南雅南路二段122-11號","121.451803333333","24.9978716666667","6500100","板橋區"
"220086","073-UY","2017/10/16 18:39:47","新北市板橋區南雅西路一段110號","121.452455","25.006205","6500100","板橋區"
"247008","053-VK","2017/10/16 18:39:34","新北市八里區下罟子1-7號","121.391605","25.1415466666667","6501400","蘆洲區"
"228003","097-TW","2017/10/16 18:39:35","新北市貢寮區和美里龍洞街12-2號","121.918301666667","25.111745","6502600","貢寮區"
"228002","585-TW","2017/10/16 18:39:33","新北市貢寮區福隆里東興街6-11號","121.950748333333","25.02109","6502600","貢寮區"
"228001","670-TC","2017/10/16 18:39:44","新北市貢寮區仁理村研海街12-1號","121.923791666667","25.0516866666667","6502600","貢寮區"
"224010","AGQ-8101","2017/10/16 18:39:50","新北市瑞芳區基山街31巷24號","121.846265","25.11034","6501200","瑞芳區"
"224006","676-BX","2017/10/16 18:39:42","新北市瑞芳區一坑路38號","121.803673333333","25.1092466666667","6501200","瑞芳區"
"224002","639-TC","2017/10/16 18:39:44","新北市瑞芳區中山路308號","121.797103333333","25.1099433333333","6501200","瑞芳區"
"224009","285-BY","2017/10/16 18:39:41","新北市瑞芳區五號路213號","121.855855","25.1104933333333","6501200","瑞芳區"
"224008","275-VK","2017/10/16 18:39:47","新北市瑞芳區岳王路31號","121.807665","25.111185","6501200","瑞芳區"
"224007","273-VK","2017/10/16 18:39:34","新北市瑞芳區大埔路93號","121.76372","25.1013016666667","6501200","瑞芳區"
"224005","271-BY","2017/10/16 18:39:48","新北市瑞芳區瑞濱路147-11號","121.818328333333","25.1183133333333","6501200","瑞芳區"
"227001","642-TC","2017/10/16 18:39:35","新北市雙溪區魚行里坤溪3-5號","121.875758333333","25.0212033333333","6502500","雙溪區"
"227008","400-TW","2017/10/16 18:39:33","新北市雙溪區牡丹里下坑11號","121.850986666667","25.056205","6502500","雙溪區"
"253005","032-BX","2017/10/16 18:39:33","新北市石門區石門街47號","121.566525","25.2904133333333","6502200","石門區"
"253006","295-VK","2017/10/16 18:39:41","新北市石門區楓林28-5號","121.5426","25.289775","6502200","石門區"
"222001","KEA-2212","2017/10/16 18:39:29","新北市深坑區北深路一段84號","121.636286666667","25.0106916666667","6501800","深坑區"
"208002","742-BX","2017/10/16 18:39:46","新北市金山區忠孝一路22號","121.638455","25.2195366666667","6502700","金山區"
"208003","665-BX","2017/10/16 18:39:43","新北市金山區中山路315號","121.635643333333","25.2238566666667","6502700","金山區"
"208001","761-BX","2017/10/16 18:39:47","新北市金山區文化三路7號","121.635098333333","25.2249483333333","6502700","金山區"
"251004","009-UM","2017/10/16 18:39:32","新北市淡水區民權路13-5號","121.459741666667","25.14164","6501000","淡水區"
"251008","181-VK","2017/10/16 18:39:51","新北市淡水區北投子78-8號","121.457415","25.17917","6501000","淡水區"
"251013","182-VK","2017/10/16 18:39:43","新北市淡水區雲廣坑9號","121.47742","25.2107316666667","6501000","淡水區"
"251010","413-VK","2017/10/16 18:39:36","新北市淡水區沙崙路141-1號","121.423253333333","25.1829983333333","6501000","淡水區"
"251012","441-VK","2017/10/16 18:39:45","新北市淡水區北新路121號","121.448936666667","25.1786766666667","6501000","淡水區"
"251015","442-VK","2017/10/16 18:39:41","新北市淡水區興福寮66巷273號","121.486516666667","25.16197","6501000","淡水區"
"251001","559-UM","2017/10/16 18:39:36","新北市淡水區自強路415巷2號","121.465531666667","25.1342133333333","6501000","淡水區"
"251006","561-UM","2017/10/16 18:39:35","新北市淡水區崁頂50號","121.441933333333","25.1966633333333","6501000","淡水區"
"251011","650-BX","2017/10/16 18:39:38","新北市淡水區鄧公路210巷6號","121.454876666667","25.169045","6501000","淡水區"
"251002","672-BX","2017/10/16 18:39:36","新北市淡水區中正東路一段3巷14弄1號","121.450936666667","25.1641966666667","6501000","淡水區"
"251003","673-BX","2017/10/16 18:39:46","新北市淡水區北新路69巷26號","121.446585","25.1799816666667","6501000","淡水區"
"207003","550-UM","2017/10/16 18:39:49","新北市萬里區野柳里八斗60號","121.668876666667","25.203215","6502800","萬里區"
"207004","225-TW","2017/10/16 18:39:51","新北市萬里區萬里里獅頭路7號","121.691855","25.1782266666667","6502800","萬里區"
"252002","178-VK","2017/10/16 18:39:48","新北市三芝區民生街64巷13號","121.503645","25.25504","6502100","三芝區"
"252003","249-BX","2017/10/16 18:39:36","新北市三芝區後厝里北勢子54號","121.46725","25.2500633333333","6502100","三芝區"
"252001","292-VK","2017/10/16 18:39:44","新北市三芝區中興街二段68號","121.499801666667","25.2548333333333","6502100","三芝區"
"252006","AAC-283","2017/10/16 16:46:08","新北市三芝區埔坪里埔頭坑41號","121.504503333333","25.2644066666667","6502100","三芝區"
"237004","078-UY","2017/10/16 18:39:44","新北市三峽區金敏17號","121.39224","24.8739","6500900","三峽區"
"237007","153-BY","2017/10/16 18:39:49","新北市三峽區中正路三段112號","121.355406666667","24.9033966666667","6500900","三峽區"
"237009","210-TH","2017/10/16 18:39:47","新北市三峽區大同路240巷45弄20號","121.365266666667","24.92616","6500900","三峽區"
"237013","252-BX","2017/10/16 18:39:33","新北市三峽區永安街9巷12號","121.377155","24.9298633333333","6500900","三峽區"
"237012","275-BY","2017/10/16 18:39:48","新北市三峽區三樹路300號","121.380728333333","24.9438733333333","6500900","三峽區"
"237008","302-VK","2017/10/16 18:39:33","新北市三峽區白雞67號","121.396641666667","24.9111766666667","6500900","三峽區"
"237001","159-BY","2017/10/16 10:30:53","新北市三峽區中山路459巷163-3號","121.348883333333","24.93308","6500900","三峽區"
"237014","433-BY","2017/10/16 18:39:31","新北市三峽區復興路176-9號","121.369968333333","24.9387016666667","6500900","三峽區"
"237006","5529-G3","2017/10/16 18:39:30","新北市三峽區溪東路315巷84號","121.412056666667","24.9315583333333","6500900","三峽區"
"237011","572-TV","2017/10/16 12:58:55","新北市三峽區中山路459巷137號","121.349771666667","24.93372","6500900","三峽區"
"237015","649-BX","2017/10/16 18:39:45","新北市三峽區成福路287號","121.428681666667","24.923595","6500900","三峽區"
"237010","706-TV","2017/10/16 18:39:48","新北市三峽區復興路449號","121.36264","24.9385133333333","6500900","三峽區"
"237005","AKY-6261","2017/10/16 18:39:39","新北市三峽區清水街318號","121.372376666667","24.93434","6500900","三峽區"
"236069","105-UM","2017/10/16 18:39:45","新北市土城區永豐路157巷29弄6-1號","121.468295","24.9815433333333","6501300","土城區"
"236042","107-UM","2017/10/16 18:39:51","新北市土城區學成路108巷11號","121.450205","24.9896733333333","6501300","土城區"
"236078","166-UM","2017/10/16 18:39:46","新北市土城區中央路四段52巷40弄5-1號","121.419196666667","24.9607","6501300","土城區"
"236026","269-VK","2017/10/16 18:39:43","新北市土城區忠義路49-1號","121.44043","24.9690833333333","6501300","土城區"
"236014","270-VK","2017/10/16 18:39:42","新北市土城區清水路207巷3號","121.460061666667","24.9820216666667","6501300","土城區"
"236036","271-VK","2017/10/16 18:39:34","新北市土城區明德路一段313巷3弄1號","121.459716666667","24.9764433333333","6501300","土城區"
"236020","401-BY","2017/10/16 18:39:30","新北市土城區延吉街307-2號","121.466195","24.98448","6501300","土城區"
"236058","912-UM","2017/10/16 18:39:39","新北市土城區中央路四段208號","121.415828333333","24.9573533333333","6501300","土城區"
"236048","913-UM","2017/10/16 18:39:39","新北市土城區延吉街321號","121.465926666667","24.9840083333333","6501300","土城區"
"236062","915-UM","2017/10/16 18:39:44","新北市土城區延壽路55巷7弄4號","121.469623333333","24.9916516666667","6501300","土城區"
"236053","AAC-216","2017/10/16 18:39:49","新北市土城區中華路一段67號","121.445311666667","24.9879216666667","6501300","土城區"
"242050","751-BX","2017/10/16 18:39:37","新北市新莊區環河路636-1號","121.436975","25.010435","6500500","新莊區"
"242060","362-BY","2017/10/16 18:39:33","新北市新莊區新樹路255號","121.434828333333","25.0220666666667","6500500","新莊區"
"242046","172-VK","2017/10/16 18:39:43","新北市新莊區後港一路154號","121.429906666667","25.027465","6500500","新莊區"
"242056","349-TH","2017/10/16 18:39:30","新北市新莊區環河路636-7號","121.437478333333","25.0117316666667","6500500","新莊區"
"238015","755-BX","2017/10/16 18:39:45","新北市樹林區備內街148-2號","121.408438333333","24.9893066666667","6500700","樹林區"
"238023","601-UM","2017/10/16 18:39:30","新北市樹林區三福街114號","121.406461666667","25.016305","6500700","樹林區"
"238019","599-UM","2017/10/16 18:39:51","新北市樹林區中華路190-3號","121.410951666667","24.9807083333333","6500700","樹林區"
"238018","571-TV","2017/10/16 18:39:46","新北市樹林區樹新路98號","121.429433333333","24.99758","6500700","樹林區"
"238024","5061-A6","2017/10/16 18:39:39","新北市樹林區太順街79巷5號","121.417028333333","24.9781183333333","6500700","樹林區"
"238025","303-VK","2017/10/16 18:39:48","新北市樹林區中山路三段22號","121.395671666667","24.9729433333333","6500700","樹林區"
"238017","283-BY","2017/10/16 18:39:47","新北市板橋區金門街215巷88號","121.432411666667","24.983565","6500700","樹林區"
"238020","268-VK","2017/10/16 18:39:36","新北市樹林區三龍街40號","121.412303333333","25.0185933333333","6500700","樹林區"
"238026","172-UY","2017/10/16 18:39:45","新北市樹林區育德街78-1號","121.387573333333","24.9680566666667","6500700","樹林區"
"238016","169-UY","2017/10/16 18:39:33","新北市樹林區文化街23號","121.419243333333","24.9876616666667","6500700","樹林區"
"239007","AAC-297","2017/10/16 18:39:41","新北市鶯歌區中正一路461-2號","121.363216666667","24.9567716666667","6500800","鶯歌區"
"239008","527-UM","2017/10/16 18:39:38","新北市鶯歌區國際一路179號","121.336273333333","24.9764883333333","6500800","鶯歌區"
"239005","526-UM","2017/10/16 18:39:48","新北市鶯歌區鳳吉二街148號","121.328623333333","24.9750066666667","6500800","鶯歌區"
"239001","417-VK","2017/10/16 18:39:39","新北市鶯歌區二橋街43號","121.336791666667","24.9389333333333","6500800","鶯歌區"
"239003","360-BY","2017/10/16 18:39:47","新北市鶯歌區永和街249號","121.337001666667","24.972215","6500800","鶯歌區"
"239004","193-VK","2017/10/16 18:39:36","新北市鶯歌區尖山路247號","121.340568333333","24.943575","6500800","鶯歌區"
"221008","489-VK","2017/10/16 18:39:47","新北市汐止區康寧街901號","121.651388333333","25.0750566666667","6501100","汐止區"
"221036","130-UY","2017/10/16 18:39:40","新北市汐止區大同路三段95號","121.668031666667","25.0774933333333","6501100","汐止區"
"221015","131-UY","2017/10/16 18:39:44","新北市汐止區吉祥街26號","121.66783","25.0810283333333","6501100","汐止區"
"221010","269-BY","2017/10/16 18:39:40","新北市汐止區瑞松街10號","121.645443333333","25.10507","6501100","汐止區"
"221012","278-VK","2017/10/16 18:39:38","新北市汐止區長興街一段50號","121.670555","25.079305","6501100","汐止區"
"221023","279-VK","2017/10/16 18:39:31","新北市汐止區民族一街66號","121.632843333333","25.0710283333333","6501100","汐止區"
"221032","280-BY","2017/10/16 18:39:40","新北市汐止區福山街60巷13弄1號","121.618288333333","25.0462316666667","6501100","汐止區"
"221027","281-BY","2017/10/16 18:39:42","新北市汐止區和平街84號","121.661406666667","25.0707233333333","6501100","汐止區"
"221029","298-VK","2017/10/16 18:39:49","新北市汐止區樟樹一路150號","121.642326666667","25.0651966666667","6501100","汐止區"
"221021","299-VK","2017/10/16 18:39:48","新北市汐止區復興路53巷2號","121.65689","25.0626183333333","6501100","汐止區"
"221031","353-TW","2017/10/16 18:39:37","新北市汐止區光復街7巷26號","121.640013333333","25.0594983333333","6501100","汐止區"
"221035","622-UM","2017/10/16 18:39:31","新北市汐止區大同路二段199號","121.652555","25.0643816666667","6501100","汐止區"
"221025","623-UM","2017/10/16 18:39:47","新北市汐止區仁愛路119巷13號","121.662293333333","25.0640733333333","6501100","汐止區"
"221038","646-BX","2017/10/16 18:39:47","新北市汐止區秀峰路60號","121.659433333333","25.06558","6501100","汐止區"
"221033","647-BX","2017/10/16 18:39:36","新北市汐止區宜興街1號","121.620738333333","25.0411466666667","6501100","汐止區"
"221002","707-TV","2017/10/16 18:39:44","新北市汐止區中興路98號","121.634406666667","25.0624833333333","6501100","汐止區"
"221018","753-BX","2017/10/16 18:39:46","新北市汐止區茄苳路258號","121.671771666667","25.0683033333333","6501100","汐止區"
"220079","145-BY","2017/10/16 18:39:44","新北市板橋區館前西路162號","121.452873333333","25.0085683333333","6500100","板橋區"
"220080","200-UY","2017/10/16 18:39:32","新北市板橋區華東街1-8號","121.447895","24.9947966666667","6500100","板橋區"
"220082","610-BX","2017/10/16 18:39:45","新北市板橋區華東街1-8號","121.447658333333","24.994915","6500100","板橋區"
"220056","276-BY","2017/10/16 18:39:40","新北市板橋區華東街1-10號","121.448685","24.9948083333333","6500100","板橋區"
"220072","277-BY","2017/10/16 18:39:46","新北市板橋區板城路407號","121.447453333333","24.9951366666667","6500100","板橋區"
"220071","283-VK","2017/10/16 18:39:32","新北市板橋區華東街1-9號","121.448105","24.9949433333333","6500100","板橋區"
"220053","285-VK","2017/10/16 18:39:28","新北市板橋區民生路二段120號","121.470338333333","25.0199416666667","6500100","板橋區"
"220083","286-VK","2017/10/16 18:39:38","新北市板橋區華東街1-10號","121.44838","24.9950633333333","6500100","板橋區"
"220081","287-VK","2017/10/16 18:39:48","新北市板橋區板城路407號","121.447338333333","24.9950666666667","6500100","板橋區"
"220090","288-VK","2017/10/16 18:39:44","新北市板橋區民生路二段120號","121.470466666667","25.0196766666667","6500100","板橋區"
"220061","293-UM","2017/10/16 18:39:41","新北市板橋區民生路二段120號","121.470373333333","25.019745","6500100","板橋區"
"220084","296-UM","2017/10/16 18:39:40","新北市板橋區板城路407號","121.447471666667","24.9951783333333","6500100","板橋區"
"220062","303-R5","2017/10/16 18:39:46","新北市板橋區民生路二段120號","121.470416666667","25.0196866666667","6500100","板橋區"
"220098","317-R6","2017/10/16 18:39:36","新北市板橋區民生路二段120號","121.470346666667","25.019675","6500100","板橋區"
"220064","486-VK","2017/10/16 18:39:40","新北市板橋區民生路二段36-1號","121.47212","25.0167916666667","6500100","板橋區"
"220035","560-BX","2017/10/16 18:39:44","新北市板橋區南雅西路二段145巷10號","121.451601666667","25.0118966666667","6500100","板橋區"
"220075","568-UM","2017/10/16 18:39:43","新北市板橋區大觀路2段435-7號","121.447761666667","24.9954733333333","6500100","板橋區"
"220063","609-BX","2017/10/16 18:39:43","新北市板橋區民生路二段171號","121.469863333333","25.0201266666667","6500100","板橋區"
"220057","686-BX","2017/10/16 18:39:39","新北市板橋區華東街1-9號","121.448211666667","24.9948283333333","6500100","板橋區"
"220077","687-BX","2017/10/16 18:39:45","新北市板橋區大觀路二段435-1號","121.446596666667","24.9946333333333","6500100","板橋區"
"220054","741-BX","2017/10/16 18:39:36","新北市板橋區華東街1-9號","121.448135","24.9949183333333","6500100","板橋區"
"220055","827-TW","2017/10/16 18:39:43","新北市板橋區華東街1-9號","121.448171666667","24.9949133333333","6500100","板橋區"
"220067","829-TW","2017/10/16 18:39:32","新北市板橋區民生路二段120號","121.470365","25.01971","6500100","板橋區"
"220102","830-TW","2017/10/16 17:06:01","新北市板橋區民生路二段161巷3號","121.470226666667","25.019785","6500100","板橋區"
"220011","833-TW","2017/10/16 09:27:31","新北市板橋區民生路二段22號","121.47273","25.0166666666667","6500100","板橋區"
"220074","895-R6","2017/10/16 18:39:31","新北市板橋區華東街1-10號","121.448506666667","24.99494","6500100","板橋區"
"220073","985-R7","2017/10/16 18:39:40","新北市板橋區華東街1-10號","121.448591666667","24.9948783333333","6500100","板橋區"
"220070","AAC-253","2017/10/16 18:39:37","新北市板橋區華東街1-9號","121.448258333333","24.99486","6500100","板橋區"
