"lineid","car","time","location","longitude","latitude","cityid","cityname"
"234046","148-BY","2017/10/16 19:59:52","新北市永和區永亨路166號","121.526045","25.0036383333333","6500400","永和區"
"234013","149-BY","2017/10/16 19:59:47","新北市永和區保生路55號","121.504768333333","25.01063","6500400","永和區"
"234007","207-UY","2017/10/16 19:59:52","新北市永和區保生路22巷17號","121.507121666667","25.0081783333333","6500400","永和區"
"234081","298-R6","2017/10/16 19:59:38","新北市永和區林森路112巷12弄8號","121.52259","25.00444","6500400","永和區"
"234038","336-UY","2017/10/16 19:59:40","新北市永和區成功路二段163號","121.52661","24.9973183333333","6500400","永和區"
"234064","337-UY","2017/10/16 19:59:50","新北市永和區中正路412巷2弄11號","121.518488333333","25.0018833333333","6500400","永和區"
"234086","338-UY","2017/10/16 19:59:50","新北市永和區中正路513號","121.516861666667","25.007205","6500400","永和區"
"234070","552-UM","2017/10/16 19:59:38","新北市永和區國光路39-1號","121.519063333333","25.0082016666667","6500400","永和區"
"234054","553-UM","2017/10/16 19:59:42","新北市永和區環河東路一段122號","121.52072","25.0155716666667","6500400","永和區"
"234017","745-BX","2017/10/16 19:59:43","新北市永和區文化路9巷2號","121.515308333333","25.0149533333333","6500400","永和區"
"234030","746-BX","2017/10/16 19:59:43","新北市永和區民生路22巷3號","121.522198333333","24.9972716666667","6500400","永和區"
"234061","AAD-866","2017/10/16 19:59:51","新北市永和區中正路560號","121.517145","25.0059216666667","6500400","永和區"
"234042","862-TW","2017/10/16 19:59:52","新北市永和區中和路421巷12號","121.50881","25.0011683333333","6500400","永和區"
"234050","863-TW","2017/10/16 19:59:39","新北市永和區保安路119號","121.507655","25.013865","6500400","永和區"
"234011","9373-KE","2017/10/16 19:59:41","新北市永和區仁愛路352巷122弄3號","121.50044","25.00869","6500400","永和區"
"249005","172-UM","2017/10/16 19:59:51","新北市八里區楓林路1-60號","121.38476","25.1310033333333","6502300","八里區"
"249001","173-UM","2017/10/16 19:59:44","新北市八里區中華路二段310號","121.403801666667","25.148385","6502300","八里區"
"249004","303-UY","2017/10/16 19:51:48","新北市八里區中山路一段268巷50號","121.414843333333","25.1610233333333","6502300","八里區"
"249002","305-UY","2017/10/16 19:59:44","新北市八里區頂寮一街1號","121.452151666667","25.12415","6502300","八里區"
"249003","593-UM","2017/10/16 19:59:39","新北市八里區訊塘路7號","121.398066666667","25.1447683333333","6502300","八里區"
"248016","026-BX","2017/10/16 19:59:47","新北市五股區成泰路三段577巷80弄24號","121.449495","25.10456","6501500","五股區"
"248008","095-VK","2017/10/16 19:59:48","新北市五股區四維路30巷29號","121.468596666667","25.0714816666667","6501500","五股區"
"248018","225-UY","2017/10/16 19:59:47","新北市五股區登林路93-11號","121.418006666667","25.0741433333333","6501500","五股區"
"248012","247-BX","2017/10/16 19:59:36","新北市五股區民義路一段65號","121.435923333333","25.0849833333333","6501500","五股區"
"248014","261-SL","2017/10/16 19:59:48","新北市五股區五福路52巷11弄4號","121.434075","25.0899783333333","6501500","五股區"
"248010","272-BY","2017/10/16 19:59:37","新北市五股區成泰路一段42號","121.435263333333","25.0688516666667","6501500","五股區"
"248004","677-BX","2017/10/16 19:59:54","新北市五股區成泰路一段32巷62號","121.434951666667","25.066935","6501500","五股區"
"248002","678-BX","2017/10/16 19:59:46","新北市五股區成泰路三段436號","121.450848333333","25.0995183333333","6501500","五股區"
"234077","969-R7","2017/10/16 19:59:47","新北市永和區民有街23巷1號","121.516796666667","24.9964433333333","6500400","永和區"
"234074","AAC-211","2017/10/16 19:59:53","新北市永和區豫溪街156號","121.522886666667","25.0099483333333","6500400","永和區"
"234067","AAC-212","2017/10/16 19:59:37","新北市永和區中山路一段281巷3號","121.507318333333","25.006725","6500400","永和區"
"234003","AAC-295","2017/10/16 19:59:48","新北市永和區中正路748號","121.514896666667","25.0103066666667","6500400","永和區"
"243013","AAD-798","2017/10/16 19:59:45","新北市泰山區應化街7號","121.423881666667","25.0437466666667","6501600","泰山區"
"243009","297-R6","2017/10/16 19:59:51","新北市泰山區泰林路二段164巷30號","121.43448","25.0611566666667","6501600","泰山區"
"243015","380-SR","2017/10/16 19:59:46","新北市泰山區明志路二段214巷9號","121.426698333333","25.0487433333333","6501600","泰山區"
"243014","421-VK","2017/10/16 19:59:54","新北市泰山區明志路一段180號","121.433028333333","25.0623816666667","6501600","泰山區"
"243010","KEA-2215","2017/10/16 19:59:46","新北市泰山區中華街10巷1號","121.427911666667","25.052555","6501600","泰山區"
"243011","KEA-2216","2017/10/16 19:59:37","新北市泰山區明志路三段196巷50弄7號","121.421926666667","25.0404316666667","6501600","泰山區"
"243012","646-TV","2017/10/16 19:59:33","新北市泰山區福興街22號","121.434328333333","25.0575966666667","6501600","泰山區"
"243016","680-BX","2017/10/16 19:59:40","新北市泰山區明志路三段407巷4號","121.421568333333","25.0336216666667","6501600","泰山區"
"222003","436-BY","2017/10/16 19:59:36","新北市深坑區埔新街14號","121.6207","25.003955","6501800","深坑區"
"222002","659-BX","2017/10/16 19:59:40","新北市深坑區北深路二段81巷8弄2號","121.618283333333","25.0031083333333","6501800","深坑區"
"231041","002-UM","2017/10/16 19:59:51","新北市新店區中正路352號","121.535831666667","24.9755266666667","6500600","新店區"
"231059","046-UY","2017/10/16 19:59:41","新北市新店區安康路二段147號","121.51126","24.9599383333333","6500600","新店區"
"231061","047-UY","2017/10/16 19:59:45","新北市新店區安民街360號","121.516541666667","24.9760766666667","6500600","新店區"
"231060","106-UY","2017/10/16 19:59:39","新北市新店區安康路二段383號","121.494955","24.954645","6500600","新店區"
"231047","108-UY","2017/10/16 19:59:41","新北市新店區寶橋路160號","121.549075","24.9770583333333","6500600","新店區"
"231052","187-VK","2017/10/16 19:59:44","新北市新店區新烏路三段206號","121.550978333333","24.9016933333333","6500600","新店區"
"231050","KEA-2219","2017/10/16 19:59:37","新北市新店區北宜路一段145號","121.541318333333","24.952935","6500600","新店區"
"231057","256-BX","2017/10/16 19:59:47","新北市新店區花園二路一段11號","121.555508333333","24.9324783333333","6500600","新店區"
"231054","AAD-862","2017/10/16 19:59:48","新北市新店區光明街137號","121.539485","24.9620166666667","6500600","新店區"
"231056","4716-K9","2017/10/16 19:59:40","新北市新店區中央路15號","121.533285","24.9783466666667","6500600","新店區"
"231067","4772-VM","2017/10/16 19:59:34","新北市新店區秀山路11巷24號","121.53151","24.95867","6500600","新店區"
"231065","513-UM","2017/10/16 19:59:36","新北市新店區安祥路109巷7號","121.475473333333","24.9588716666667","6500600","新店區"
"231064","515-UM","2017/10/16 19:59:53","新北市新店區光華街7巷2號","121.5176","24.96905","6500600","新店區"
"231040","619-UM","2017/10/16 19:59:50","新北市新店區中正路62號","121.54426","24.9700583333333","6500600","新店區"
"231042","641-BX","2017/10/16 19:59:35","新北市新店區中正路7號","121.545831666667","24.9692466666667","6500600","新店區"
"231063","645-TV","2017/10/16 19:59:53","新北市新店區黎明路11號","121.502056666667","24.9499783333333","6500600","新店區"
"231068","718-UY","2017/10/16 19:59:44","新北市新店區安華路28-1號","121.519486666667","24.9608533333333","6500600","新店區"
"231049","719-UM","2017/10/16 19:59:42","新北市新店區明德路73號","121.541398333333","24.9778783333333","6500600","新店區"
"231051","719-UY","2017/10/16 19:59:45","新北市新店區中央二街23號","121.528516666667","24.97352","6500600","新店區"
"231062","720-UM","2017/10/16 19:59:56","新北市新店區華城路10巷1-3號","121.528818333333","24.9578333333333","6500600","新店區"
"231044","897-TW","2017/10/16 19:59:38","新北市新店區中正路602號","121.53407","24.988025","6500600","新店區"
"231045","898-TW","2017/10/16 19:59:46","新北市新店區北宜路二段148號","121.557518333333","24.9538883333333","6500600","新店區"
"231043","899-TW","2017/10/16 19:59:38","新北市新店區中正路263-2號","121.538448333333","24.9738283333333","6500600","新店區"
"231066","AKT-0513","2017/10/16 19:59:54","新北市新店區安興路20號","121.515043333333","24.9660066666667","6500600","新店區"
"241011","013-R5","2017/10/16 19:59:46","新北市三重區三和路二段139號","121.498408333333","25.0693533333333","6500200","三重區"
"241028","022-UY","2017/10/16 19:59:49","新北市三重區中正南路32號","121.493758333333","25.0602666666667","6500200","三重區"
"241008","059-VK","2017/10/16 19:59:41","新北市三重區永福街181號","121.479043333333","25.0750266666667","6500200","三重區"
"241009","060-VK","2017/10/16 19:59:52","新北市三重區三和路四段396巷18號","121.480493333333","25.0788683333333","6500200","三重區"
"241031","061-VK","2017/10/16 19:59:52","新北市三重區重新路四段144巷7號","121.486978333333","25.0555383333333","6500200","三重區"
"241015","062-VK","2017/10/16 19:59:48","新北市三重區三和路二段27號","121.501096666667","25.0670133333333","6500200","三重區"
"241017","063-VK","2017/10/16 19:59:41","新北市三重區自強路一段215號","121.491276666667","25.0684883333333","6500200","三重區"
"241026","066-VK","2017/10/16 19:59:51","新北市三重區仁慈街2-1號","121.501496666667","25.0631133333333","6500200","三重區"
"241002","090-VK","2017/10/16 19:59:39","新北市三重區五華街7巷32號","121.496516666667","25.080755","6500200","三重區"
"241003","091-VK","2017/10/16 19:59:54","新北市三重區仁愛街445巷53號","121.49127","25.0831616666667","6500200","三重區"
"241005","262-UM","2017/10/16 19:59:51","新北市三重區溪尾街326號","121.48803","25.0847566666667","6500200","三重區"
"241016","266-UM","2017/10/16 19:59:36","新北市三重區正義北路48巷17號","121.496701666667","25.063725","6500200","三重區"
"241022","267-UM","2017/10/16 19:59:37","新北市三重區過圳街31巷2號","121.489016666667","25.0606416666667","6500200","三重區"
"241018","268-UM","2017/10/16 19:59:45","新北市三重區雙園街64號","121.495775","25.0676966666667","6500200","三重區"
"241025","271-UM","2017/10/16 19:59:48","新北市三重區頂崁街210巷16號","121.47652","25.0677733333333","6500200","三重區"
"241007","398-BY","2017/10/16 19:59:52","新北市三重區慈愛街49號","121.486088333333","25.0791566666667","6500200","三重區"
"241024","KEA-2210","2017/10/16 19:59:37","新北市三重區力行路一段277號","121.482153333333","25.07148","6500200","三重區"
"241020","413-TH","2017/10/16 19:59:46","新北市三重區忠孝路一段101號","121.489303333333","25.072105","6500200","三重區"
"241004","475-VK","2017/10/16 19:59:52","新北市三重區仁愛街425巷94號","121.492276666667","25.0827516666667","6500200","三重區"
"241019","478-VK","2017/10/16 19:59:37","新北市三重區大智街186號","121.491005","25.0702916666667","6500200","三重區"
"241030","480-VK","2017/10/16 19:59:38","新北市三重區成功路187號","121.485691666667","25.0529633333333","6500200","三重區"
"241014","543-UM","2017/10/16 19:59:44","新北市三重區三和路二段89號","121.499588333333","25.0683566666667","6500200","三重區"
"241023","545-UM","2017/10/16 19:59:37","新北市三重區頂崁街172號","121.477626666667","25.06598","6500200","三重區"
"241001","547-UM","2017/10/16 19:59:45","新北市三重區福隆路40號","121.492231666667","25.0783266666667","6500200","三重區"
"241006","AAD-863","2017/10/16 19:59:50","新北市三重區力行路二段33巷12號","121.482538333333","25.0737866666667","6500200","三重區"
"241035","743-BX","2017/10/16 19:59:46","新北市三重區重新路二段13巷5號","121.498336666667","25.0628616666667","6500200","三重區"
"241013","887-TS","2017/10/16 19:59:54","新北市三重區三和路三段109-5號","121.493418333333","25.0728666666667","6500200","三重區"
"241012","941-UM","2017/10/16 19:59:37","新北市三重區仁厚街78號","121.500773333333","25.0767766666667","6500200","三重區"
"241029","942-UM","2017/10/16 19:59:47","新北市三重區重安街6號","121.49018","25.05831","6500200","三重區"
"241033","AAC-255","2017/10/16 19:59:34","新北市三重區中興北街14號","121.469485","25.047005","6500200","三重區"
"235066","003-UY","2017/10/16 19:59:48","新北市中和區保平路231號","121.508021666667","25.00414","6500300","中和區"
"235056","096-UM","2017/10/16 19:59:40","新北市中和區中山路三段170巷8弄17號","121.472995","25.0076966666667","6500300","中和區"
"235039","097-UM","2017/10/16 19:59:39","新北市中和區景平路276-1號","121.513885","24.99245","6500300","中和區"
"235065","098-UM","2017/10/16 19:59:40","新北市中和區福祥路98號","121.499065","25.0060216666667","6500300","中和區"
"235040","150-BY","2017/10/16 19:59:34","新北市中和區保健路10巷21弄3號","121.507836666667","24.99697","6500300","中和區"
"235058","151-BY","2017/10/16 19:59:41","新北市中和區員山路150巷2弄61號","121.481683333333","24.9974033333333","6500300","中和區"
"235055","183-VK","2017/10/16 19:59:54","新北市中和區民生街35巷1弄1號","121.470363333333","25.0051783333333","6500300","中和區"
"235038","185-VK","2017/10/16 19:59:39","新北市中和區立人街69巷3號","121.519983333333","24.993865","6500300","中和區"
"235049","186-VK","2017/10/16 19:59:38","新北市中和區中興街41號","121.500838333333","24.9942383333333","6500300","中和區"
"235067","255-BX","2017/10/16 19:59:51","新北市中和區新生街235號","121.483863333333","24.9990433333333","6500300","中和區"
"235044","293-VK","2017/10/16 19:59:41","新北市中和區南山路273號","121.503955","24.9924983333333","6500300","中和區"
"235072","301-VK","2017/10/16 19:59:34","新北市新店區車子路18-1號","121.505873333333","24.9546016666667","6500300","中和區"
"235043","352-BY","2017/10/16 19:59:40","新北市中和區興南路二段159巷7號","121.505298333333","24.9831566666667","6500300","中和區"
"235051","376-QA","2017/10/16 19:59:48","新北市中和區復興路329號","121.500721666667","24.99024","6500300","中和區"
"235068","377-QA","2017/10/16 19:59:48","新北市中和區中山路二段250巷16號","121.497398333333","25.0030733333333","6500300","中和區"
"235025","378-QA","2017/10/16 19:59:43","新北市中和區民樂路12號","121.48213","25.00116","6500300","中和區"
"235050","4979-A6","2017/10/16 19:59:55","新北市中和區景平路155巷2弄1號","121.513308333333","24.9917583333333","6500300","中和區"
"235069","4980-A6","2017/10/16 19:59:52","新北市中和區南山路37巷3弄2號","121.502881666667","24.9991783333333","6500300","中和區"
"235070","558-UM","2017/10/16 19:59:46","新北市中和區連勝街59號","121.497586666667","24.9970166666667","6500300","中和區"
"235054","640-BX","2017/10/16 19:59:51","新北市中和區莒光路157號","121.47266","25.00081","6500300","中和區"
"235060","647-TV","2017/10/16 19:59:44","新北市中和區新生街29號","121.483273333333","25.00374","6500300","中和區"
"235047","732-UM","2017/10/16 19:59:42","新北市中和區和平街23號","121.508041666667","24.9908266666667","6500300","中和區"
"235046","733-UM","2017/10/16 19:59:34","新北市中和區興南路一段93巷77號","121.510496666667","24.9865083333333","6500300","中和區"
"235062","800-TS","2017/10/16 19:59:52","新北市土城區永豐路173-2號","121.469951666667","24.9810366666667","6500300","中和區"
"235057","801-TS","2017/10/16 19:59:45","新北市中和區員山路106號","121.481041666667","24.9955233333333","6500300","中和區"
"235041","802-TS","2017/10/16 19:59:53","新北市中和區永貞路227號","121.513463333333","25.0036983333333","6500300","中和區"
"235052","805-TS","2017/10/16 19:59:50","新北市中和區華新街192巷22弄19號","121.506823333333","24.9833233333333","6500300","中和區"
"235048","896-TW","2017/10/16 19:59:35","新北市中和區景新街461號","121.513318333333","24.9882316666667","6500300","中和區"
"235053","900-TW","2017/10/16 19:59:44","新北市中和區國光街171巷6號","121.467601666667","25.001325","6500300","中和區"
"235037","AAC-213","2017/10/16 19:59:38","新北市中和區自立路159號","121.522761666667","24.9926933333333","6500300","中和區"
"235059","AAC-215","2017/10/16 19:59:47","新北市中和區圓通路355號","121.491398333333","24.9900166666667","6500300","中和區"
"220068","013-TV","2017/10/16 19:59:56","新北市板橋區中山路二段318巷20弄27號","121.481135","25.019295","6500100","板橋區"
"220065","072-UY","2017/10/16 19:59:34","新北市板橋區民族路203號","121.469076666667","25.0073683333333","6500100","板橋區"
"220086","073-UY","2017/10/16 19:59:47","新北市板橋區南雅西路二段7巷25號","121.451873333333","25.0094916666667","6500100","板橋區"
"220106","075-UY","2017/10/16 19:59:46","新北市板橋區民治街96巷24號","121.478513333333","25.0322266666667","6500100","板橋區"
"220069","AAD-861","2017/10/16 19:59:51","新北市板橋區南雅南路二段11-24號","121.453948333333","25.0019583333333","6500100","板橋區"
"220096","120-SR","2017/10/16 19:59:45","新北市板橋區文化路二段124巷34弄2號","121.471258333333","25.0253","6500100","板橋區"
"247020","500-BY","2017/10/16 19:59:52","新北市蘆洲區民義街66號","121.472928333333","25.0897716666667","6501400","蘆洲區"
"247010","339-TH","2017/10/16 19:59:48","新北市蘆洲區集賢路227-1號","121.482286666667","25.086125","6501400","蘆洲區"
"247002","337-TH","2017/10/16 19:59:50","新北市蘆洲區長安街274巷5號","121.457736666667","25.0872833333333","6501400","蘆洲區"
"247004","336-TH","2017/10/16 19:59:46","新北市蘆洲區永安南路二段328巷17弄16號","121.45572","25.0839583333333","6501400","蘆洲區"
"247016","057-VK","2017/10/16 19:59:45","新北市蘆洲區中正路101號","121.469923333333","25.0840233333333","6501400","蘆洲區"
"247006","056-VK","2017/10/16 19:59:34","新北市蘆洲區九芎街88號","121.46586","25.07983","6501400","蘆洲區"
"247008","053-VK","2017/10/16 19:59:38","新北市蘆洲區中山一路95巷20弄38號","121.476805","25.0805916666667","6501400","蘆洲區"
"247014","007-UY","2017/10/16 19:59:37","新北市蘆洲區成功路151號","121.47212","25.0826033333333","6501400","蘆洲區"
"247024","002-UY","2017/10/16 19:59:56","新北市蘆洲區光榮路120巷22弄22號","121.464791666667","25.0872616666667","6501400","蘆洲區"
"228003","097-TW","2017/10/16 19:59:35","新北市貢寮區仁理村仁和路222號","121.923911666667","25.05351","6502600","貢寮區"
"227001","642-TC","2017/10/16 19:59:35","新北市雙溪區雙溪里長安街16號","121.865","25.03472","6502500","雙溪區"
"227008","400-TW","2017/10/16 19:59:53","新北市雙溪區新基里中華路86號","121.865931666667","25.038615","6502500","雙溪區"
"222001","KEA-2212","2017/10/16 19:59:49","新北市深坑區北深路三段164號","121.602291666667","25.0033266666667","6501800","深坑區"
"208002","742-BX","2017/10/16 19:59:46","新北市金山區環金路19號","121.640753333333","25.2176166666667","6502700","金山區"
"208003","665-BX","2017/10/16 19:59:43","新北市金山區海興路188號","121.63322","25.24055","6502700","金山區"
"251009","008-UM","2017/10/16 19:59:52","新北市淡水區英專路21巷12-3號","121.444921666667","25.16978","6501000","淡水區"
"251004","009-UM","2017/10/16 19:59:54","新北市淡水區民族路50巷11號","121.461318333333","25.1357866666667","6501000","淡水區"
"251008","181-VK","2017/10/16 19:59:51","新北市淡水區淡海路70號","121.42312","25.1809883333333","6501000","淡水區"
"251013","182-VK","2017/10/16 19:59:43","新北市淡水區淡金路三段280-1號","121.4488","25.2070066666667","6501000","淡水區"
"251010","413-VK","2017/10/16 19:59:36","新北市淡水區崁頂115號","121.432656666667","25.204645","6501000","淡水區"
"251012","441-VK","2017/10/16 19:59:45","新北市淡水區下圭柔山70-7號","121.447675","25.2054333333333","6501000","淡水區"
"251015","442-VK","2017/10/16 19:59:41","新北市淡水區埤島80-1號","121.449526666667","25.1896483333333","6501000","淡水區"
"251005","443-VK","2017/10/16 19:59:38","新北市淡水區學府路136巷13號","121.451123333333","25.1728716666667","6501000","淡水區"
"251001","559-UM","2017/10/16 19:59:56","新北市淡水區水源街二段189-4號","121.456435","25.176685","6501000","淡水區"
"251006","561-UM","2017/10/16 19:59:55","新北市淡水區水碓街75號","121.444965","25.1774733333333","6501000","淡水區"
"251011","650-BX","2017/10/16 19:59:38","新北市淡水區崁頂55-3號","121.442335","25.1966766666667","6501000","淡水區"
"207003","550-UM","2017/10/16 19:59:48","新北市萬里區大鵬里萬里加投41-2號","121.637773333333","25.2072433333333","6502800","萬里區"
"207004","225-TW","2017/10/16 19:59:54","新北市萬里區北基里忠二街35號","121.685628333333","25.1757383333333","6502800","萬里區"
"252002","178-VK","2017/10/16 19:59:48","新北市三芝區忠孝街116-3號","121.505506666667","25.2575266666667","6502100","三芝區"
"252001","292-VK","2017/10/16 19:59:44","新北市三芝區公正街9號","121.499748333333","25.257525","6502100","三芝區"
"252006","AAC-283","2017/10/16 16:46:08","新北市三芝區埔坪里埔頭坑41號","121.504503333333","25.2644066666667","6502100","三芝區"
"237004","078-UY","2017/10/16 19:59:44","新北市三峽區添福2-1號","121.370441666667","24.9095316666667","6500900","三峽區"
"237007","153-BY","2017/10/16 19:59:49","新北市三峽區二鬮路136巷20弄2號","121.357428333333","24.9099","6500900","三峽區"
"237009","210-TH","2017/10/16 19:59:47","新北市三峽區民族街78巷2弄4號","121.36859","24.9299166666667","6500900","三峽區"
"237013","252-BX","2017/10/16 19:59:33","新北市三峽區介壽路二段104號","121.39294","24.93563","6500900","三峽區"
"237012","275-BY","2017/10/16 19:59:48","新北市三峽區中華路3巷6-1號","121.37497","24.9311816666667","6500900","三峽區"
"237008","302-VK","2017/10/16 19:59:53","新北市三峽區大同路203號","121.370818333333","24.9270633333333","6500900","三峽區"
"237001","159-BY","2017/10/16 10:30:53","新北市三峽區中山路459巷163-3號","121.348883333333","24.93308","6500900","三峽區"
"237014","433-BY","2017/10/16 19:59:51","新北市三峽區中正路一段231號","121.371958333333","24.926815","6500900","三峽區"
"237006","5529-G3","2017/10/16 19:59:50","新北市三峽區中正路二段168號","121.365976666667","24.9157666666667","6500900","三峽區"
"237015","649-BX","2017/10/16 19:59:45","新北市三峽區介壽路二段138巷1弄21號","121.396546666667","24.93356","6500900","三峽區"
"237005","AKY-6261","2017/10/16 19:59:39","新北市三峽區民生街1巷7號","121.379731666667","24.93574","6500900","三峽區"
"236069","105-UM","2017/10/16 19:59:45","新北市土城區忠義路77-1號","121.442803333333","24.9652533333333","6501300","土城區"
"236042","107-UM","2017/10/16 19:59:51","新北市土城區學府路一段145號","121.453616666667","24.98607","6501300","土城區"
"236078","166-UM","2017/10/16 19:59:46","新北市土城區中央路四段466號","121.410168333333","24.9507416666667","6501300","土城區"
"236030","253-BX","2017/10/16 19:59:54","新北市土城區中央路一段248-3號","121.444283333333","24.9847133333333","6501300","土城區"
"236026","269-VK","2017/10/16 19:59:43","新北市土城區中央路二段98號","121.442201666667","24.9783066666667","6501300","土城區"
"236014","270-VK","2017/10/16 19:59:42","新北市土城區廣福街123號","121.456208333333","24.9928866666667","6501300","土城區"
"236036","271-VK","2017/10/16 19:59:47","新北市土城區國際路116號","121.467516666667","24.975655","6501300","土城區"
"236020","401-BY","2017/10/16 19:59:50","新北市土城區延吉街165巷5號","121.470388333333","24.98536","6501300","土城區"
"236058","912-UM","2017/10/16 19:59:39","新北市土城區中央路一段149號","121.446546666667","24.9879183333333","6501300","土城區"
"236048","913-UM","2017/10/16 19:50:32","新北市土城區青雲路319號","121.458853333333","24.978695","6501300","土城區"
"236062","915-UM","2017/10/16 19:59:52","新北市土城區延和路62巷6弄1號","121.465996666667","24.9886533333333","6501300","土城區"
"236053","AAC-216","2017/10/16 19:59:49","新北市土城區金城路三段155號","121.468755","24.9883633333333","6501300","土城區"
"242031","AAC-296","2017/10/16 19:59:39","新北市新莊區公園一路39號","121.443233333333","25.03561","6500500","新莊區"
"242029","986-R7","2017/10/16 19:59:37","新北市新莊區中平路298號","121.44476","25.0516633333333","6500500","新莊區"
"242025","615-BX","2017/10/16 19:59:44","新北市新莊區五工二路86巷43號","121.460783333333","25.0675733333333","6500500","新莊區"
"242023","613-BX","2017/10/16 19:59:54","新北市新莊區化成路414號","121.466011666667","25.05087","6500500","新莊區"
"242027","612-BX","2017/10/16 19:59:39","新北市新莊區立信一街75號","121.442965","25.0499933333333","6500500","新莊區"
"242039","566-BX","2017/10/16 19:59:41","新北市新莊區民安路285-3號","121.429088333333","25.02245","6500500","新莊區"
"242044","497-BY","2017/10/16 19:59:53","新北市新莊區中正路756號","121.412381666667","25.022195","6500500","新莊區"
"242002","442-UM","2017/10/16 19:59:37","新北市新莊區中正路170號","121.45101","25.0359983333333","6500500","新莊區"
"242048","441-UM","2017/10/16 19:59:38","新北市新莊區民安路181巷2弄12號","121.426451666667","25.0226216666667","6500500","新莊區"
"242053","440-UM","2017/10/16 19:59:53","新北市新莊區西盛街416巷2號","121.427231666667","25.0122283333333","6500500","新莊區"
"242060","362-BY","2017/10/16 19:59:39","新北市新莊區瓊泰路3號","121.444865","25.0285683333333","6500500","新莊區"
"242058","353-BY","2017/10/16 19:59:40","新北市新莊區八德街107號","121.424158333333","25.0210433333333","6500500","新莊區"
"242007","132-UY","2017/10/16 19:59:52","新北市新莊區思源路539號","121.459478333333","25.0573666666667","6500500","新莊區"
"242036","133-UY","2017/10/16 19:59:39","新北市新莊區建安街41巷5號","121.429216666667","25.0252566666667","6500500","新莊區"
"242021","135-UY","2017/10/16 19:59:54","新北市新莊區建中街48巷10弄12號","121.448628333333","25.0383933333333","6500500","新莊區"
"242009","173-VK","2017/10/16 19:59:39","新北市新莊區幸福路616號","121.451498333333","25.0493466666667","6500500","新莊區"
"242015","175-VK","2017/10/16 19:59:52","新北市新莊區泰順街33巷2號","121.446178333333","25.0425333333333","6500500","新莊區"
"242013","346-TH","2017/10/16 19:59:51","新北市新莊區幸福路672號","121.450951666667","25.04947","6500500","新莊區"
"242019","348-TH","2017/10/16 19:59:37","新北市新莊區民生街15巷2弄2號","121.455771666667","25.0422766666667","6500500","新莊區"
"242056","349-TH","2017/10/16 19:59:49","新北市新莊區新豐街20巷13號","121.447591666667","25.0343083333333","6500500","新莊區"
"242017","350-TH","2017/10/16 19:59:54","新北市新莊區中華路二段51號","121.45279","25.046555","6500500","新莊區"
"242011","351-TH","2017/10/16 19:59:42","新北市新莊區中港路531巷118號","121.449976666667","25.0517033333333","6500500","新莊區"
"238015","755-BX","2017/10/16 19:59:46","新北市樹林區中山路三段160-1號","121.389358333333","24.9702516666667","6500700","樹林區"
"238021","KEA-2217","2017/10/16 19:59:48","新北市樹林區佳園路三段117號","121.38646","24.9506183333333","6500700","樹林區"
"238025","303-VK","2017/10/16 19:58:48","新北市樹林區中山路三段214號","121.380068333333","24.9678533333333","6500700","樹林區"
"238020","268-VK","2017/10/16 19:59:36","新北市樹林區中山路三段214號","121.380075","24.96783","6500700","樹林區"
"239006","891-R6","2017/10/16 19:59:53","新北市鶯歌區中正二路8號","121.351738333333","24.95196","6500800","鶯歌區"
"221008","489-VK","2017/10/16 19:59:47","台北市內湖區康樂街118號","121.619095","25.0712883333333","6501100","汐止區"
"221036","130-UY","2017/10/16 19:59:40","新北市汐止區忠孝東路258巷11弄5號","121.663891666667","25.06743","6501100","汐止區"
"221015","131-UY","2017/10/16 19:59:44","新北市汐止區橋東街61號","121.665485","25.0749883333333","6501100","汐止區"
"221010","269-BY","2017/10/16 19:59:40","新北市汐止區連峰街270號","121.644316666667","25.08152","6501100","汐止區"
"221012","278-VK","2017/10/16 19:59:38","新北市汐止區大同路三段331號","121.674878333333","25.0738116666667","6501100","汐止區"
"221023","279-VK","2017/10/16 19:59:51","新北市汐止區中興路250號","121.629016666667","25.068725","6501100","汐止區"
"221032","280-BY","2017/10/16 19:59:40","新北市汐止區橫科路18巷33弄1號","121.617483333333","25.0497833333333","6501100","汐止區"
"221027","281-BY","2017/10/16 19:59:42","新北市汐止區中正路49號","121.661845","25.0699683333333","6501100","汐止區"
"221029","298-VK","2017/10/16 19:59:49","新北市汐止區樟樹一路137巷26號","121.641025","25.065985","6501100","汐止區"
"221021","299-VK","2017/10/16 19:59:48","新北市汐止區水源路一段143號","121.655965","25.0621166666667","6501100","汐止區"
"221031","353-TW","2017/10/16 19:59:52","新北市汐止區福德一路176巷14號","121.635268333333","25.0666216666667","6501100","汐止區"
"221035","622-UM","2017/10/16 19:59:51","新北市汐止區長江街39巷1號","121.65552","25.071435","6501100","汐止區"
"221025","623-UM","2017/10/16 19:59:47","新北市汐止區秀峰路109巷26弄7號","121.661113333333","25.0634533333333","6501100","汐止區"
"221038","646-BX","2017/10/16 19:59:47","新北市汐止區忠孝東路431號","121.665966666667","25.0718716666667","6501100","汐止區"
"221033","647-BX","2017/10/16 19:59:55","新北市汐止區東勢街190巷3號","121.633876666667","25.041655","6501100","汐止區"
"221018","753-BX","2017/10/16 19:59:38","新北市汐止區茄苳路266號","121.67198","25.06817","6501100","汐止區"
"220079","145-BY","2017/10/16 19:59:44","新北市板橋區南雅西路二段145巷4號","121.451758333333","25.0117716666667","6500100","板橋區"
"220080","200-UY","2017/10/16 19:59:52","新北市板橋區大觀路二段163巷23號","121.44673","25.000035","6500100","板橋區"
"220082","610-BX","2017/10/16 19:59:45","新北市板橋區存德街23-1號","121.430331666667","24.9916666666667","6500100","板橋區"
"220101","245-BX","2017/10/16 19:59:42","新北市板橋區莒光路196巷28號","121.473048333333","25.0225766666667","6500100","板橋區"
"220072","277-BY","2017/10/16 19:59:46","新北市板橋區金門街127巷12號","121.433438333333","24.9912283333333","6500100","板橋區"
"220094","280-UM","2017/10/16 19:59:54","新北市板橋區新海路413號","121.45837","25.0272066666667","6500100","板橋區"
"220071","283-VK","2017/10/16 19:59:52","新北市板橋區五權街30巷14號","121.464276666667","24.9933","6500100","板橋區"
"220053","285-VK","2017/10/16 19:59:48","新北市板橋區中山路二段125號","121.475145","25.0163966666667","6500100","板橋區"
"220083","286-VK","2017/10/16 19:59:38","新北市板橋區僑中二街12巷6號","121.446561666667","25.0107116666667","6500100","板橋區"
"220081","287-VK","2017/10/16 19:37:08","新北市板橋區大觀路一段75巷37號","121.448896666667","25.0040783333333","6500100","板橋區"
"220090","288-VK","2017/10/16 19:59:44","新北市板橋區綠堤街33-4號","121.455738333333","25.0264583333333","6500100","板橋區"
"220061","293-UM","2017/10/16 19:59:52","新北市板橋區觀光街1巷5號","121.472096666667","25.0153716666667","6500100","板橋區"
"220084","296-UM","2017/10/16 19:59:46","新北市板橋區溪崑二街102號","121.426578333333","24.98875","6500100","板橋區"
"220062","303-R5","2017/10/16 19:59:35","新北市板橋區中山路二段416巷55號","121.483051666667","25.0189616666667","6500100","板橋區"
"220092","307-R5","2017/10/16 19:59:51","新北市板橋區漢生西路89巷5弄5號","121.460833333333","25.019605","6500100","板橋區"
"220098","317-R6","2017/10/16 19:59:36","新北市板橋區新海路396號","121.458816666667","25.0265533333333","6500100","板橋區"
"220064","486-VK","2017/10/16 19:59:40","新北市板橋區實踐路47號","121.463688333333","25.00679","6500100","板橋區"
"220089","487-VK","2017/10/16 19:59:43","新北市板橋區龍泉街55巷36號","121.457858333333","25.024845","6500100","板橋區"
"242034","280-VK","2017/10/16 19:59:37","新北市新莊區建中街84號","121.447153333333","25.0367283333333","6500500","新莊區"
"220088","491-VK","2017/10/16 19:59:46","新北市板橋區大同街71號","121.479458333333","25.0280883333333","6500100","板橋區"
"220035","560-BX","2017/10/16 19:59:43","新北市板橋區新生街29巷2弄1號","121.456531666667","25.02148","6500100","板橋區"
"220103","561-BX","2017/10/16 19:59:36","新北市板橋區陽明街29巷1弄4號","121.464913333333","25.0214566666667","6500100","板橋區"
"220075","568-UM","2017/10/16 19:59:52","新北市板橋區金華街10巷50號","121.457028333333","25.0200633333333","6500100","板橋區"
"220063","609-BX","2017/10/16 19:59:43","新北市板橋區三民路一段185號","121.479168333333","25.019415","6500100","板橋區"
"220091","637-BX","2017/10/16 19:59:43","新北市板橋區懷德街174巷18弄2-2號","121.47897","25.0295916666667","6500100","板橋區"
"220057","686-BX","2017/10/16 19:59:39","新北市板橋區四川路二段59號","121.453585","24.9950833333333","6500100","板橋區"
"220093","689-BX","2017/10/16 19:59:41","新北市板橋區文化路二段620號","121.478353333333","25.0357","6500100","板橋區"
"220054","741-BX","2017/10/16 19:59:45","新北市板橋區實踐路93巷50號","121.466001666667","25.0051083333333","6500100","板橋區"
"220055","827-TW","2017/10/16 19:59:43","新北市板橋區仁愛路64號","121.459886666667","24.999425","6500100","板橋區"
"220067","829-TW","2017/10/16 19:59:51","新北市板橋區漢生東路193巷69弄1號","121.472311666667","25.012165","6500100","板橋區"
"220102","830-TW","2017/10/16 19:59:46","新北市板橋區文聖街59號","121.476751666667","25.0311783333333","6500100","板橋區"
"220011","833-TW","2017/10/16 09:27:31","新北市板橋區民生路二段22號","121.47273","25.0166666666667","6500100","板橋區"
"220074","895-R6","2017/10/16 19:59:51","新北市板橋區縣民大道一段193號","121.458796666667","25.0083866666667","6500100","板橋區"
"220073","985-R7","2017/10/16 19:59:53","新北市板橋區南雅西路二段128號","121.452","25.0125933333333","6500100","板橋區"
"220097","AAC-210","2017/10/16 19:59:53","新北市板橋區光正街45巷24號","121.461668333333","25.016415","6500100","板橋區"
"220070","AAC-253","2017/10/16 19:59:37","新北市板橋區四川路一段114號","121.459816666667","25.00443","6500100","板橋區"
