"lineid","car","time","location","longitude","latitude","cityid","cityname"
"244019","403-UM","2017/10/16 20:56:25","新北市林口區粉寮路二段160巷28號","121.405135","25.0907933333333","6501700","林口區"
"231059","046-UY","2017/10/16 21:19:41","新北市新店區安華路28-1號","121.519698333333","24.9608266666667","6500600","新店區"
"231061","047-UY","2017/10/16 21:19:45","新北市新店區安和路三段31號","121.517601666667","24.9815983333333","6500600","新店區"
"231060","106-UY","2017/10/16 21:19:39","新北市新店區薏仁坑路自強巷6號","121.496638333333","24.9584483333333","6500600","新店區"
"231050","KEA-2219","2017/10/16 21:19:37","新北市新店區三民路29巷1-1號","121.537866666667","24.9700166666667","6500600","新店區"
"231054","AAD-862","2017/10/16 21:19:48","新北市新店區大新街7巷1號","121.5432","24.9686583333333","6500600","新店區"
"231067","4772-VM","2017/10/16 21:19:34","新北市新店區安康路二段318-1號","121.505025","24.9580783333333","6500600","新店區"
"231065","513-UM","2017/10/16 21:19:36","新北市新店區薏仁坑路自強巷6號","121.497291666667","24.9588383333333","6500600","新店區"
"231040","619-UM","2017/10/16 21:19:52","新北市新店區光明街199號","121.539938333333","24.9635683333333","6500600","新店區"
"231063","645-TV","2017/10/16 21:19:41","新北市新店區玫瑰路57巷17號","121.496368333333","24.9462983333333","6500600","新店區"
"231051","719-UY","2017/10/16 21:19:32","新北市新店區中正路680巷33弄1號","121.53509","24.9893266666667","6500600","新店區"
"241011","013-R5","2017/10/16 21:19:46","新北市三重區龍濱路120-6號","121.501843333333","25.071335","6500200","三重區"
"241028","022-UY","2017/10/16 21:19:45","新北市三重區正義南路169號","121.498953333333","25.05749","6500200","三重區"
"241008","059-VK","2017/10/16 21:19:41","新北市三重區自強路一段60號","121.497321666667","25.0667216666667","6500200","三重區"
"241031","061-VK","2017/10/16 21:19:32","新北市三重區五谷王南街46巷37號","121.475743333333","25.0455216666667","6500200","三重區"
"241017","063-VK","2017/10/16 21:19:41","新北市三重區中正北路25巷2號","121.493191666667","25.0626783333333","6500200","三重區"
"241026","066-VK","2017/10/16 21:19:31","新北市三重區大同南路220號","121.496783333333","25.0562033333333","6500200","三重區"
"241002","090-VK","2017/10/16 21:19:39","新北市三重區自強路五段43號","121.494073333333","25.0815166666667","6500200","三重區"
"241003","091-VK","2017/10/16 21:19:34","新北市三重區仁義街321號","121.495316666667","25.0843283333333","6500200","三重區"
"241005","262-UM","2017/10/16 21:19:50","新北市三重區仁安街15號","121.485126666667","25.0847083333333","6500200","三重區"
"241016","266-UM","2017/10/16 21:19:36","新北市三重區自強路一段95號","121.49584","25.0663316666667","6500200","三重區"
"241018","268-UM","2017/10/16 21:19:45","新北市三重區忠孝路二段34號","121.485685","25.0709166666667","6500200","三重區"
"241032","269-UM","2017/10/16 21:19:40","新北市三重區中興北街203號","121.469045","25.0575933333333","6500200","三重區"
"241025","271-UM","2017/10/16 21:19:48","新北市三重區中正北路208巷10弄4號","121.482396666667","25.0668983333333","6500200","三重區"
"241007","398-BY","2017/10/16 21:19:32","新北市三重區自強路三段72號","121.486848333333","25.073505","6500200","三重區"
"241024","KEA-2210","2017/10/16 21:19:37","新北市三重區中正北路115巷6號","121.484066666667","25.067715","6500200","三重區"
"241009","462-BY","2017/10/16 21:19:42","新北市三重區碧華街26號","121.482443333333","25.0807466666667","6500200","三重區"
"241004","475-VK","2017/10/16 21:19:31","新北市三重區碧華街211-1號","121.488575","25.08282","6500200","三重區"
"241019","478-VK","2017/10/16 21:19:37","新北市三重區重陽路四段2號","121.490345","25.06885","6500200","三重區"
"241030","480-VK","2017/10/16 21:19:38","新北市三重區頂崁街23號","121.476481666667","25.0563316666667","6500200","三重區"
"241014","543-UM","2017/10/16 21:19:44","新北市三重區萬全街9號","121.499276666667","25.0696416666667","6500200","三重區"
"241023","545-UM","2017/10/16 21:19:37","新北市三重區中正北路176巷27號","121.482651666667","25.065945","6500200","三重區"
"241001","547-UM","2017/10/16 21:19:45","新北市三重區仁愛街458巷13號","121.489601666667","25.0819166666667","6500200","三重區"
"241006","AAD-863","2017/10/16 21:19:49","新北市三重區新北大道一段160號","121.483786666667","25.0614983333333","6500200","三重區"
"241013","887-TS","2017/10/16 21:19:34","新北市三重區仁愛街66號","121.495771666667","25.0732316666667","6500200","三重區"
"241012","941-UM","2017/10/16 21:19:37","新北市三重區龍門路286號","121.502013333333","25.07422","6500200","三重區"
"241033","AAC-255","2017/10/16 21:19:34","新北市三重區光復路二段126巷27號","121.470813333333","25.0588083333333","6500200","三重區"
"235072","301-VK","2017/10/16 20:47:42","新北市中和區員山路36巷12號","121.483968333333","24.991005","6500300","中和區"
"235026","800-TS","2017/10/16 20:13:57","新北市中和區員山路36巷16-3號","121.48481","24.9918683333333","6500300","中和區"
"247022","893-R6","2017/10/16 21:19:50","新北市蘆洲區三民路249號","121.468623333333","25.0891733333333","6501400","蘆洲區"
"247012","546-UM","2017/10/16 21:19:45","新北市蘆洲區民族路236巷29號","121.480218333333","25.0886033333333","6501400","蘆洲區"
"247020","500-BY","2017/10/16 21:19:32","新北市蘆洲區民族路422巷92號","121.473263333333","25.0939366666667","6501400","蘆洲區"
"247010","339-TH","2017/10/16 21:19:48","新北市蘆洲區鷺江街23號","121.478845","25.0824416666667","6501400","蘆洲區"
"247002","337-TH","2017/10/16 21:19:50","新北市蘆洲區永樂街46號","121.457715","25.0885066666667","6501400","蘆洲區"
"247004","336-TH","2017/10/16 21:19:38","新北市蘆洲區永安南路二段322號","121.45703","25.08279","6501400","蘆洲區"
"247016","057-VK","2017/10/16 21:19:45","新北市蘆洲區光復路100巷8號","121.464751666667","25.085635","6501400","蘆洲區"
"247006","056-VK","2017/10/16 21:19:37","新北市蘆洲區長安街44號","121.463396666667","25.0796216666667","6501400","蘆洲區"
"247008","053-VK","2017/10/16 21:19:38","新北市蘆洲區中山一路103巷25號","121.47585","25.08105","6501400","蘆洲區"
"247014","007-UY","2017/10/16 21:19:37","新北市蘆洲區保和街50-6號","121.469826666667","25.0863266666667","6501400","蘆洲區"
"247024","002-UY","2017/10/16 21:19:36","新北市蘆洲區光明路98號","121.4632","25.0879916666667","6501400","蘆洲區"
"247018","001-UY","2017/10/16 21:19:33","新北市蘆洲區復興路105巷11號","121.476358333333","25.088505","6501400","蘆洲區"
"251009","008-UM","2017/10/16 21:19:32","新北市淡水區民族路33巷16-14號","121.463155","25.1356866666667","6501000","淡水區"
"251004","009-UM","2017/10/16 21:19:32","新北市淡水區民族路33巷16-19號","121.462358333333","25.1358733333333","6501000","淡水區"
"251008","181-VK","2017/10/16 21:19:51","新北市淡水區水源街二段240號","121.461166666667","25.1762916666667","6501000","淡水區"
"251013","182-VK","2017/10/16 21:19:43","新北市淡水區行忠路328號","121.460518333333","25.1995916666667","6501000","淡水區"
"251010","413-VK","2017/10/16 21:19:36","新北市淡水區中正路一段156巷12號","121.421853333333","25.1808016666667","6501000","淡水區"
"251012","441-VK","2017/10/16 21:19:45","新北市淡水區石頭埔8號","121.45262","25.2345433333333","6501000","淡水區"
"251015","442-VK","2017/10/16 21:19:41","新北市淡水區興仁路163號","121.451571666667","25.2198883333333","6501000","淡水區"
"251005","443-VK","2017/10/16 21:19:40","新北市淡水區仁愛街18巷2號","121.446805","25.170445","6501000","淡水區"
"251001","559-UM","2017/10/16 21:19:36","新北市淡水區中山北路二段185號","121.444118333333","25.1852016666667","6501000","淡水區"
"251011","650-BX","2017/10/16 21:19:37","新北市淡水區新民街120巷29號","121.438891666667","25.1788616666667","6501000","淡水區"
"251002","672-BX","2017/10/16 21:17:44","新北市淡水區英專路151號","121.448361666667","25.17482","6501000","淡水區"
"251003","673-BX","2017/10/16 21:19:40","新北市淡水區新春街85巷25弄6號","121.438525","25.183965","6501000","淡水區"
"252006","AAC-283","2017/10/16 16:46:08","新北市三芝區埔坪里埔頭坑41號","121.504503333333","25.2644066666667","6502100","三芝區"
"237001","159-BY","2017/10/16 10:30:53","新北市三峽區中山路459巷163-3號","121.348883333333","24.93308","6500900","三峽區"
"220062","303-R5","2017/10/16 21:19:35","新北市板橋區民生路二段89-6號","121.470786666667","25.01906","6500100","板橋區"
"220011","833-TW","2017/10/16 09:27:31","新北市板橋區民生路二段22號","121.47273","25.0166666666667","6500100","板橋區"
"220097","AAC-210","2017/10/16 21:19:41","新北市八里區中山路三段409號","121.368363333333","25.1349683333333","6500100","板橋區"
"220070","AAC-253","2017/10/16 21:19:37","新北市林口區太平里180號","121.366545","25.1345133333333","6500100","板橋區"
