"lineid","car","time","location","longitude","latitude","cityid","cityname"
"232002","290-BY","2017/10/17 06:49:45","新北市坪林區水聳淒坑19-2號","121.71217","24.9344983333333","6502000","坪林區"
"232013","291-BY","2017/10/17 06:49:49","新北市坪林區水柳腳199-5號","121.70113","24.93672","6502000","坪林區"
"232006","758-BX","2017/10/17 06:49:40","新北市坪林區石49號","121.734098333333","24.894245","6502000","坪林區"
"244002","657-BX","2017/10/17 06:49:48","新北市林口區粉寮路一段105號","121.397851666667","25.08027","6501700","林口區"
"220034","015-TV","2017/10/17 06:49:48","新北市板橋區國光路49巷17號","121.458911666667","25.0187533333333","6500100","板橋區"
"223006","022-BY","2017/10/17 06:49:50","新北市石碇區碇坪路一段11號","121.652638333333","24.9988783333333","6501900","石碇區"
"223002","198-BX","2017/10/17 06:49:47","新北市石碇區烏塗窟36號","121.654915","24.9737266666667","6501900","石碇區"
"223003","205-TH","2017/10/17 06:49:51","新北市石碇區石崁40-9號","121.660825","24.995835","6501900","石碇區"
"223008","406-TH","2017/10/17 06:49:39","新北市石碇區石崁1號","121.65173","25.0018033333333","6501900","石碇區"
"223001","592-UM","2017/10/17 06:49:46","新北市石碇區湳窟40號","121.664536666667","24.996025","6501900","石碇區"
"223004","660-BX","2017/10/17 06:49:50","新北市石碇區碇坪路一段121號","121.665071666667","24.9874433333333","6501900","石碇區"
"223007","661-BX","2017/10/17 06:49:43","新北市石碇區靜安路一段89號","121.652908333333","25.00734","6501900","石碇區"
"227006","282-VK","2017/10/17 06:49:48","新北市雙溪區新基里自強路7號","121.866281666667","25.0391116666667","6502500","雙溪區"
"236008","165-UM","2017/10/17 06:49:38","新北市土城區永平街51號","121.428011666667","24.9592133333333","6501300","土城區"
