"lineid","car","time","location","longitude","latitude","cityid","cityname"
"232002","290-BY","2017/10/17 07:19:25","新北市坪林區大粗坑28號","121.706846666667","24.9640483333333","6502000","坪林區"
"232013","291-BY","2017/10/17 07:19:49","新北市坪林區北宜路七段221號","121.688546666667","24.93519","6502000","坪林區"
"232006","758-BX","2017/10/17 07:19:40","新北市坪林區下坑子口6-15號","121.711523333333","24.9433933333333","6502000","坪林區"
"244002","657-BX","2017/10/17 07:19:48","新北市林口區頂福里71-22號","121.353985","25.0797666666667","6501700","林口區"
"222004","289-BY","2017/10/17 06:56:44","新北市深坑區深坑街75號","121.614633333333","25.00124","6501800","深坑區"
"220034","015-TV","2017/10/17 07:12:43","新北市板橋區國光路49巷2號","121.458133333333","25.0181333333333","6500100","板橋區"
"226005","5620-A6","2017/10/17 07:19:41","新北市平溪區靜安路二段141號","121.722503333333","25.0230516666667","6502400","平溪區"
"226002","7418-A5","2017/10/17 07:17:32","新北市平溪區南山里南山坪3號","121.762758333333","25.0317966666667","6502400","平溪區"
"226003","AGD-0702","2017/10/17 07:19:46","新北市平溪區靜安路二段236號","121.724201666667","25.022075","6502400","平溪區"
"223006","022-BY","2017/10/17 07:19:50","新北市坪林區坪碇路232號","121.695955","24.9516566666667","6501900","石碇區"
"223002","198-BX","2017/10/17 07:19:47","新北市石碇區碇格路二段15號","121.642248333333","24.9550616666667","6501900","石碇區"
"223003","205-TH","2017/10/17 07:13:11","新北市石碇區烏塗窟36-1號","121.65655","24.97187","6501900","石碇區"
"223008","406-TH","2017/10/17 07:19:39","新北市石碇區頭9號","121.706396666667","25.0003133333333","6501900","石碇區"
"223001","592-UM","2017/10/17 07:19:46","新北市石碇區中楒子腳4號","121.64133","24.9708283333333","6501900","石碇區"
"223004","660-BX","2017/10/17 07:19:50","新北市石碇區新興坑1-1號","121.653031666667","25.0137916666667","6501900","石碇區"
"223007","661-BX","2017/10/17 07:19:43","新北市石碇區番子坑9號","121.681041666667","25.000795","6501900","石碇區"
"223005","677-TV","2017/10/17 07:19:40","新北市石碇區新興坑28-2號","121.651705","25.0146266666667","6501900","石碇區"
"227006","282-VK","2017/10/17 07:19:48","新北市雙溪區新基里自強路5號","121.866326666667","25.0390383333333","6502500","雙溪區"
"252004","249-BX","2017/10/17 07:19:35","新北市三芝區錫板里棟板頭37-2號","121.503658333333","25.2286433333333","6502100","三芝區"
"252007","AAC-283","2017/10/17 07:19:46","新北市三芝區錫板里海尾22號","121.482815","25.2567583333333","6502100","三芝區"
"236008","165-UM","2017/10/17 07:19:38","新北市土城區裕民路6-5號","121.446931666667","24.9890633333333","6501300","土城區"
"236002","339-SR","2017/10/17 07:19:47","新北市土城區南天母路111巷6-2號","121.448418333333","24.9549983333333","6501300","土城區"
