"lineid","car","time","location","longitude","latitude","cityid","cityname"
"232014","291-BY","2017/12/07 06:39:45","新北市坪林區北宜路八段558號","121.718258333333","24.909205","6502000","坪林區"
"232018","705-BZ","2017/12/07 02:36:46","新北市坪林區北宜路八段558號","121.717995","24.9091116666667","6502000","坪林區"
"232007","758-BX","2017/12/07 06:39:54","新北市坪林區北宜路八段558號","121.718168333333","24.9094516666667","6502000","坪林區"
"223006","022-BY","2017/12/07 06:39:42","新北市石碇區碇坪路一段58號","121.65702","24.9913416666667","6501900","石碇區"
"223008","406-TH","2017/12/07 06:39:56","新北市石碇區小粗坑(潭邊里)15-1號","121.681468333333","24.9812633333333","6501900","石碇區"
"223001","437-BY","2017/12/07 06:39:36","新北市石碇區石碇東街5號","121.661508333333","24.99014","6501900","石碇區"
"223007","661-BX","2017/12/07 06:39:41","新北市石碇區石崁10號","121.655016666667","24.995775","6501900","石碇區"
"227007","282-VK","2017/12/07 06:39:38","新北市雙溪區牡丹里中正路77號","121.86278","25.0457816666667","6502500","雙溪區"
"220057","282-UM","2017/12/07 06:39:42","新北市板橋區南雅南路二段116號","121.452453333333","25.0005333333333","6500100","板橋區"
