"lineid","car","time","location","longitude","latitude","cityid","cityname"
"248005","653-BX","2017/12/07 07:29:57","新北市五股區明德路12巷6號","121.433398333333","25.0718433333333","6501500","五股區"
"232001","290-BY","2017/12/07 07:29:50","新北市坪林區上坑子口4號","121.698453333333","24.9582983333333","6502000","坪林區"
"232014","291-BY","2017/12/07 07:29:45","新北市坪林區金瓜寮25號","121.677111666667","24.908665","6502000","坪林區"
"232010","375-UM","2017/12/07 07:29:43","新北市坪林區水聳淒坑18號","121.713205","24.9318966666667","6502000","坪林區"
"232018","705-BZ","2017/12/07 07:29:44","新北市坪林區坪雙路二段17號","121.731285","24.9658933333333","6502000","坪林區"
"232007","758-BX","2017/12/07 07:29:54","新北市坪林區魚堀34號","121.699151666667","24.9262533333333","6502000","坪林區"
"244003","248-BX","2017/12/07 07:29:38","新北市林口區頂福里67-1號","121.337888333333","25.090895","6501700","林口區"
"226005","5620-A6","2017/12/07 07:29:40","新北市平溪區嶺腳里中華街40號","121.73917","25.0252133333333","6502400","平溪區"
"226002","7418-A5","2017/12/07 07:19:42","新北市平溪區望古里灰4-2號","121.763065","25.0296216666667","6502400","平溪區"
"226003","AGD-0702","2017/12/07 07:29:37","新北市平溪區嶺腳里中華街60號","121.739448333333","25.025035","6502400","平溪區"
"223006","022-BY","2017/12/07 07:29:41","新北市石碇區靜安路一段262號","121.680075","25.01086","6501900","石碇區"
"223002","198-BX","2017/12/07 07:29:52","新北市石碇區北宜路五段大湖巷2-1號","121.631228333333","24.9481266666667","6501900","石碇區"
"223008","406-TH","2017/12/07 07:19:23","新北市石碇區靜安路一段337號","121.698878333333","25.0146916666667","6501900","石碇區"
"223001","437-BY","2017/12/07 07:29:36","新北市石碇區內楒仔腳4-1號","121.641678333333","24.9714516666667","6501900","石碇區"
"223004","660-BX","2017/12/07 07:29:48","新北市石碇區八分寮56-1號","121.645033333333","25.0176333333333","6501900","石碇區"
"223007","661-BX","2017/12/07 07:29:41","新北市石碇區大溪墘8-2號","121.696298333333","25.0078233333333","6501900","石碇區"
"223005","677-TV","2017/12/07 07:29:48","新北市石碇區八分寮31-3號","121.643215","25.0121216666667","6501900","石碇區"
"227007","282-VK","2017/12/07 07:29:38","新北市雙溪區牡丹里自強路14號","121.865465","25.03929","6502500","雙溪區"
"252004","249-BX","2017/12/07 07:29:37","新北市三芝區興華里楓子林55-1號","121.500576666667","25.21405","6502100","三芝區"
"252007","702-TV","2017/12/07 07:29:44","新北市三芝區埔頭里埔頭29號","121.494345","25.2628566666667","6502100","三芝區"
"237001","159-UY","2017/12/07 07:29:37","新北市三峽區大義路380號","121.37666","24.9482083333333","6500900","三峽區"
"236009","165-UM","2017/12/07 07:29:44","新北市板橋區廣權路101號","121.464601666667","24.9926566666667","6501300","土城區"
"236003","339-SR","2017/12/07 07:29:51","新北市土城區忠義路123號","121.446456666667","24.9617316666667","6501300","土城區"
"242030","AAC-296","2017/12/07 07:29:48","新北市新莊區新泰路357巷3弄57號","121.442171666667","25.0394616666667","6500500","新莊區"
"242049","751-BX","2017/12/07 07:29:49","新北市新莊區新泰路357巷3弄57號","121.441955","25.03909","6500500","新莊區"
"242024","615-BX","2017/12/07 07:29:54","新北市新莊區三和路12-21號","121.44233","25.038595","6500500","新莊區"
"242022","613-BX","2017/12/07 07:29:38","新北市新莊區新泰路255巷83號","121.442315","25.0389716666667","6500500","新莊區"
"242038","566-BX","2017/12/07 07:29:39","新北市新莊區新泰路255巷83號","121.441971666667","25.0389233333333","6500500","新莊區"
"242043","497-BY","2017/12/07 07:29:48","新北市新莊區新泰路357巷3弄57號","121.442176666667","25.0393783333333","6500500","新莊區"
"242052","442-UM","2017/12/07 03:10:58","新北市新莊區新泰路255巷83號","121.442075","25.0389466666667","6500500","新莊區"
"242047","441-UM","2017/12/07 07:29:54","新北市新莊區三和路12-21號","121.442043333333","25.0381366666667","6500500","新莊區"
"242020","440-UM","2017/12/07 00:30:02","新北市新莊區新泰路357巷3弄57號","121.442056666667","25.0392066666667","6500500","新莊區"
"242033","415-TV","2017/12/07 01:33:57","新北市新莊區新泰路357巷3弄57號","121.442155","25.0393683333333","6500500","新莊區"
"242040","400-BY","2017/12/07 07:29:47","新北市新莊區新泰路357巷3弄57號","121.442186666667","25.039715","6500500","新莊區"
"242059","362-BY","2017/12/07 07:29:48","新北市新莊區三和路12-21號","121.44226","25.038345","6500500","新莊區"
"242057","353-BY","2017/12/07 07:29:45","新北市新莊區新泰路255巷83號","121.442273333333","25.038655","6500500","新莊區"
"242035","133-UY","2017/12/07 07:29:47","新北市新莊區三和路12-21號","121.442021666667","25.0387533333333","6500500","新莊區"
"242014","175-VK","2017/12/07 07:29:43","新北市新莊區三和路12-21號","121.442001666667","25.0385383333333","6500500","新莊區"
"242012","346-TH","2017/12/07 04:18:36","新北市新莊區三和路12-17號","121.44175","25.0375566666667","6500500","新莊區"
"242018","348-TH","2017/12/07 01:36:54","新北市新莊區新泰路357巷3弄57號","121.442125","25.0394416666667","6500500","新莊區"
"242055","349-TH","2017/12/07 02:45:29","新北市新莊區三和路12-15號","121.442101666667","25.0373","6500500","新莊區"
"242010","351-TH","2017/12/07 07:29:43","新北市新莊區新泰路357巷3弄57號","121.442051666667","25.039395","6500500","新莊區"
"220057","282-UM","2017/12/07 07:29:42","新北市板橋區國光路49巷2號","121.458111666667","25.0181616666667","6500100","板橋區"
