"lineid","car","time","location","longitude","latitude","cityid","cityname"
"244025","837-TS","2017/09/18 10:48:59","新北市林口區粉寮路二段160巷28號","121.405215","25.0907616666667","6501700","林口區"
"243008","680-BX","2017/09/18 09:32:15","新北市泰山區犁頭窠3-1號","121.421881666667","25.0604466666667","6501600","泰山區"
"231008","192-VK","2017/09/18 10:48:59","新北市新店區小坑一路22號","121.53257","24.91396","6500600","新店區"
"247001","402-BY","2017/09/18 10:48:57","新北市五股區中興路三段3-6號","121.449536666667","25.0788033333333","6501400","蘆洲區"
"227005","282-VK","2017/09/18 10:19:48","新北市雙溪區泰平里灣潭路36號","121.811498333333","24.928805","6502500","雙溪區"
"253003","6232-TK","2017/09/18 10:48:49","新北市石門區小坑9號","121.5939","25.288675","6502200","石門區"
"253001","6251-TK","2017/09/18 10:48:54","新北市石門區小坑9號","121.59436","25.28836","6502200","石門區"
"242003","413-TV","2017/09/18 10:49:05","新北市樹林區環河路10號","121.426868333333","24.97796","6500500","新莊區"
