"lineid","car","time","location","longitude","latitude","cityid","cityname"
"244025","837-TS","2017/09/18 10:50:06","新北市林口區粉寮路二段160巷28號","121.405213333333","25.0907633333333","6501700","林口區"
"243008","680-BX","2017/09/18 09:32:15","新北市泰山區犁頭窠3-1號","121.421881666667","25.0604466666667","6501600","泰山區"
"231008","192-VK","2017/09/18 11:05:19","新北市新店區成功路50巷5號","121.540368333333","24.9002233333333","6500600","新店區"
"235031","255-BX","2017/09/18 11:09:07","新北市中和區員山路36巷16號","121.484506666667","24.9912583333333","6500300","中和區"
"247001","402-BY","2017/09/18 10:50:15","新北市五股區中興路三段3-6號","121.4494","25.0788133333333","6501400","蘆洲區"
"227005","282-VK","2017/09/18 11:08:48","新北市雙溪區泰平里溪尾寮46號","121.821328333333","24.96759","6502500","雙溪區"
