"lineid","car","time","location","longitude","latitude","cityid","cityname"
"234044","148-BY","2017/09/18 13:49:02","新北市永和區永利路173號","121.52544","25.003405","6500400","永和區"
"234012","149-BY","2017/09/18 13:49:03","新北市永和區仁愛路241號","121.508875","25.0118733333333","6500400","永和區"
"234005","207-UY","2017/09/18 13:48:57","新北市永和區永和路一段82號","121.513085","25.0065266666667","6500400","永和區"
"234078","298-R6","2017/09/18 13:48:51","新北市永和區永亨路100號","121.523123333333","25.0049283333333","6500400","永和區"
"234036","336-UY","2017/09/18 13:48:52","新北市永和區成功路二段135號","121.526768333333","24.9980483333333","6500400","永和區"
"234062","337-UY","2017/09/18 13:48:58","新北市永和區中正路368巷7號","121.518155","25.000925","6500400","永和區"
"234084","338-UY","2017/09/18 13:48:45","新北市永和區永亨路39號","121.519948333333","25.00631","6500400","永和區"
"234068","552-UM","2017/09/18 13:48:48","新北市永和區國光路39-1號","121.519083333333","25.0082666666667","6500400","永和區"
"234052","553-UM","2017/09/18 13:48:57","新北市永和區竹林路39巷10號","121.518323333333","25.014465","6500400","永和區"
"234015","745-BX","2017/09/18 13:48:56","新北市永和區文化路9巷2號","121.515265","25.0149833333333","6500400","永和區"
"234028","746-BX","2017/09/18 13:48:59","新北市永和區民生路47巷10號","121.523598333333","24.99768","6500400","永和區"
"234060","AAD-866","2017/09/18 13:48:50","新北市永和區中正路164號","121.51505","24.9965666666667","6500400","永和區"
"234040","862-TW","2017/09/18 13:48:57","新北市永和區中和路389巷8號","121.50812","25.00096","6500400","永和區"
"234048","863-TW","2017/09/18 13:48:50","新北市永和區保安路79號","121.508603333333","25.0148016666667","6500400","永和區"
"234010","9373-KE","2017/09/18 13:48:55","新北市永和區保福路二段163巷13弄3號","121.50913","25.0143916666667","6500400","永和區"
"248015","026-BX","2017/09/18 13:49:03","新北市五股區凌雲路一段133巷23號","121.44914","25.1013783333333","6501500","五股區"
"248007","095-VK","2017/09/18 13:49:00","新北市五股區中興路一段132號","121.465245","25.073595","6501500","五股區"
"248019","225-UY","2017/09/18 13:48:53","新北市五股區凌雲路三段82-1號","121.43177","25.1173266666667","6501500","五股區"
"248011","247-BX","2017/09/18 13:48:55","新北市五股區成泰路二段195巷1號","121.440421666667","25.087405","6501500","五股區"
"248013","261-SL","2017/09/18 13:48:46","新北市五股區民義路一段107巷23號","121.431981666667","25.08477","6501500","五股區"
"248009","272-BY","2017/09/18 13:49:02","新北市五股區水碓七路81號","121.429721666667","25.0721966666667","6501500","五股區"
"248001","678-BX","2017/09/18 13:48:46","新北市五股區成泰路三段454號","121.451453333333","25.1003833333333","6501500","五股區"
"248003","682-TV","2017/09/18 13:48:52","新北市五股區民義路二段41號","121.413916666667","25.10144","6501500","五股區"
"234022","9380-KE","2017/09/18 13:48:51","新北市永和區永和路二段167號","121.515273333333","25.0130866666667","6500400","永和區"
"234076","969-R7","2017/09/18 13:48:57","新北市永和區民族街42號","121.518425","24.99893","6500400","永和區"
"234072","AAC-211","2017/09/18 13:48:53","新北市永和區豫溪街189巷1號","121.522608333333","25.010265","6500400","永和區"
"234066","AAC-212","2017/09/18 13:48:52","新北市永和區中山路一段199號","121.509001666667","25.0087166666667","6500400","永和區"
"234001","AAC-295","2017/09/18 13:48:50","新北市永和區永和路一段64號","121.513081666667","25.0060033333333","6500400","永和區"
"244001","657-BX","2017/09/18 13:49:01","新北市林口區太平里12鄰8號","121.362466666667","25.1334333333333","6501700","林口區"
"244025","837-TS","2017/09/18 10:50:06","新北市林口區粉寮路二段160巷28號","121.405213333333","25.0907633333333","6501700","林口區"
"243005","AAD-798","2017/09/18 13:49:03","新北市泰山區明志路三段206巷1號","121.42334","25.0379483333333","6501600","泰山區"
"243001","297-R6","2017/09/18 13:46:42","新北市泰山區泰林路二段46號","121.435608333333","25.05752","6501600","泰山區"
"243007","380-SR","2017/09/18 13:48:52","新北市泰山區美寧街54號","121.430506666667","25.0645683333333","6501600","泰山區"
"243006","421-VK","2017/09/18 13:48:58","新北市泰山區黎明路35-1號","121.421693333333","25.06019","6501600","泰山區"
"243002","KEA-2215","2017/09/18 13:48:57","新北市泰山區辭修路14號","121.429323333333","25.0581583333333","6501600","泰山區"
"243004","646-TV","2017/09/18 13:48:55","新北市泰山區泰林路二段73巷27號","121.434445","25.057835","6501600","泰山區"
"243008","680-BX","2017/09/18 13:49:00","新北市泰山區明志路二段131號","121.427828333333","25.0508933333333","6501600","泰山區"
"231002","002-UM","2017/09/18 13:48:51","新北市新店區溪園路393號","121.52424","24.9790933333333","6500600","新店區"
"231024","0293-UT","2017/09/18 13:48:53","新北市新店區中華路47巷9號","121.539723333333","24.9672883333333","6500600","新店區"
"231028","046-UY","2017/09/18 13:48:56","新北市新店區安和路三段18號","121.517941666667","24.981195","6500600","新店區"
"231030","047-UY","2017/09/18 13:48:57","新北市新店區安康路一段279號","121.523761666667","24.9635116666667","6500600","新店區"
"231029","106-UY","2017/09/18 13:49:01","新北市新店區安康路二段125-1號","121.512385","24.9608866666667","6500600","新店區"
"231018","107-UY","2017/09/18 13:49:02","新北市新店區中正路382巷24號","121.535408333333","24.9778133333333","6500600","新店區"
"231011","108-UY","2017/09/18 13:48:53","新北市新店區德正街25巷7號","121.544553333333","24.9717983333333","6500600","新店區"
"231019","187-VK","2017/09/18 13:48:46","新北市新店區湖子內路22號","121.54233","24.9308","6500600","新店區"
"231014","215-TC","2017/09/18 13:48:56","新北市新店區竹林路63號","121.552948333333","24.9513133333333","6500600","新店區"
"231026","256-BX","2017/09/18 13:48:43","新北市新店區中正路329巷1弄2號","121.535621666667","24.9749183333333","6500600","新店區"
"231010","278-BY","2017/09/18 13:48:53","新北市新店區三民路60巷4號","121.535545","24.9725016666667","6500600","新店區"
"231023","AAD-862","2017/09/18 13:48:50","新北市新店區國校路65巷1號","121.538363333333","24.9540716666667","6500600","新店區"
"231027","3712-VJ","2017/09/18 13:48:49","新北市新店區北宜路一段105巷10弄1號","121.540325","24.95572","6500600","新店區"
"231025","4716-K9","2017/09/18 13:49:02","新北市新店區中央六街55號","121.528021666667","24.9758116666667","6500600","新店區"
"231038","4715-K9","2017/09/18 13:48:57","新北市新店區安康路一段323-1號","121.521851666667","24.9636616666667","6500600","新店區"
"231036","512-UM","2017/09/18 13:48:45","新北市新店區安祥路110巷28號","121.473913333333","24.9561766666667","6500600","新店區"
"231035","515-UM","2017/09/18 13:48:52","新北市新店區安忠路57巷5-6號","121.51323","24.9587033333333","6500600","新店區"
"231001","619-UM","2017/09/18 13:48:48","新北市新店區三民路62號","121.53512","24.9722333333333","6500600","新店區"
"231003","641-BX","2017/09/18 13:48:53","新北市新店區中興路一段152號","121.542473333333","24.9639316666667","6500600","新店區"
"231034","645-TV","2017/09/18 13:49:00","新北市新店區達觀路14巷1-3號","121.50401","24.94219","6500600","新店區"
"231013","719-UM","2017/09/18 13:48:47","新北市新店區二十張路25巷20號","121.539296666667","24.9819683333333","6500600","新店區"
"231031","720-UM","2017/09/18 13:48:50","新北市新店區莒光路44巷21弄11-6號","121.518468333333","24.95224","6500600","新店區"
"231005","897-TW","2017/09/18 13:49:00","新北市新店區寶中路104號","121.549881666667","24.97903","6500600","新店區"
"231006","898-TW","2017/09/18 13:48:47","新北市新店區北宜路一段252號","121.545391666667","24.95288","6500600","新店區"
"231004","899-TW","2017/09/18 13:48:47","新北市新店區寶橋路132號","121.54749","24.9760033333333","6500600","新店區"
"231037","AKT-0513","2017/09/18 13:48:47","新北市新店區安康路三段359巷10弄1號","121.48444","24.9503083333333","6500600","新店區"
"235030","003-UY","2017/09/18 13:48:59","新北市中和區水源路18巷5號","121.504098333333","25.0030516666667","6500300","中和區"
"235028","005-UY","2017/09/18 13:48:46","新北市中和區連城路89巷5-1號","121.497278333333","24.99953","6500300","中和區"
"235020","096-UM","2017/09/18 13:49:02","新北市中和區中正路1180號","121.481253333333","25.0101933333333","6500300","中和區"
"235003","097-UM","2017/09/18 13:48:53","新北市中和區大勇街27巷31號","121.516135","24.9939483333333","6500300","中和區"
"235029","098-UM","2017/09/18 13:49:02","新北市中和區中山路二段2巷45弄2號","121.502411666667","25.0070533333333","6500300","中和區"
"235004","150-BY","2017/09/18 13:49:02","新北市中和區宜安路118巷2號","121.510555","24.9980516666667","6500300","中和區"
"235022","151-BY","2017/09/18 13:49:04","新北市中和區連城路607號","121.477871666667","24.9931233333333","6500300","中和區"
"235019","183-VK","2017/09/18 13:48:50","新北市中和區民德路23號","121.468921666667","25.002675","6500300","中和區"
"235002","185-VK","2017/09/18 13:48:47","新北市中和區大勇街45巷1號","121.51819","24.9948883333333","6500300","中和區"
"235013","186-VK","2017/09/18 13:48:45","新北市中和區景安路167巷18號","121.50619","24.99454","6500300","中和區"
"235031","255-BX","2017/09/18 13:48:46","新北市中和區新生街220巷13號","121.482921666667","24.9984783333333","6500300","中和區"
"235008","293-VK","2017/09/18 13:48:53","新北市中和區復興路280巷43號","121.500976666667","24.9919016666667","6500300","中和區"
"235036","301-VK","2017/09/18 13:49:02","新北市中和區中山路二段90號","121.503431666667","25.0043216666667","6500300","中和區"
"235007","352-BY","2017/09/18 13:48:58","新北市中和區景平路1號","121.525426666667","24.9900866666667","6500300","中和區"
"235015","376-QA","2017/09/18 13:48:42","新北市中和區工專路137號","121.508573333333","24.9792083333333","6500300","中和區"
"235032","377-QA","2017/09/18 13:48:47","新北市中和區中正路167巷15號","121.498395","24.9927266666667","6500300","中和區"
"235025","378-QA","2017/09/18 13:48:42","新北市中和區民享街45號","121.474126666667","25.00286","6500300","中和區"
"235014","4979-A6","2017/09/18 13:48:52","新北市中和區忠孝街58巷16弄13號","121.512061666667","24.9826833333333","6500300","中和區"
"235033","4980-A6","2017/09/18 13:48:46","新北市中和區景平路618巷7號","121.50093","24.99725","6500300","中和區"
"235006","551-UM","2017/09/18 13:49:04","新北市中和區秀朗路三段70巷32號","121.525661666667","24.99453","6500300","中和區"
"235034","558-UM","2017/09/18 13:48:54","新北市中和區南華路62-1號","121.504656666667","24.99721","6500300","中和區"
"235009","565-BX","2017/09/18 13:48:57","新北市中和區南山路230號","121.506551666667","24.9901716666667","6500300","中和區"
"235018","640-BX","2017/09/18 13:49:03","新北市中和區民享街54巷7號","121.473651666667","25.00228","6500300","中和區"
"235024","647-TV","2017/09/18 13:48:46","新北市中和區中山路三段5號","121.479745","25.0059933333333","6500300","中和區"
"235011","732-UM","2017/09/18 13:49:01","新北市中和區興南路二段34巷56弄1號","121.50481","24.985205","6500300","中和區"
"235010","733-UM","2017/09/18 13:48:49","新北市中和區仁愛街36巷55號","121.511408333333","24.9862433333333","6500300","中和區"
"235026","800-TS","2017/09/18 13:48:53","新北市中和區中山路二段312巷1弄2號","121.495558333333","25.0027916666667","6500300","中和區"
"235021","801-TS","2017/09/18 13:49:01","新北市中和區民安街22巷27號","121.479458333333","25.001565","6500300","中和區"
"235005","802-TS","2017/09/18 13:48:55","新北市中和區永貞路249巷5號","121.512728333333","25.0036933333333","6500300","中和區"
"235016","805-TS","2017/09/18 13:48:55","新北市中和區興南路二段399巷66號","121.499735","24.978755","6500300","中和區"
"235012","896-TW","2017/09/18 13:49:04","新北市中和區南山路188號","121.505836666667","24.9906883333333","6500300","中和區"
"235017","900-TW","2017/09/18 13:48:51","新北市中和區華順街105號","121.465456666667","24.9973216666667","6500300","中和區"
"235027","911-UM","2017/09/18 13:49:01","新北市中和區連城路234號","121.489101666667","24.996335","6500300","中和區"
"235001","AAC-213","2017/09/18 13:48:54","新北市中和區秀朗路三段175巷10號","121.525013333333","24.9914183333333","6500300","中和區"
"235023","AAC-215","2017/09/18 13:48:59","新北市中和區圓通路290-4號","121.490318333333","24.9893016666667","6500300","中和區"
"220016","013-TV","2017/09/18 13:48:57","新北市板橋區民生路二段89-6號","121.470668333333","25.0190733333333","6500100","板橋區"
"220034","073-UY","2017/09/18 13:48:56","新北市板橋區南雅西路二段192巷24號","121.452693333333","25.0139366666667","6500100","板橋區"
"220105","075-UY","2017/09/18 13:48:56","新北市板橋區民生路二段161巷1號","121.470226666667","25.01997","6500100","板橋區"
"220017","AAD-861","2017/09/18 13:48:46","新北市板橋區南雅南路二段92巷40號","121.452896666667","25.0022716666667","6500100","板橋區"
"247011","546-UM","2017/09/18 13:48:59","新北市蘆洲區中興街66號","121.48212","25.08788","6501400","蘆洲區"
"247001","402-BY","2017/09/18 13:48:53","新北市三重區集賢路205號","121.483751666667","25.08709","6501400","蘆洲區"
"247009","339-TH","2017/09/18 13:48:46","新北市三重區環河北路三段506號","121.489301666667","25.0918083333333","6501400","蘆洲區"
"247003","336-TH","2017/09/18 13:48:51","新北市蘆洲區中原路3號","121.461533333333","25.0832766666667","6501400","蘆洲區"
"247015","057-VK","2017/09/18 13:48:46","新北市蘆洲區保和街87號","121.46897","25.0860083333333","6501400","蘆洲區"
"247005","056-VK","2017/09/18 13:48:47","新北市蘆洲區中山二路279號","121.469413333333","25.07915","6501400","蘆洲區"
"247007","053-VK","2017/09/18 13:48:45","新北市蘆洲區重陽街95號","121.482375","25.08541","6501400","蘆洲區"
"247017","001-UY","2017/09/18 13:48:42","新北市蘆洲區水湳街24號","121.472358333333","25.08834","6501400","蘆洲區"
"208004","AAC-292","2017/09/18 13:48:57","新北市金山區重和里三重橋19號","121.589641666667","25.1883616666667","6502700","金山區"
"207002","749-BX","2017/09/18 13:48:51","新北市萬里區崁腳里崁腳路166號","121.645078333333","25.155915","6502800","萬里區"
"252005","249-BX","2017/09/18 13:48:55","新北市三芝區橫山里橫山50-1號","121.533415","25.256585","6502100","三芝區"
"207001","662-BX","2017/09/18 13:48:59","新北市萬里區磺潭里公館崙47-1號","121.629481666667","25.205095","6502800","萬里區"
"236064","105-UM","2017/09/18 13:48:47","新北市土城區城林路6巷80號","121.438555","24.97973","6501300","土城區"
"236040","107-UM","2017/09/18 13:49:01","新北市土城區中央路一段264-2號","121.44377","24.983775","6501300","土城區"
"236074","166-UM","2017/09/18 13:48:53","新北市土城區大安路2號","121.432931666667","24.96556","6501300","土城區"
"236028","253-BX","2017/09/18 13:48:56","新北市土城區城林路6巷80號","121.438583333333","24.979825","6501300","土城區"
"236024","269-VK","2017/09/18 13:48:49","新北市土城區城林路6巷80號","121.438605","24.9797766666667","6501300","土城區"
"236012","270-VK","2017/09/18 13:48:50","新北市土城區水源街54號","121.440405","24.97617","6501300","土城區"
"236016","401-BY","2017/09/18 13:48:44","新北市土城區城林路6巷80號","121.438618333333","24.97975","6501300","土城區"
"236005","498-BY","2017/09/18 13:48:50","新北市土城區慶祥街16號","121.437786666667","24.9748816666667","6501300","土城區"
"236056","912-UM","2017/09/18 13:48:51","新北市土城區城林路6巷80號","121.43845","24.9799133333333","6501300","土城區"
"236044","913-UM","2017/09/18 13:48:59","新北市土城區城林路6巷80號","121.438386666667","24.9797783333333","6501300","土城區"
"236052","AAC-216","2017/09/18 13:48:56","新北市土城區城林路6巷80號","121.438418333333","24.9798283333333","6501300","土城區"
"242045","172-VK","2017/09/18 13:48:24","新北市樹林區八德街395號","121.415625","24.9714283333333","6500500","新莊區"
"238008","308-TH","2017/09/18 13:30:47","新北市樹林區育德街76巷1號","121.38879","24.9683133333333","6500700","樹林區"
"221036","130-UY","2017/09/18 13:48:57","新北市汐止區東勢街3-1號","121.626678333333","25.0399416666667","6501100","汐止區"
"221032","280-BY","2017/09/18 13:48:52","新北市汐止區仁愛路10號","121.659241666667","25.0635833333333","6501100","汐止區"
"221010","646-BX","2017/09/18 13:48:55","新北市汐止區水源路一段291巷4弄35號","121.655131666667","25.0573216666667","6501100","汐止區"
"221002","753-BX","2017/09/18 13:48:48","新北市汐止區大同路一段337巷16弄10號","121.637966666667","25.0608733333333","6501100","汐止區"
"220027","145-BY","2017/09/18 13:48:44","新北市板橋區幸福路61號","121.460755","25.0198516666667","6500100","板橋區"
"220028","200-UY","2017/09/18 13:48:56","新北市板橋區大觀路二段265巷128號","121.442238333333","24.9962933333333","6500100","板橋區"
"220030","610-BX","2017/09/18 13:48:52","新北市板橋區篤行路二段139號","121.429803333333","24.9882733333333","6500100","板橋區"
"220050","245-BX","2017/09/18 02:43:36","新北市板橋區民生路二段120號","121.470605","25.0195633333333","6500100","板橋區"
"220046","257-TC","2017/09/18 13:48:50","新北市板橋區民生路二段188號","121.470233333333","25.02064","6500100","板橋區"
"220004","276-BY","2017/09/18 13:48:57","新北市板橋區四川路二段48號","121.453581666667","24.9952783333333","6500100","板橋區"
"220020","277-BY","2017/09/18 13:48:52","新北市板橋區金門街47巷1號","121.433563333333","24.9933933333333","6500100","板橋區"
"220012","282-UM","2017/09/18 13:49:02","新北市板橋區中山路二段37號","121.473016666667","25.0155733333333","6500100","板橋區"
"220019","283-VK","2017/09/18 13:48:56","新北市板橋區忠孝路176巷1-5號","121.464615","25.0022383333333","6500100","板橋區"
"220043","285-UM","2017/09/18 13:48:55","新北市板橋區民生路二段161巷1號","121.470105","25.0198733333333","6500100","板橋區"
"220001","285-VK","2017/09/18 13:48:49","新北市板橋區民生路二段89-6號","121.470766666667","25.0192716666667","6500100","板橋區"
"220031","286-VK","2017/09/18 13:49:00","新北市板橋區大觀路二段22巷11號","121.445936666667","25.0034133333333","6500100","板橋區"
"220029","287-VK","2017/09/18 13:40:23","新北市板橋區大觀路2段435-7號","121.447921666667","24.9955533333333","6500100","板橋區"
"220039","288-VK","2017/09/18 13:48:55","新北市板橋區民生路二段161巷1號","121.4701","25.0201766666667","6500100","板橋區"
"220009","295-UM","2017/09/18 02:46:11","新北市板橋區民生路二段120號","121.470408333333","25.0198366666667","6500100","板橋區"
"220023","297-UM","2017/09/18 13:48:51","新北市板橋區大觀路一段26號","121.450016666667","25.0086816666667","6500100","板橋區"
"242001","281-VK","2017/09/18 13:48:49","新北市新莊區中華路一段226號","121.452738333333","25.0430333333333","6500500","新莊區"
"220010","305-R5","2017/09/18 13:48:52","新北市板橋區介壽街119號","121.470605","25.0187633333333","6500100","板橋區"
"220041","307-R5","2017/09/18 04:27:14","新北市板橋區民生路二段161巷9號","121.470276666667","25.019655","6500100","板橋區"
"220047","317-R6","2017/09/18 13:48:53","新北市板橋區民生路二段188號","121.470021666667","25.02034","6500100","板橋區"
"220038","487-VK","2017/09/18 13:48:57","新北市板橋區民生路二段188號","121.470106666667","25.020285","6500100","板橋區"
"220037","491-VK","2017/09/18 13:48:50","新北市板橋區民生路二段198號","121.469715","25.020945","6500100","板橋區"
"220104","560-BX","2017/09/18 13:48:59","新北市板橋區中正路325巷41號","121.453475","25.0193316666667","6500100","板橋區"
"220052","561-BX","2017/09/18 13:48:51","新北市板橋區民生路二段120號","121.470355","25.019755","6500100","板橋區"
"220032","568-UM","2017/09/18 13:48:53","新北市板橋區大觀路二段148巷72號","121.441796666667","25.0008616666667","6500100","板橋區"
"220011","609-BX","2017/09/18 13:48:54","新北市板橋區民生路二段161巷17號","121.470368333333","25.0189733333333","6500100","板橋區"
"220040","637-BX","2017/09/18 02:40:33","新北市板橋區民生路二段188號","121.469893333333","25.020605","6500100","板橋區"
"220005","686-BX","2017/09/18 13:48:44","新北市板橋區大觀路二段11-12號","121.448748333333","24.9961716666667","6500100","板橋區"
"220025","687-BX","2017/09/18 13:48:57","新北市板橋區金門街18-1號","121.433421666667","24.9942583333333","6500100","板橋區"
"220002","741-BX","2017/09/18 13:48:56","新北市板橋區南雅南路二段120-16號","121.452005","24.9991433333333","6500100","板橋區"
"220003","827-TW","2017/09/18 13:48:48","新北市板橋區南雅南路二段118號","121.452428333333","25.00015","6500100","板橋區"
"220014","829-TW","2017/09/18 13:48:48","新北市板橋區民生路二段89-6號","121.47073","25.01914","6500100","板橋區"
"220051","830-TW","2017/09/16 21:22:38","新北市板橋區民生路二段56-6號","121.47082","25.0190266666667","6500100","板橋區"
"220045","831-TW","2017/09/18 01:46:23","新北市板橋區民生路二段120號","121.470615","25.0196216666667","6500100","板橋區"
"220042","833-TW","2017/09/18 13:48:52","新北市板橋區民生路二段120號","121.4705","25.0196933333333","6500100","板橋區"
"220022","895-R6","2017/09/18 13:48:44","新北市板橋區館前西路123號","121.456626666667","25.0074366666667","6500100","板橋區"
"220021","985-R7","2017/09/18 13:48:57","新北市板橋區館前西路90號","121.457421666667","25.0071516666667","6500100","板橋區"
"220018","AAC-253","2017/09/18 13:48:48","新北市板橋區四川路一段55號","121.459733333333","25.0062783333333","6500100","板橋區"
