"lineid","car","time","location","longitude","latitude","cityid","cityname"
"234044","148-BY","2017/09/18 14:05:01","新北市永和區成功路一段137號","121.526823333333","25.001565","6500400","永和區"
"234012","149-BY","2017/09/18 14:04:46","新北市永和區保生路55號","121.504851666667","25.0106","6500400","永和區"
"234005","207-UY","2017/09/18 14:04:57","新北市永和區中和路453號","121.510018333333","25.0014416666667","6500400","永和區"
"234078","298-R6","2017/09/18 14:04:51","新北市永和區國中路101號","121.524206666667","25.0062316666667","6500400","永和區"
"234036","336-UY","2017/09/18 14:04:52","新北市永和區成功路一段45號","121.527096666667","25.00413","6500400","永和區"
"234062","337-UY","2017/09/18 14:04:58","新北市永和區永利路96號","121.5209","25.0037233333333","6500400","永和區"
"234084","338-UY","2017/09/18 14:04:45","新北市永和區福和路10巷1號","121.52452","25.008665","6500400","永和區"
"234068","552-UM","2017/09/18 14:04:49","新北市永和區福和路263巷7弄3號","121.518005","25.0070183333333","6500400","永和區"
"234052","553-UM","2017/09/18 14:04:57","新北市永和區竹林路39巷46號","121.520238333333","25.015305","6500400","永和區"
"234015","745-BX","2017/09/18 14:04:56","新北市永和區文化路48號","121.514688333333","25.0151783333333","6500400","永和區"
"234028","746-BX","2017/09/18 14:05:02","新北市永和區四維街89巷2弄5號","121.524261666667","24.9977233333333","6500400","永和區"
"234060","AAD-866","2017/09/18 14:04:50","新北市永和區中正路151巷8弄1號","121.515891666667","24.9987466666667","6500400","永和區"
"234040","862-TW","2017/09/18 14:04:57","新北市永和區雙和街16巷2號","121.509636666667","25.0020933333333","6500400","永和區"
"234048","863-TW","2017/09/18 14:04:41","新北市永和區保安路292號","121.505221666667","25.011985","6500400","永和區"
"234025","9371-KE","2017/09/18 14:04:56","新北市永和區永貞路214號","121.51537","25.0042016666667","6500400","永和區"
"234010","9373-KE","2017/09/18 14:04:55","新北市永和區仁愛路352巷92弄20號","121.501396666667","25.0083833333333","6500400","永和區"
"248015","026-BX","2017/09/18 14:05:01","新北市五股區凌雲路一段114號","121.450173333333","25.1019716666667","6501500","五股區"
"248007","095-VK","2017/09/18 14:05:00","新北市五股區中興路一段118巷11號","121.46588","25.0740016666667","6501500","五股區"
"248019","225-UY","2017/09/18 14:04:53","新北市五股區凌雲路三段57號","121.425311666667","25.1250116666667","6501500","五股區"
"248011","247-BX","2017/09/18 14:04:55","新北市五股區工商路18巷9號","121.440028333333","25.083765","6501500","五股區"
"248009","272-BY","2017/09/18 14:05:00","新北市五股區水碓一路23號","121.430653333333","25.0713116666667","6501500","五股區"
"248001","678-BX","2017/09/18 14:05:01","新北市五股區成泰路三段577巷110號","121.448933333333","25.1041133333333","6501500","五股區"
"248003","682-TV","2017/09/18 14:04:52","新北市五股區民義路一段226號","121.428748333333","25.090635","6501500","五股區"
"234022","9380-KE","2017/09/18 14:04:51","新北市永和區光復街2巷16弄15號","121.517623333333","25.0163983333333","6500400","永和區"
"234076","969-R7","2017/09/18 14:04:57","新北市永和區民族街81巷48號","121.519841666667","24.996515","6500400","永和區"
"234072","AAC-211","2017/09/18 14:04:53","新北市永和區竹林路191巷4號","121.52102","25.0094916666667","6500400","永和區"
"234066","AAC-212","2017/09/18 14:05:02","新北市永和區中山路一段281巷3號","121.507351666667","25.00682","6500400","永和區"
"234001","AAC-295","2017/09/18 14:04:50","新北市永和區永和路一段208號","121.514315","25.0093966666667","6500400","永和區"
"244025","837-TS","2017/09/18 10:50:06","新北市林口區粉寮路二段160巷28號","121.405213333333","25.0907633333333","6501700","林口區"
"243005","AAD-798","2017/09/18 14:05:03","新北市泰山區漢口街7號","121.423535","25.0366383333333","6501600","泰山區"
"243001","297-R6","2017/09/18 14:04:53","新北市泰山區明志路一段118號","121.433355","25.0636383333333","6501600","泰山區"
"243007","380-SR","2017/09/18 14:04:52","新北市泰山區明志路一段353號","121.431065","25.0585783333333","6501600","泰山區"
"243006","421-VK","2017/09/18 14:04:58","新北市泰山區泰林路二段519號","121.424016666667","25.063805","6501600","泰山區"
"243002","KEA-2215","2017/09/18 14:04:57","新北市泰山區明志路一段352巷22號","121.430253333333","25.058845","6501600","泰山區"
"243003","KEA-2216","2017/09/18 14:04:54","新北市泰山區明志路三段196巷50弄3號","121.421416666667","25.0405116666667","6501600","泰山區"
"243004","646-TV","2017/09/18 14:04:55","新北市泰山區明志路一段374號","121.430645","25.0578","6501600","泰山區"
"243008","680-BX","2017/09/18 14:05:00","新北市泰山區明志路二段329號","121.425755","25.0449166666667","6501600","泰山區"
"231002","002-UM","2017/09/18 14:04:51","新北市新店區中正路630號","121.53403","24.989015","6500600","新店區"
"231024","0293-UT","2017/09/18 14:04:51","新北市新店區力行路5號","121.539441666667","24.9646033333333","6500600","新店區"
"231028","046-UY","2017/09/18 14:04:56","新北市新店區安業街10號","121.516033333333","24.978595","6500600","新店區"
"231030","047-UY","2017/09/18 14:04:56","新北市新店區薏仁坑路2-1號","121.500563333333","24.9580366666667","6500600","新店區"
"231029","106-UY","2017/09/18 14:05:01","新北市新店區安康路二段109號","121.512623333333","24.9620316666667","6500600","新店區"
"231018","107-UY","2017/09/18 14:05:02","新北市新店區中央路133巷27弄2號","121.531771666667","24.97324","6500600","新店區"
"231011","108-UY","2017/09/18 14:04:53","新北市新店區五峰路121號","121.544973333333","24.9664916666667","6500600","新店區"
"231019","187-VK","2017/09/18 14:04:46","新北市新店區屈尺路83-2號","121.544641666667","24.9220866666667","6500600","新店區"
"231014","215-TC","2017/09/18 14:04:55","新北市新店區郵政路81號","121.555275","24.951595","6500600","新店區"
"231026","256-BX","2017/09/18 14:05:02","新北市新店區三民路159巷19弄1號","121.532838333333","24.9741","6500600","新店區"
"231023","AAD-862","2017/09/18 14:04:50","新北市新店區文中路51號","121.539816666667","24.95666","6500600","新店區"
"231027","3712-VJ","2017/09/18 14:04:49","新北市新店區中興路一段34號","121.53868","24.9585433333333","6500600","新店區"
"231025","4716-K9","2017/09/18 14:04:42","新北市新店區中正路275巷21號","121.537075","24.9733316666667","6500600","新店區"
"231038","4715-K9","2017/09/18 14:04:57","新北市新店區溪洲路121號","121.531351666667","24.9626933333333","6500600","新店區"
"231036","512-UM","2017/09/18 14:04:45","新北市新店區安祥路109巷1弄59號","121.478203333333","24.9607933333333","6500600","新店區"
"231035","515-UM","2017/09/18 14:04:51","新北市新店區安康路二段1-5號","121.51705","24.9638833333333","6500600","新店區"
"231001","619-UM","2017/09/18 14:05:01","新北市新店區三民路24號","121.537105","24.9710833333333","6500600","新店區"
"231003","641-BX","2017/09/18 14:04:53","新北市新店區北宜路一段3號","121.538353333333","24.9584483333333","6500600","新店區"
"231034","645-TV","2017/09/18 14:05:00","新北市新店區車子路151號","121.504576666667","24.9472416666667","6500600","新店區"
"231013","719-UM","2017/09/18 14:04:57","新北市新店區北新路三段65巷12弄2號","121.540905","24.9812933333333","6500600","新店區"
"231031","720-UM","2017/09/18 14:04:50","新北市新店區永業路20-1號","121.533275","24.9558216666667","6500600","新店區"
"231005","897-TW","2017/09/18 14:05:00","新北市新店區中興路三段258號","121.54284","24.9842833333333","6500600","新店區"
"231006","898-TW","2017/09/18 14:04:47","新北市新店區北宜路二段82-13號","121.554703333333","24.9535066666667","6500600","新店區"
"231004","899-TW","2017/09/18 14:04:47","新北市新店區北新路二段214號","121.542905","24.9769233333333","6500600","新店區"
"231037","AKT-0513","2017/09/18 14:04:47","新北市新店區安康路三段207巷24號","121.488271666667","24.9506833333333","6500600","新店區"
"235030","003-UY","2017/09/18 14:04:59","新北市中和區廣福路8號","121.505916666667","25.003075","6500300","中和區"
"235028","005-UY","2017/09/18 14:04:46","新北市中和區景平路634-4號","121.499231666667","24.9991466666667","6500300","中和區"
"235020","096-UM","2017/09/18 14:05:02","新北市中和區員山路560號","121.478635","25.010455","6500300","中和區"
"235003","097-UM","2017/09/18 14:04:53","新北市中和區景平路3號","121.523936666667","24.9902183333333","6500300","中和區"
"235029","098-UM","2017/09/18 14:04:42","新北市中和區福祥路135號","121.498458333333","25.0075166666667","6500300","中和區"
"235004","150-BY","2017/09/18 13:54:42","新北市中和區保健路50巷53號","121.509706666667","24.9956916666667","6500300","中和區"
"235022","151-BY","2017/09/18 14:05:04","新北市中和區連城路428巷14號","121.47997","24.9954366666667","6500300","中和區"
"235019","183-VK","2017/09/18 14:04:59","新北市中和區德光路50號","121.46998","25.0041016666667","6500300","中和區"
"235002","185-VK","2017/09/18 14:04:47","新北市中和區大勇街31巷6弄2號","121.517235","24.9942983333333","6500300","中和區"
"235013","186-VK","2017/09/18 14:04:45","新北市中和區明禮街17號","121.504786666667","24.99589","6500300","中和區"
"235031","255-BX","2017/09/18 14:04:46","新北市中和區新生街189號","121.48376","25.0003116666667","6500300","中和區"
"235008","293-VK","2017/09/18 14:04:53","新北市中和區中興街153號","121.499931666667","24.991065","6500300","中和區"
"235036","301-VK","2017/09/18 14:05:02","新北市中和區中山路二段201號","121.499681666667","25.0027","6500300","中和區"
"235007","352-BY","2017/09/18 14:04:58","新北市中和區成功路76號","121.525991666667","24.9917966666667","6500300","中和區"
"235015","376-QA","2017/09/18 14:04:42","新北市中和區忠孝街31巷27號","121.50984","24.9841933333333","6500300","中和區"
"235032","377-QA","2017/09/18 14:04:49","新北市中和區圓通路162巷7號","121.497035","24.9951133333333","6500300","中和區"
"235025","378-QA","2017/09/18 14:05:02","新北市中和區中山路三段35號","121.478938333333","25.0057783333333","6500300","中和區"
"235014","4979-A6","2017/09/18 14:04:52","新北市中和區復興路280巷36弄8號","121.501685","24.9920833333333","6500300","中和區"
"235033","4980-A6","2017/09/18 14:04:45","新北市中和區中和路217巷1弄5號","121.503853333333","25.0004516666667","6500300","中和區"
"235006","551-UM","2017/09/18 14:04:44","新北市中和區自立路185號","121.523565","24.99178","6500300","中和區"
"235034","558-UM","2017/09/18 14:04:54","新北市中和區中和路265號","121.50539","24.9997233333333","6500300","中和區"
"235009","565-BX","2017/09/18 14:04:57","新北市中和區景新街467巷20弄19號","121.514935","24.9873583333333","6500300","中和區"
"235018","640-BX","2017/09/18 14:05:03","新北市中和區民享街37號","121.4741","25.00373","6500300","中和區"
"235024","647-TV","2017/09/18 14:04:52","新北市中和區民治街7巷3號","121.475216666667","25.0048083333333","6500300","中和區"
"235011","732-UM","2017/09/18 14:05:01","新北市中和區興南路二段32巷5號","121.507171666667","24.9854666666667","6500300","中和區"
"235010","733-UM","2017/09/18 14:04:49","新北市中和區興南路一段115號","121.509286666667","24.9878966666667","6500300","中和區"
"235026","800-TS","2017/09/18 14:04:53","新北市中和區中山路二段340巷13號","121.493521666667","25.002665","6500300","中和區"
"235021","801-TS","2017/09/18 14:04:41","新北市中和區民利街100巷4弄1號","121.477196666667","24.9982783333333","6500300","中和區"
"235005","802-TS","2017/09/18 14:04:55","新北市中和區永貞路221號","121.513756666667","25.003455","6500300","中和區"
"235016","805-TS","2017/09/18 14:04:55","新北市中和區興南路二段261巷3號","121.502906666667","24.980665","6500300","中和區"
"235012","896-TW","2017/09/18 14:04:44","新北市中和區忠孝街1巷1號","121.508733333333","24.9832166666667","6500300","中和區"
"235017","900-TW","2017/09/18 14:05:03","新北市板橋區和平路174巷33號","121.465118333333","24.994295","6500300","中和區"
"235027","911-UM","2017/09/18 14:05:00","新北市中和區中正路530號","121.487823333333","24.9944283333333","6500300","中和區"
"235001","AAC-213","2017/09/18 14:04:54","新北市中和區秀朗路三段10巷37弄1號","121.524153333333","24.9960766666667","6500300","中和區"
"235023","AAC-215","2017/09/18 14:04:59","新北市中和區圓通路294巷11弄11號","121.48807","24.9897866666667","6500300","中和區"
"220016","013-TV","2017/09/18 14:04:57","新北市板橋區中山路二段443巷36號","121.480996666667","25.0211766666667","6500100","板橋區"
"220013","072-UY","2017/09/18 14:04:44","新北市板橋區民族路247巷5弄2號","121.470501666667","25.00758","6500100","板橋區"
"220034","073-UY","2017/09/18 14:04:56","新北市板橋區中正路236巷11號","121.45643","25.0192133333333","6500100","板橋區"
"220105","075-UY","2017/09/18 14:04:56","新北市板橋區莒光路14號","121.469756666667","25.02477","6500100","板橋區"
"220017","AAD-861","2017/09/18 14:04:46","新北市板橋區華興街73-1號","121.457001666667","25.0050433333333","6500100","板橋區"
"247021","893-R6","2017/09/18 14:04:52","新北市蘆洲區民族路560號","121.46757","25.0888716666667","6501400","蘆洲區"
"247011","546-UM","2017/09/18 14:04:59","新北市蘆洲區信義路230號","121.478773333333","25.0858533333333","6501400","蘆洲區"
"247019","500-BY","2017/09/18 14:04:53","新北市蘆洲區仁愛街70巷22號","121.471376666667","25.09444","6501400","蘆洲區"
"247001","402-BY","2017/09/18 14:04:53","新北市三重區集賢路207號","121.483961666667","25.0870416666667","6501400","蘆洲區"
"247009","339-TH","2017/09/18 14:04:45","新北市蘆洲區中山一路42號","121.479515","25.0807883333333","6501400","蘆洲區"
"247001","337-TH","2017/09/18 14:05:01","新北市蘆洲區永平街32巷21弄2號","121.45922","25.0917333333333","6501400","蘆洲區"
"247003","336-TH","2017/09/18 14:04:51","新北市蘆洲區中華街6巷24號","121.462883333333","25.08213","6501400","蘆洲區"
"247015","057-VK","2017/09/18 14:04:27","新北市蘆洲區光華路22巷32號","121.468588333333","25.0845833333333","6501400","蘆洲區"
"247005","056-VK","2017/09/18 14:04:47","新北市蘆洲區九芎街63號","121.466985","25.07888","6501400","蘆洲區"
"247007","053-VK","2017/09/18 14:04:45","新北市蘆洲區國道路二段25號","121.475151666667","25.0737","6501400","蘆洲區"
"247013","007-UY","2017/09/18 14:04:50","新北市蘆洲區保和街87號","121.468968333333","25.0860016666667","6501400","蘆洲區"
"247017","001-UY","2017/09/18 14:04:41","新北市蘆洲區民族路304號","121.477621666667","25.0899833333333","6501400","蘆洲區"
"208004","AAC-292","2017/09/18 14:04:57","新北市金山區山城路10巷24弄44號","121.594013333333","25.200395","6502700","金山區"
"207002","749-BX","2017/09/18 14:04:31","新北市萬里區溪底里富士坪路19號","121.62421","25.1484466666667","6502800","萬里區"
"252005","249-BX","2017/09/18 14:04:55","新北市三芝區橫山里大坑34號","121.526848333333","25.2556683333333","6502100","三芝區"
"207001","662-BX","2017/09/18 14:04:59","新北市萬里區磺潭里清水18號","121.637898333333","25.1977433333333","6502800","萬里區"
"236064","105-UM","2017/09/18 14:04:47","新北市土城區中華路一段251號","121.440635","24.98114","6501300","土城區"
"236040","107-UM","2017/09/18 14:05:01","新北市土城區裕生路61號","121.447661666667","24.9861316666667","6501300","土城區"
"236074","166-UM","2017/09/18 14:04:53","新北市土城區永寧路32巷10弄73號","121.428651666667","24.9614016666667","6501300","土城區"
"236028","253-BX","2017/09/18 14:04:56","新北市土城區城林路6巷80號","121.438536666667","24.9798166666667","6501300","土城區"
"236024","269-VK","2017/09/18 14:04:49","新北市土城區承天路47號","121.439106666667","24.963615","6501300","土城區"
"236012","270-VK","2017/09/18 14:04:50","新北市土城區學府路一段22號","121.4588","24.988575","6501300","土城區"
"236032","271-VK","2017/09/18 14:04:51","新北市土城區學士路121號","121.446198333333","24.9758816666667","6501300","土城區"
"236016","401-BY","2017/09/18 14:05:04","新北市土城區城林路6巷80號","121.438205","24.9797583333333","6501300","土城區"
"236005","498-BY","2017/09/18 14:04:48","新北市土城區中央路一段251號","121.445266666667","24.9858016666667","6501300","土城區"
"236056","912-UM","2017/09/18 14:04:51","新北市土城區中央路三段250號","121.427621666667","24.9641433333333","6501300","土城區"
"236044","913-UM","2017/09/18 14:04:59","新北市土城區金城路二段2巷5號","121.447623333333","24.9760933333333","6501300","土城區"
"236060","915-UM","2017/09/18 14:04:53","新北市土城區學士路123號","121.446973333333","24.9758016666667","6501300","土城區"
"236052","AAC-216","2017/09/18 14:04:56","新北市土城區中央路二段280號","121.440773333333","24.9740216666667","6501300","土城區"
"242045","172-VK","2017/09/18 14:04:44","新北市樹林區八德街584號","121.398673333333","24.96929","6500500","新莊區"
"238008","308-TH","2017/09/18 13:30:47","新北市樹林區育德街76巷1號","121.38879","24.9683133333333","6500700","樹林區"
"221036","130-UY","2017/09/18 14:04:57","台北市南港區舊莊街二段282號","121.638958333333","25.0325616666667","6501100","汐止區"
"221010","646-BX","2017/09/18 14:04:55","新北市汐止區水源路二段72巷31弄9號","121.655905","25.0548316666667","6501100","汐止區"
"221002","753-BX","2017/09/18 14:04:27","台北市文山區新光路二段74巷5號","121.592188333333","24.9905116666667","6501100","汐止區"
"220027","145-BY","2017/09/18 14:04:44","新北市板橋區民權路260巷1弄6號","121.458071666667","25.0156833333333","6500100","板橋區"
"220028","200-UY","2017/09/18 14:04:56","新北市板橋區大觀路二段265巷20弄2號","121.442891666667","24.9982533333333","6500100","板橋區"
"220030","610-BX","2017/09/18 14:04:52","新北市板橋區滿平街90號","121.427738333333","24.9889866666667","6500100","板橋區"
"220050","245-BX","2017/09/18 14:04:48","新北市板橋區莊敬路78-2號","121.471628333333","25.025","6500100","板橋區"
"220046","257-TC","2017/09/18 14:04:50","新北市板橋區國光路200號","121.461638333333","25.0185233333333","6500100","板橋區"
"220004","276-BY","2017/09/18 14:04:57","新北市板橋區信義路150巷49號","121.457198333333","24.9917833333333","6500100","板橋區"
"220020","277-BY","2017/09/18 14:04:52","新北市板橋區溪北路154號","121.43049","24.9883033333333","6500100","板橋區"
"220012","282-UM","2017/09/18 14:04:42","新北市板橋區中山路一段317號","121.471735","25.0149116666667","6500100","板橋區"
"220019","283-VK","2017/09/18 14:04:47","新北市板橋區重慶路269巷59號","121.465063333333","24.9989566666667","6500100","板橋區"
"220043","285-UM","2017/09/18 14:04:58","新北市板橋區光武街38號","121.467373333333","25.02599","6500100","板橋區"
"220001","285-VK","2017/09/18 14:04:51","新北市板橋區太和街6巷2號","121.473826666667","25.019925","6500100","板橋區"
"220031","286-VK","2017/09/18 14:05:00","新北市板橋區大觀路一段38巷184號","121.441391666667","25.0046833333333","6500100","板橋區"
"220029","287-VK","2017/09/18 13:40:23","新北市板橋區大觀路2段435-7號","121.447921666667","24.9955533333333","6500100","板橋區"
"220039","288-VK","2017/09/18 14:04:55","新北市板橋區四維路232號","121.463543333333","25.02792","6500100","板橋區"
"220009","295-UM","2017/09/18 14:04:50","新北市板橋區中山路二段295巷17號","121.477856666667","25.018745","6500100","板橋區"
"220023","297-UM","2017/09/18 14:04:51","新北市板橋區南雅西路二段206號","121.451843333333","25.014955","6500100","板橋區"
"242001","281-VK","2017/09/18 14:04:49","新北市新莊區碧江街40號","121.453776666667","25.0339416666667","6500500","新莊區"
"220010","305-R5","2017/09/18 14:04:52","新北市板橋區三民路二段245巷4弄10號","121.480891666667","25.0117833333333","6500100","板橋區"
"220041","307-R5","2017/09/18 14:04:54","新北市板橋區文化路二段119號","121.469858333333","25.0264116666667","6500100","板橋區"
"220047","317-R6","2017/09/18 14:04:53","新北市板橋區陽明街164巷36號","121.465086666667","25.0243516666667","6500100","板橋區"
"220038","487-VK","2017/09/18 14:04:57","新北市板橋區文化路二段472號","121.475065","25.03268","6500100","板橋區"
"220037","491-VK","2017/09/18 14:04:58","新北市板橋區莊敬路56號","121.472813333333","25.026915","6500100","板橋區"
"220104","560-BX","2017/09/18 14:05:04","新北市板橋區中正路379巷1弄17號","121.453188333333","25.0215533333333","6500100","板橋區"
"220052","561-BX","2017/09/18 14:04:57","新北市板橋區文化路一段188巷9弄48號","121.46879","25.018695","6500100","板橋區"
"220032","568-UM","2017/09/18 14:04:53","新北市板橋區大觀路三段59巷17弄6-1號","121.436355","24.9955","6500100","板橋區"
"220011","609-BX","2017/09/18 14:04:54","新北市板橋區民生路一段74號","121.473746666667","25.01533","6500100","板橋區"
"220040","637-BX","2017/09/18 14:04:52","新北市板橋區文聖街207-3號","121.47968","25.0266483333333","6500100","板橋區"
"220005","686-BX","2017/09/18 14:04:44","新北市板橋區重慶路163號","121.462628333333","25.0027283333333","6500100","板橋區"
"220025","687-BX","2017/09/18 14:04:57","新北市板橋區大觀路二段174巷190號","121.442203333333","25.003895","6500100","板橋區"
"220002","741-BX","2017/09/18 14:05:01","新北市板橋區重慶路139巷19號","121.463605","25.0046883333333","6500100","板橋區"
"220003","827-TW","2017/09/18 14:04:51","新北市板橋區民族路57號","121.464536666667","25.0090433333333","6500100","板橋區"
"220014","829-TW","2017/09/18 14:04:48","新北市板橋區民享街116巷17號","121.4787","25.0154466666667","6500100","板橋區"
"220051","830-TW","2017/09/18 14:04:52","新北市板橋區懷德街201巷20號","121.481626666667","25.0295883333333","6500100","板橋區"
"220045","831-TW","2017/09/18 14:04:49","新北市板橋區莒光路157號","121.473673333333","25.0241266666667","6500100","板橋區"
"220042","833-TW","2017/09/18 14:04:52","新北市板橋區民生路三段224號","121.464733333333","25.0300566666667","6500100","板橋區"
"220022","895-R6","2017/09/18 14:04:44","新北市板橋區南雅南路一段105號","121.455451666667","25.0050666666667","6500100","板橋區"
"220021","985-R7","2017/09/18 14:04:57","新北市板橋區西門街59號","121.454471666667","25.00924","6500100","板橋區"
"220018","AAC-253","2017/09/18 14:04:48","新北市板橋區四川路一段489號","121.457148333333","24.9971616666667","6500100","板橋區"
