"lineid","car","time","location","longitude","latitude","cityid","cityname"
"234026","9371-KE","2017/09/18 17:31:21","新北市永和區福和路1號","121.526461666667","25.00967","6500400","永和區"
"249005","172-UM","2017/09/18 17:31:24","新北市八里區荖阡坑路36號","121.408685","25.1254166666667","6502300","八里區"
"249001","173-UM","2017/09/18 17:31:35","新北市八里區龍米路三段15號","121.427915","25.15921","6502300","八里區"
"249004","303-UY","2017/09/18 17:31:18","新北市八里區民治街102號","121.413391666667","25.15684","6502300","八里區"
"249002","305-UY","2017/09/18 17:31:28","新北市八里區龍米路二段117巷33號","121.4457","25.1430116666667","6502300","八里區"
"249003","593-UM","2017/09/18 17:31:33","新北市八里區中山路二段315號","121.400645","25.14773","6502300","八里區"
"232011","375-UM","2017/09/18 17:31:29","新北市坪林區北宜路八段558號","121.718006666667","24.9091966666667","6502000","坪林區"
"244013","069-UM","2017/09/18 17:31:37","新北市林口區中山路305號","121.383775","25.0804516666667","6501700","林口區"
"244007","080-UY","2017/09/18 17:31:32","新北市林口區菁埔46-2號","121.383623333333","25.0949783333333","6501700","林口區"
"244019","403-UM","2017/09/18 17:31:33","新北市林口區公園路163號","121.370875","25.071475","6501700","林口區"
"244009","410-SL","2017/09/18 17:31:31","新北市林口區中北一街14號","121.385763333333","25.0870033333333","6501700","林口區"
"244023","483-VK","2017/09/18 17:31:26","新北市林口區東明一街35巷8號","121.392053333333","25.071935","6501700","林口區"
"244017","485-VK","2017/09/18 17:31:29","新北市林口區粉寮路二段221號","121.404195","25.0904083333333","6501700","林口區"
"244011","656-BX","2017/09/18 17:31:25","新北市林口區仁愛路一段671號","121.387461666667","25.0766683333333","6501700","林口區"
"244025","837-TS","2017/09/18 17:31:33","新北市林口區民族路157號","121.367088333333","25.0764716666667","6501700","林口區"
"244021","838-TS","2017/09/18 17:31:30","新北市林口區粉寮路60-16號","121.404396666667","25.0896583333333","6501700","林口區"
"243009","297-R6","2017/09/18 15:51:38","新北市泰山區黎明路25號","121.421913333333","25.0609716666667","6501600","泰山區"
"231046","278-BY","2017/09/18 17:31:31","新北市新店區直潭路92號","121.530915","24.9375733333333","6500600","新店區"
"241011","013-R5","2017/09/18 17:31:34","新北市三重區龍濱路130-1號","121.501711666667","25.07178","6500200","三重區"
"241015","062-VK","2017/09/18 17:31:33","新北市三重區三和路一段47巷18-2號","121.50362","25.065695","6500200","三重區"
"241017","063-VK","2017/09/18 17:31:22","新北市三重區中正北路25巷25弄3號","121.493276666667","25.06261","6500200","三重區"
"241024","065-VK","2017/09/18 17:31:27","新北市三重區大勇街82巷15弄3號","121.479898333333","25.0718366666667","6500200","三重區"
"241005","262-UM","2017/09/18 17:31:33","新北市三重區永安北路二段5巷19號","121.482221666667","25.08097","6500200","三重區"
"241016","266-UM","2017/09/18 17:31:35","新北市三重區信義西街41號","121.495245","25.0639733333333","6500200","三重區"
"241032","269-UM","2017/09/18 17:31:21","新北市三重區名源街61巷1號","121.481976666667","25.05937","6500200","三重區"
"241013","270-UM","2017/09/18 17:31:35","新北市三重區仁愛街112巷4號","121.494716666667","25.0744166666667","6500200","三重區"
"241025","271-UM","2017/09/18 17:31:30","新北市三重區中正北路311號","121.473986666667","25.0714666666667","6500200","三重區"
"241007","398-BY","2017/09/18 17:31:29","新北市三重區三和路四段145巷188號","121.488881666667","25.0796433333333","6500200","三重區"
"241020","413-TH","2017/09/18 17:31:35","新北市三重區忠孝路一段183號","121.487406666667","25.0716816666667","6500200","三重區"
"241019","478-VK","2017/09/18 17:31:23","新北市三重區自強路二段26巷17號","121.488905","25.0690433333333","6500200","三重區"
"241030","480-VK","2017/09/18 17:31:22","新北市三重區中正南路252巷5號","121.49369","25.0527416666667","6500200","三重區"
"241014","543-UM","2017/09/18 17:31:25","新北市三重區安和路13號","121.50122","25.0683083333333","6500200","三重區"
"241023","545-UM","2017/09/18 17:31:21","新北市三重區忠孝路三段84巷30號","121.481536666667","25.0641583333333","6500200","三重區"
"241018","887-TS","2017/09/18 17:31:33","新北市三重區大智街45-2號","121.493381666667","25.06652","6500200","三重區"
"241012","941-UM","2017/09/18 17:31:36","新北市三重區仁興街24巷22號","121.49872","25.0749366666667","6500200","三重區"
"241029","942-UM","2017/09/18 17:31:29","新北市五股區成泰路四段22巷10-2號","121.454236666667","25.1048616666667","6500200","三重區"
"241033","AAC-255","2017/09/18 17:31:25","新北市三重區興德路131巷28號","121.469826666667","25.0538766666667","6500200","三重區"
"235064","005-UY","2017/09/18 16:50:26","新北市中和區員山路36巷16-3號","121.485065","24.9912716666667","6500300","中和區"
"235061","378-QA","2017/09/18 17:20:53","新北市中和區員山路36巷16-2號","121.485291666667","24.99165","6500300","中和區"
"235062","800-TS","2017/09/18 17:14:45","新北市中和區員山路36巷16-2號","121.48523","24.9914716666667","6500300","中和區"
"247022","893-R6","2017/09/18 17:31:35","新北市蘆洲區三民路341-2號","121.465011666667","25.0909633333333","6501400","蘆洲區"
"247012","546-UM","2017/09/18 17:31:23","新北市蘆洲區復興路58號","121.474121666667","25.08615","6501400","蘆洲區"
"247020","500-BY","2017/09/18 17:31:29","新北市蘆洲區水湳街257號","121.469456666667","25.09224","6501400","蘆洲區"
"247001","402-BY","2017/09/18 16:32:08","新北市五股區中興路三段3-6號","121.449578333333","25.0787466666667","6501400","蘆洲區"
"247010","339-TH","2017/09/18 17:31:36","新北市蘆洲區中山一路120巷25號","121.478061666667","25.08206","6501400","蘆洲區"
"247002","337-TH","2017/09/18 17:31:21","新北市蘆洲區永平街32號","121.458625","25.091115","6501400","蘆洲區"
"247004","336-TH","2017/09/18 17:31:26","新北市蘆洲區長安街233巷26號","121.458426666667","25.0824783333333","6501400","蘆洲區"
"247016","057-VK","2017/09/18 17:31:19","新北市蘆洲區光華路22巷39號","121.468326666667","25.084635","6501400","蘆洲區"
"247006","056-VK","2017/09/18 17:31:21","新北市蘆洲區長安街22巷39弄15號","121.464468333333","25.08074","6501400","蘆洲區"
"247008","053-VK","2017/09/18 17:31:24","新北市蘆洲區成功路1號","121.473953333333","25.0775816666667","6501400","蘆洲區"
"247014","007-UY","2017/09/18 17:31:35","新北市蘆洲區三民路34號","121.475518333333","25.0828783333333","6501400","蘆洲區"
"247024","002-UY","2017/09/18 17:31:22","新北市蘆洲區長興路296-8號","121.460628333333","25.09023","6501400","蘆洲區"
"247018","001-UY","2017/09/18 17:31:36","新北市蘆洲區民義街22巷13號","121.47176","25.08821","6501400","蘆洲區"
"228003","097-TW","2017/09/18 17:31:33","新北市貢寮區仁理村仁和路2-1號","121.92311","25.0487183333333","6502600","貢寮區"
"228002","585-TW","2017/09/18 17:31:25","新北市貢寮區福隆里福隆街11號","121.944766666667","25.0161616666667","6502600","貢寮區"
"228001","670-TC","2017/09/18 17:31:17","新北市貢寮區仁理村仁愛路66巷3號","121.925998333333","25.0535466666667","6502600","貢寮區"
"224010","AGQ-8101","2017/09/18 17:26:47","新北市瑞芳區明燈路二段83號","121.810241666667","25.1081","6501200","瑞芳區"
"224006","676-BX","2017/09/18 17:31:23","新北市瑞芳區傑魚坑路147-1號","121.790213333333","25.109675","6501200","瑞芳區"
"224009","285-BY","2017/09/18 17:31:22","新北市瑞芳區基山街31巷24號","121.846265","25.1104133333333","6501200","瑞芳區"
"224008","275-VK","2017/09/18 17:31:22","新北市瑞芳區九芎橋路17號","121.832773333333","25.0927133333333","6501200","瑞芳區"
"224005","271-BY","2017/09/18 17:31:16","新北市瑞芳區籠山路12號","121.833693333333","25.1263516666667","6501200","瑞芳區"
"227001","400-TW","2017/09/18 17:31:33","新北市雙溪區平林里梅竹蹊42-1號","121.861148333333","25.036135","6502500","雙溪區"
"251009","008-UM","2017/09/18 17:31:20","新北市淡水區新生街108巷12號","121.439616666667","25.1742316666667","6501000","淡水區"
"251004","009-UM","2017/09/18 17:31:20","新北市淡水區中正東路二段88巷15號","121.45918","25.1505316666667","6501000","淡水區"
"251007","179-VK","2017/09/18 17:31:31","新北市淡水區民生路61號","121.462943333333","25.13826","6501000","淡水區"
"251008","181-VK","2017/09/18 17:31:29","新北市淡水區大同路124巷14號","121.463541666667","25.1401183333333","6501000","淡水區"
"251013","182-VK","2017/09/18 17:31:30","新北市淡水區大竹圍5-1號","121.466476666667","25.1946616666667","6501000","淡水區"
"251010","413-VK","2017/09/18 17:31:16","新北市淡水區中正路二段200巷5號","121.424878333333","25.1881716666667","6501000","淡水區"
"251012","441-VK","2017/09/18 17:31:33","新北市淡水區北新路111號","121.448155","25.1784766666667","6501000","淡水區"
"251015","442-VK","2017/09/18 17:31:36","新北市淡水區樹林口7-1號","121.479608333333","25.1676116666667","6501000","淡水區"
"251005","443-VK","2017/09/18 17:31:34","新北市淡水區鄧公路33巷18號","121.452025","25.17072","6501000","淡水區"
"251001","559-UM","2017/09/18 17:31:37","新北市淡水區民權路92巷35-1號","121.462206666667","25.1266716666667","6501000","淡水區"
"251006","561-UM","2017/09/18 17:31:30","新北市淡水區大仁街29號","121.442653333333","25.1754466666667","6501000","淡水區"
"251011","650-BX","2017/09/18 17:31:23","新北市淡水區坪頂路718號","121.482575","25.15847","6501000","淡水區"
"251002","672-BX","2017/09/18 17:31:22","新北市淡水區中正路437號","121.432025","25.1747416666667","6501000","淡水區"
"251003","766-UM","2017/09/18 17:31:23","新北市淡水區中山路161號","121.44108","25.173755","6501000","淡水區"
"207003","550-UM","2017/09/18 17:31:37","新北市萬里區龜吼里亭路11-1號","121.683631666667","25.1910483333333","6502800","萬里區"
"207004","225-TW","2017/09/18 17:31:35","新北市萬里區萬里里景美路3號","121.683553333333","25.1721633333333","6502800","萬里區"
"252002","178-VK","2017/09/18 17:31:21","新北市三芝區忠孝街1-16號","121.505575","25.2538716666667","6502100","三芝區"
"252001","292-VK","2017/09/18 17:31:18","新北市三芝區長安街119號","121.498065","25.2596616666667","6502100","三芝區"
"252006","AAC-283","2017/09/18 16:42:18","新北市三芝區埔坪里埔頭坑41號","121.504495","25.2644333333333","6502100","三芝區"
"237011","572-TV","2017/09/18 12:59:37","新北市三峽區中山路459巷163-3號","121.34881","24.9328416666667","6500900","三峽區"
"237015","649-BX","2017/09/18 17:31:25","新北市三峽區中山路365號","121.358876666667","24.9371983333333","6500900","三峽區"
"236078","166-UM","2017/09/18 17:31:24","新北市土城區城林路6巷80號","121.438643333333","24.979815","6501300","土城區"
"242031","AAC-296","2017/09/18 17:31:32","新北市新莊區新泰路401巷4號","121.443278333333","25.04409","6500500","新莊區"
"242029","986-R7","2017/09/18 17:31:34","新北市新莊區復興路二段186號","121.459045","25.0443533333333","6500500","新莊區"
"242050","751-BX","2017/09/18 17:31:27","新北市新莊區新樹路268巷84號","121.430816666667","25.0162966666667","6500500","新莊區"
"242025","615-BX","2017/09/18 17:31:19","新北市新莊區復興路二段39號","121.454433333333","25.0441483333333","6500500","新莊區"
"242023","613-BX","2017/09/18 17:31:35","新北市新莊區公園路174號","121.453851666667","25.0401766666667","6500500","新莊區"
"242027","612-BX","2017/09/18 17:31:24","新北市新莊區思源路319號","121.459836666667","25.0492866666667","6500500","新莊區"
"242039","566-BX","2017/09/18 17:31:17","新北市新莊區民安東路31號","121.428553333333","25.02098","6500500","新莊區"
"242034","497-BY","2017/09/18 17:31:26","新北市新莊區新莊路495號","121.44866","25.0333283333333","6500500","新莊區"
"242044","442-UM","2017/09/18 17:31:28","新北市新莊區富國路62號","121.419646666667","25.0260383333333","6500500","新莊區"
"242048","441-UM","2017/09/18 17:31:30","新北市新莊區四維路212巷15號","121.420901666667","25.02026","6500500","新莊區"
"242053","440-UM","2017/09/18 17:31:34","新北市新莊區瓊林南路220號","121.433535","25.0056683333333","6500500","新莊區"
"242004","413-TV","2017/09/18 17:31:26","新北市新莊區中港路288巷37號","121.454056666667","25.04478","6500500","新莊區"
"242042","400-BY","2017/09/18 17:31:22","新北市新莊區建國一路5號","121.433753333333","25.0319116666667","6500500","新莊區"
"242060","362-BY","2017/09/18 17:31:32","新北市新莊區瓊林南路6號","121.437415","25.0199783333333","6500500","新莊區"
"242058","353-BY","2017/09/18 17:31:22","新北市新莊區中正路502號","121.436","25.0329283333333","6500500","新莊區"
"242007","132-UY","2017/09/18 17:31:36","新北市新莊區自強街50號","121.454748333333","25.0466983333333","6500500","新莊區"
"242036","133-UY","2017/09/18 17:31:31","新北市新莊區後港一路195號","121.434316666667","25.0283016666667","6500500","新莊區"
"242021","135-UY","2017/09/18 17:31:34","新北市新莊區中華路一段18號","121.452026666667","25.0371216666667","6500500","新莊區"
"242046","172-VK","2017/09/18 17:31:27","新北市新莊區福營路6號","121.44034","25.0326666666667","6500500","新莊區"
"242009","173-VK","2017/09/18 17:31:22","新北市新莊區中原路107號","121.455878333333","25.0544283333333","6500500","新莊區"
"242015","175-VK","2017/09/18 17:31:39","新北市新莊區新泰路216號","121.446731666667","25.0388733333333","6500500","新莊區"
"242002","176-VK","2017/09/18 17:31:19","新北市新莊區新莊路180號","121.454661666667","25.0350983333333","6500500","新莊區"
"242013","346-TH","2017/09/18 17:31:34","新北市新莊區中誠街16巷28號","121.451898333333","25.048775","6500500","新莊區"
"242019","348-TH","2017/09/18 17:31:37","新北市新莊區中港路93號","121.455421666667","25.0392816666667","6500500","新莊區"
"242056","349-TH","2017/09/18 17:31:24","新北市新莊區新泰路2號","121.449751666667","25.0324766666667","6500500","新莊區"
"242017","350-TH","2017/09/18 17:31:32","新北市新莊區中港路299巷37號","121.451486666667","25.0440066666667","6500500","新莊區"
"238015","755-BX","2017/09/18 17:31:22","新北市樹林區大安路267號","121.419075","24.99372","6500700","樹林區"
"238010","601-UM","2017/09/18 17:31:25","新北市樹林區中正路433號","121.415025","25.0085866666667","6500700","樹林區"
"238019","599-UM","2017/09/18 17:31:24","新北市樹林區太平路7號","121.41898","24.9839283333333","6500700","樹林區"
"238018","571-TV","2017/09/18 17:31:24","新北市樹林區鎮前街269巷37號","121.419215","24.984905","6500700","樹林區"
"238024","5061-A6","2017/09/18 17:31:24","新北市樹林區鎮前街168號","121.42433","24.9899183333333","6500700","樹林區"
"238021","KEA-2217","2017/09/18 17:31:26","新北市樹林區民權街37巷10-11號","121.398316666667","24.9602566666667","6500700","樹林區"
"238022","KEA-2213","2017/09/18 17:31:34","新北市樹林區信義街6號","121.422373333333","24.9817383333333","6500700","樹林區"
"238008","308-TH","2017/09/18 13:30:47","新北市樹林區育德街76巷1號","121.38879","24.9683133333333","6500700","樹林區"
"238025","303-VK","2017/09/18 17:31:24","新北市樹林區保安街一段262號","121.419781666667","24.996865","6500700","樹林區"
"238017","283-BY","2017/09/18 17:31:33","新北市樹林區光武街35號","121.416631666667","25.0066216666667","6500700","樹林區"
"238014","282-BY","2017/09/18 17:31:26","新北市樹林區長壽街70巷31弄1號","121.421255","24.9946583333333","6500700","樹林區"
"238020","268-VK","2017/09/18 17:31:37","新北市樹林區俊英街108-1號","121.427496666667","25.005415","6500700","樹林區"
"238026","172-UY","2017/09/18 17:31:20","新北市樹林區新興街22號","121.40004","24.9727416666667","6500700","樹林區"
"238016","169-UY","2017/09/18 17:31:26","新北市樹林區長壽街15-8號","121.42278","24.9936066666667","6500700","樹林區"
"239007","AAC-297","2017/09/18 17:31:32","新北市鶯歌區國光街112號","121.341351666667","24.956095","6500800","鶯歌區"
"239006","891-R6","2017/09/18 17:31:23","新北市鶯歌區鶯桃路472巷26號","121.333351666667","24.965995","6500800","鶯歌區"
"239008","527-UM","2017/09/18 17:31:27","新北市鶯歌區大湖路760號","121.331998333333","24.9771866666667","6500800","鶯歌區"
"239005","526-UM","2017/09/18 17:31:39","桃園市桃園區大仁路101巷6號","121.323558333333","24.971045","6500800","鶯歌區"
"239001","417-VK","2017/09/18 17:31:39","新北市鶯歌區高職西街7號","121.338025","24.9424016666667","6500800","鶯歌區"
"239003","360-BY","2017/09/18 17:31:17","新北市鶯歌區鶯桃路191號","121.33754","24.9586583333333","6500800","鶯歌區"
"239002","359-BY","2017/09/18 17:31:20","新北市鶯歌區南雅路457號","121.346418333333","24.9539966666667","6500800","鶯歌區"
"239004","193-VK","2017/09/18 17:31:30","新北市鶯歌區三鶯路29巷19號","121.354758333333","24.9403883333333","6500800","鶯歌區"
"221036","130-UY","2017/09/18 17:31:37","新北市汐止區汐萬路一段256巷1號","121.65183","25.07484","6501100","汐止區"
"221033","647-BX","2017/09/18 17:31:03","新北市汐止區樟樹二路349號","121.642146666667","25.0734916666667","6501100","汐止區"
"221018","753-BX","2017/09/18 17:31:21","新北市汐止區汐萬路一段125號","121.653988333333","25.071235","6501100","汐止區"
"242001","281-VK","2017/09/18 17:00:36","新北市新莊區環河路636-7號","121.437383333333","25.0112416666667","6500500","新莊區"
"242011","280-VK","2017/09/18 17:31:30","新北市新莊區中港路471號","121.452291666667","25.04916","6500500","新莊區"
"220051","830-TW","2017/09/18 16:49:51","新北市板橋區民生路二段188號","121.46997","25.0203883333333","6500100","板橋區"
