"lineid","car","time","location","longitude","latitude","cityid","cityname"
"234007","207-UY","2017/09/18 18:28:45","新北市永和區環河西路二段229巷3號","121.5014","25.0098966666667","6500400","永和區"
"234081","298-R6","2017/09/18 18:28:33","新北市永和區林森路46巷1號","121.524975","25.0047916666667","6500400","永和區"
"234017","745-BX","2017/09/18 18:28:32","新北市永和區福和路1號","121.526433333333","25.0098","6500400","永和區"
"234030","746-BX","2017/09/18 18:28:43","新北市永和區福和路1號","121.526361666667","25.0096183333333","6500400","永和區"
"234042","862-TW","2017/09/18 18:28:28","新北市永和區福和路1號","121.526525","25.0096433333333","6500400","永和區"
"234050","863-TW","2017/09/18 18:28:33","新北市永和區福和路1號","121.526883333333","25.0098933333333","6500400","永和區"
"234026","9371-KE","2017/09/18 18:28:41","新北市永和區中正路734號","121.515366666667","25.010135","6500400","永和區"
"234011","9373-KE","2017/09/18 18:28:37","新北市永和區保安路78號","121.509835","25.0162966666667","6500400","永和區"
"249005","172-UM","2017/09/18 18:28:43","新北市八里區中華路三段89-3號","121.393463333333","25.1394933333333","6502300","八里區"
"249001","173-UM","2017/09/18 18:28:35","新北市八里區龍米路一段226號","121.45174","25.1285933333333","6502300","八里區"
"249004","303-UY","2017/09/18 18:28:38","新北市八里區忠孝路120號","121.42557","25.1604733333333","6502300","八里區"
"249002","305-UY","2017/09/18 18:28:28","新北市八里區龍形三街15巷2號","121.44961","25.131575","6502300","八里區"
"248016","026-BX","2017/09/18 18:28:41","新北市五股區凌雲路一段83巷22弄1號","121.449881666667","25.1007383333333","6501500","五股區"
"248006","077-UY","2017/09/18 18:28:30","新北市五股區四維路77號","121.467293333333","25.07225","6501500","五股區"
"248008","095-VK","2017/09/18 18:28:45","新北市五股區中興路二段78-5號","121.461566666667","25.0784983333333","6501500","五股區"
"248018","225-UY","2017/09/18 18:28:39","新北市五股區御史路300號","121.418008333333","25.107865","6501500","五股區"
"248012","247-BX","2017/09/18 18:28:42","新北市五股區御成路148號","121.440865","25.09442","6501500","五股區"
"248014","261-SL","2017/09/18 18:28:42","新北市五股區自強路90巷38號","121.432065","25.0717783333333","6501500","五股區"
"248010","272-BY","2017/09/18 18:28:34","新北市五股區水碓路16巷3-1號","121.43372","25.07277","6501500","五股區"
"248002","678-BX","2017/09/18 18:28:48","新北市五股區西雲路116-6號","121.444743333333","25.0936516666667","6501500","五股區"
"248004","682-TV","2017/09/18 18:28:39","新北市五股區工商路84-1號","121.437945","25.0851166666667","6501500","五股區"
"234077","969-R7","2017/09/18 18:28:34","新北市永和區福和路1號","121.525651666667","25.0094883333333","6500400","永和區"
"232011","375-UM","2017/09/18 18:21:51","新北市坪林區坪雙路一段43號","121.71176","24.94245","6502000","坪林區"
"244013","069-UM","2017/09/18 18:28:37","新北市林口區中山路299號","121.383941666667","25.0800166666667","6501700","林口區"
"244007","080-UY","2017/09/18 18:28:32","新北市林口區後湖11-63號","121.387031666667","25.0976283333333","6501700","林口區"
"244019","403-UM","2017/09/18 18:28:33","新北市林口區忠孝路561巷10號","121.373286666667","25.0688","6501700","林口區"
"244009","410-SL","2017/09/18 18:28:31","新北市林口區文林三街121號","121.375101666667","25.08733","6501700","林口區"
"244023","483-VK","2017/09/18 18:28:41","新北市林口區四維路245巷20號","121.382018333333","25.075075","6501700","林口區"
"244017","485-VK","2017/09/18 18:28:29","新北市林口區文化二路一段20巷25弄55號","121.366575","25.0672783333333","6501700","林口區"
"244011","656-BX","2017/09/18 18:28:45","新北市林口區林口路13號","121.391578333333","25.0777816666667","6501700","林口區"
"244025","837-TS","2017/09/18 18:28:33","新北市林口區南勢六街81巷16號","121.354403333333","25.0721283333333","6501700","林口區"
"244021","838-TS","2017/09/18 18:28:30","新北市林口區工六路6巷8號","121.397465","25.0786866666667","6501700","林口區"
"243013","AAD-798","2017/09/18 18:25:43","新北市泰山區錢厝坑13號","121.414163333333","25.042485","6501600","泰山區"
"243009","297-R6","2017/09/18 15:51:38","新北市泰山區黎明路25號","121.421913333333","25.0609716666667","6501600","泰山區"
"243012","646-TV","2017/09/18 18:28:28","新北市泰山區泰林路二段501號","121.424575","25.0639333333333","6501600","泰山區"
"222003","436-BY","2017/09/18 18:28:28","新北市深坑區旺耽路39巷13號","121.628285","25.0036","6501800","深坑區"
"222002","659-BX","2017/09/18 18:28:37","新北市深坑區雲鄉路133號","121.62281","24.998045","6501800","深坑區"
"222001","696-SL","2017/09/18 18:28:44","新北市深坑區北深路一段199號","121.63088","25.0095183333333","6501800","深坑區"
"231041","002-UM","2017/09/18 18:28:47","新北市新店區安華路28-1號","121.519933333333","24.96084","6500600","新店區"
"231055","0293-UT","2017/09/18 18:28:32","新北市新店區中正路128巷17號","121.542586666667","24.9724766666667","6500600","新店區"
"231059","046-UY","2017/09/18 18:28:40","新北市新店區安華路28-1號","121.519745","24.9609416666667","6500600","新店區"
"231061","047-UY","2017/09/18 18:28:40","新北市新店區安華路28-1號","121.519111666667","24.96089","6500600","新店區"
"231060","106-UY","2017/09/18 18:28:29","新北市新店區安華路28-1號","121.519758333333","24.960915","6500600","新店區"
"231051","107-UY","2017/09/18 18:28:40","新北市新店區安華路28-1號","121.519265","24.961415","6500600","新店區"
"231047","108-UY","2017/09/18 18:28:41","新北市新店區安華路28-1號","121.519678333333","24.9609466666667","6500600","新店區"
"231052","187-VK","2017/09/18 18:28:39","新北市新店區北宜路一段222號","121.544081666667","24.9531266666667","6500600","新店區"
"231050","215-TC","2017/09/18 18:28:27","新北市新店區安華路28-1號","121.520058333333","24.96121","6500600","新店區"
"231057","256-BX","2017/09/18 18:28:35","新北市新店區安康路一段3-1號","121.535298333333","24.96093","6500600","新店區"
"231063","268-BY","2017/09/18 18:28:41","新北市新店區安華路28-1號","121.519581666667","24.9608433333333","6500600","新店區"
"231046","278-BY","2017/09/18 18:28:31","新北市新店區直潭七街60號","121.532275","24.9397966666667","6500600","新店區"
"231054","AAD-862","2017/09/18 16:22:51","新北市新店區安華路28-1號","121.519938333333","24.96125","6500600","新店區"
"231058","3712-VJ","2017/09/18 18:28:29","新北市新店區國校路5號","121.537991666667","24.9567316666667","6500600","新店區"
"231056","4716-K9","2017/09/18 18:28:28","新北市新店區中正路420號","121.534495","24.9779883333333","6500600","新店區"
"231067","4772-VM","2017/09/18 18:28:32","新北市新店區安華路1-1號","121.519095","24.9605916666667","6500600","新店區"
"231065","512-UM","2017/09/18 16:03:03","新北市新店區安華路28-1號","121.519433333333","24.9609483333333","6500600","新店區"
"231064","515-UM","2017/09/18 16:32:32","新北市新店區安華路28-1號","121.51978","24.961295","6500600","新店區"
"231040","619-UM","2017/09/18 18:28:30","新北市新店區安華路28-1號","121.519815","24.9608133333333","6500600","新店區"
"231042","641-BX","2017/09/18 18:28:41","新北市新店區安康路一段355-3號","121.519708333333","24.9615883333333","6500600","新店區"
"231049","719-UM","2017/09/18 18:28:42","新北市新店區安康路一段355-3號","121.519363333333","24.96162","6500600","新店區"
"231062","720-UM","2017/09/18 18:28:28","新北市新店區安華路28-1號","121.519123333333","24.9612866666667","6500600","新店區"
"231044","897-TW","2017/09/18 18:28:31","新北市新店區安華路28-1號","121.519665","24.9607766666667","6500600","新店區"
"231045","898-TW","2017/09/18 18:28:35","新北市新店區安華路28-1號","121.519258333333","24.9609383333333","6500600","新店區"
"231043","899-TW","2017/09/18 18:28:35","新北市新店區安華路28-1號","121.519258333333","24.9608683333333","6500600","新店區"
"231066","AKT-0513","2017/09/18 18:28:38","新北市新店區安華路28-1號","121.51953","24.9606516666667","6500600","新店區"
"235066","003-UY","2017/09/18 18:28:34","新北市中和區中山路二段119號","121.502946666667","25.0037066666667","6500300","中和區"
"235064","005-UY","2017/09/18 18:28:38","新北市中和區中興街118巷8號","121.49994","24.9933866666667","6500300","中和區"
"235056","096-UM","2017/09/18 18:28:32","新北市中和區員山路611巷5弄1號","121.477933333333","25.0112016666667","6500300","中和區"
"235039","097-UM","2017/09/18 18:28:47","新北市中和區宜安路63號","121.511446666667","24.996955","6500300","中和區"
"235065","098-UM","2017/09/18 18:28:30","新北市中和區莊敬路49巷18號","121.501631666667","25.0062033333333","6500300","中和區"
"235040","150-BY","2017/09/18 18:28:29","新北市中和區安平路38號","121.509808333333","24.99495","6500300","中和區"
"235058","151-BY","2017/09/18 18:28:32","新北市中和區圓通路369巷30弄50號","121.488426666667","24.9841083333333","6500300","中和區"
"235055","183-VK","2017/09/18 18:28:45","新北市中和區員山路485號","121.480053333333","25.0055266666667","6500300","中和區"
"235038","185-VK","2017/09/18 18:28:30","新北市中和區秀朗路三段128巷17弄4號","121.52428","24.9935433333333","6500300","中和區"
"235049","186-VK","2017/09/18 18:28:37","新北市中和區景安路142號","121.505093333333","24.99412","6500300","中和區"
"235067","255-BX","2017/09/18 18:28:34","新北市中和區連城路469巷79弄16號","121.483855","24.9936816666667","6500300","中和區"
"235072","301-VK","2017/09/18 18:28:35","新北市中和區連城路169號","121.495461666667","24.9984366666667","6500300","中和區"
"235043","352-BY","2017/09/18 18:28:44","新北市中和區景平路305號","121.506563333333","24.993135","6500300","中和區"
"235051","376-QA","2017/09/18 18:28:28","新北市中和區興南路二段242巷14號","121.502521666667","24.9830666666667","6500300","中和區"
"235068","377-QA","2017/09/18 18:28:45","新北市中和區錦和路203巷9號","121.49131","24.990535","6500300","中和區"
"235061","378-QA","2017/09/18 18:28:44","新北市中和區民享街116巷14號","121.473901666667","24.9989416666667","6500300","中和區"
"235050","4979-A6","2017/09/18 18:28:27","新北市中和區興南路一段1號","121.511491666667","24.9912066666667","6500300","中和區"
"235069","4980-A6","2017/09/18 18:28:40","新北市中和區連城路127巷23號","121.496933333333","24.99786","6500300","中和區"
"235042","551-UM","2017/09/18 18:28:42","新北市中和區秀朗路三段150巷2號","121.524171666667","24.991025","6500300","中和區"
"235070","558-UM","2017/09/18 18:28:43","新北市中和區圓通路135號","121.498978333333","24.9958816666667","6500300","中和區"
"235045","565-BX","2017/09/18 18:28:37","新北市中和區復興路13號","121.505895","24.9896233333333","6500300","中和區"
"235054","640-BX","2017/09/18 18:28:37","新北市中和區民享街117巷2號","121.474541666667","24.9989433333333","6500300","中和區"
"235060","647-TV","2017/09/18 18:28:26","新北市中和區員山路146-3號","121.481218333333","24.9969616666667","6500300","中和區"
"235047","732-UM","2017/09/18 18:28:34","新北市中和區南山路282號","121.507951666667","24.9876966666667","6500300","中和區"
"235046","733-UM","2017/09/18 18:28:38","新北市中和區中正路275號","121.49546","24.993735","6500300","中和區"
"235062","800-TS","2017/09/18 18:28:39","新北市中和區景平路754號","121.49642","25.0046","6500300","中和區"
"235057","801-TS","2017/09/18 18:28:41","新北市中和區員山路187號","121.481178333333","24.9971366666667","6500300","中和區"
"235041","802-TS","2017/09/18 18:28:28","新北市中和區中正路589巷15號","121.485771666667","24.99355","6500300","中和區"
"235052","805-TS","2017/09/18 18:28:28","新北市中和區興南路二段101號","121.505996666667","24.9846416666667","6500300","中和區"
"235048","896-TW","2017/09/18 18:28:28","新北市中和區中正路171號","121.497846666667","24.993455","6500300","中和區"
"235053","900-TW","2017/09/18 18:28:31","新北市中和區員山路61號","121.480615","24.9936183333333","6500300","中和區"
"235063","911-UM","2017/09/18 18:28:27","新北市中和區中正路476號","121.489671666667","24.9943433333333","6500300","中和區"
"235037","AAC-213","2017/09/18 18:28:38","新北市中和區景德街141號","121.514518333333","24.990995","6500300","中和區"
"235059","AAC-215","2017/09/18 16:40:54","新北市中和區員山路36巷16-3號","121.485086666667","24.99137","6500300","中和區"
"220068","013-TV","2017/09/18 18:28:36","新北市板橋區民生路二段120號","121.470593333333","25.01974","6500100","板橋區"
"220086","073-UY","2017/09/18 18:28:44","新北市板橋區華東街1-10號","121.448256666667","24.9950766666667","6500100","板橋區"
"247001","402-BY","2017/09/18 16:32:08","新北市五股區中興路三段3-6號","121.449578333333","25.0787466666667","6501400","蘆洲區"
"247008","053-VK","2017/09/18 18:28:43","新北市林口區太平里180號","121.3665","25.1344816666667","6501400","蘆洲區"
"226004","312-R5","2017/09/18 18:28:17","新北市平溪區靜安路二段240號","121.724571666667","25.022025","6502400","平溪區"
"228003","097-TW","2017/09/18 18:28:33","新北市貢寮區和美里和美街36-1號","121.91229","25.0855266666667","6502600","貢寮區"
"228002","585-TW","2017/09/18 18:28:25","新北市貢寮區福連里香蘭街32號","121.986443333333","25.0200366666667","6502600","貢寮區"
"228001","670-TC","2017/09/18 18:28:37","新北市貢寮區仁理村仁義街8號","121.923755","25.0520816666667","6502600","貢寮區"
"224006","676-BX","2017/09/18 18:28:43","新北市瑞芳區明燈路二段88號","121.809968333333","25.1081716666667","6501200","瑞芳區"
"224002","639-TC","2017/09/18 18:28:46","新北市瑞芳區正貿新村9號","121.813001666667","25.1058883333333","6501200","瑞芳區"
"224009","285-BY","2017/09/18 18:28:41","新北市瑞芳區祈堂路221號","121.856991666667","25.109425","6501200","瑞芳區"
"224008","275-VK","2017/09/18 18:28:41","新北市瑞芳區逢甲路242號","121.805436666667","25.1104216666667","6501200","瑞芳區"
"224007","273-VK","2017/09/18 18:28:39","新北市瑞芳區大埔路吉慶公園城18號","121.764955","25.1000466666667","6501200","瑞芳區"
"224005","271-BY","2017/09/18 18:28:36","新北市瑞芳區台電新村153號","121.811645","25.1284283333333","6501200","瑞芳區"
"227008","642-TC","2017/09/18 18:28:32","新北市雙溪區牡丹里牡丹151號","121.851538333333","25.0589183333333","6502500","雙溪區"
"227001","400-TW","2017/09/18 18:28:34","新北市雙溪區魚行里坤溪25號","121.870458333333","25.0299","6502500","雙溪區"
"253005","032-BX","2017/09/18 18:28:46","新北市石門區老崩山11-13號","121.551891666667","25.2906016666667","6502200","石門區"
"253006","295-VK","2017/09/18 18:28:47","新北市石門區公地20號","121.545765","25.2901966666667","6502200","石門區"
"208002","742-BX","2017/09/18 18:28:46","新北市金山區民生路45號","121.642185","25.2210933333333","6502700","金山區"
"208003","665-BX","2017/09/18 18:28:30","新北市金山區中山路183號","121.638295","25.221035","6502700","金山區"
"208001","761-BX","2017/09/18 18:28:35","新北市金山區文化一路14號","121.636818333333","25.2245983333333","6502700","金山區"
"251004","009-UM","2017/09/18 18:28:00","新北市淡水區民族路31巷2號","121.462541666667","25.13631","6501000","淡水區"
"251008","181-VK","2017/09/18 18:28:29","新北市淡水區水源街二段346巷1弄1號","121.464325","25.1754933333333","6501000","淡水區"
"251013","182-VK","2017/09/18 18:28:30","新北市淡水區椿子林20號","121.48004","25.2038083333333","6501000","淡水區"
"251010","413-VK","2017/09/18 18:28:36","新北市淡水區沙崙路181巷1號","121.424108333333","25.1842016666667","6501000","淡水區"
"251012","441-VK","2017/09/18 18:28:32","新北市淡水區北新路一段275號","121.461401666667","25.18238","6501000","淡水區"
"251015","442-VK","2017/09/18 18:28:36","新北市淡水區興福寮88巷216號","121.486001666667","25.1666216666667","6501000","淡水區"
"251001","559-UM","2017/09/18 18:28:37","新北市淡水區自強路335號","121.463553333333","25.1325733333333","6501000","淡水區"
"251006","561-UM","2017/09/18 18:28:30","新北市淡水區中山北路一段188-5號","121.444513333333","25.1790316666667","6501000","淡水區"
"251011","650-BX","2017/09/18 18:28:43","新北市淡水區中正東路83-2號","121.448415","25.166245","6501000","淡水區"
"251002","672-BX","2017/09/18 18:28:42","新北市淡水區竿蓁二街19巷5號","121.453216666667","25.1632866666667","6501000","淡水區"
"251003","766-UM","2017/09/18 18:28:43","新北市淡水區北新路169巷61號","121.448481666667","25.18085","6501000","淡水區"
"207003","550-UM","2017/09/18 18:28:31","新北市萬里區野柳里港東路66號","121.687868333333","25.2042183333333","6502800","萬里區"
"207004","225-TW","2017/09/18 18:28:31","新北市萬里區萬里里瑪鋉路12-4號","121.687781666667","25.17566","6502800","萬里區"
"252003","249-BX","2017/09/18 18:28:33","新北市三芝區後厝里北勢子19-1號","121.473855","25.25431","6502100","三芝區"
"252001","292-VK","2017/09/18 18:28:38","新北市三芝區中興街二段2號","121.498348333333","25.2566366666667","6502100","三芝區"
"252006","AAC-283","2017/09/18 16:42:18","新北市三芝區埔坪里埔頭坑41號","121.504495","25.2644333333333","6502100","三芝區"
"237004","078-UY","2017/09/18 18:28:34","新北市三峽區五寮67號","121.360071666667","24.8595366666667","6500900","三峽區"
"237009","210-TH","2017/09/18 18:28:45","新北市三峽區民族街182-2號","121.368205","24.9279533333333","6500900","三峽區"
"237013","252-BX","2017/09/18 18:28:47","新北市三峽區永安街9巷12號","121.37708","24.9299233333333","6500900","三峽區"
"237012","275-BY","2017/09/18 18:28:39","新北市三峽區三樹路88號","121.378193333333","24.9387683333333","6500900","三峽區"
"237008","302-VK","2017/09/18 18:28:43","新北市三峽區白雞68-239號","121.391485","24.9083633333333","6500900","三峽區"
"237014","433-BY","2017/09/18 18:28:36","新北市三峽區民生街111-2號","121.373731666667","24.935395","6500900","三峽區"
"237006","5529-G3","2017/09/18 18:28:27","新北市三峽區溪東路473巷10號","121.413976666667","24.9284333333333","6500900","三峽區"
"237011","572-TV","2017/09/18 18:09:21","新北市三峽區溪北街2號","121.396018333333","24.936215","6500900","三峽區"
"237015","649-BX","2017/09/18 18:28:45","新北市三峽區竹崙路152號","121.434645","24.9084083333333","6500900","三峽區"
"237010","706-TV","2017/09/18 18:28:28","新北市三峽區中山路305號","121.36122","24.9376116666667","6500900","三峽區"
"237005","AKY-6261","2017/09/18 18:28:33","新北市三峽區民族街5巷40號","121.36968","24.9316016666667","6500900","三峽區"
"236069","105-UM","2017/09/18 18:28:49","新北市土城區永豐路255巷27弄37號","121.476648333333","24.9735816666667","6501300","土城區"
"236042","107-UM","2017/09/18 18:28:37","新北市土城區裕民路61巷16號","121.449735","24.9884133333333","6501300","土城區"
"236078","166-UM","2017/09/18 18:28:44","新北市土城區中央路三段279號","121.42671","24.9634383333333","6501300","土城區"
"236030","253-BX","2017/09/18 18:28:43","新北市土城區中華路二段169巷5號","121.439226666667","24.9755266666667","6501300","土城區"
"236026","269-VK","2017/09/18 18:28:28","新北市土城區南天母路18-3號","121.448193333333","24.9530366666667","6501300","土城區"
"236014","270-VK","2017/09/18 18:28:45","新北市土城區青雲路39巷7號","121.460276666667","24.987375","6501300","土城區"
"236036","271-VK","2017/09/18 18:28:37","新北市土城區青雲路451巷8弄12號","121.459485","24.9741466666667","6501300","土城區"
"236020","401-BY","2017/09/18 18:28:41","新北市土城區永豐路202巷7-1號","121.46618","24.983245","6501300","土城區"
"236058","912-UM","2017/09/18 18:28:32","新北市土城區中央路四段464號","121.409903333333","24.9505883333333","6501300","土城區"
"236048","913-UM","2017/09/18 18:28:34","新北市土城區明德路一段323號","121.458923333333","24.97681","6501300","土城區"
"236062","915-UM","2017/09/18 18:28:40","新北市土城區延壽路109巷11號","121.468386666667","24.9931816666667","6501300","土城區"
"236053","AAC-216","2017/09/18 18:28:41","新北市土城區中華路二段141號","121.439005","24.9762483333333","6501300","土城區"
"242031","AAC-296","2017/09/18 18:28:32","新北市新莊區新泰路277巷43弄1號","121.444205","25.0401766666667","6500500","新莊區"
"242029","986-R7","2017/09/18 18:28:34","新北市新莊區新泰路528號","121.442006666667","25.0470316666667","6500500","新莊區"
"242044","442-UM","2017/09/18 18:28:48","新北市新莊區龍安路65號","121.415631666667","25.0214516666667","6500500","新莊區"
"242053","440-UM","2017/09/18 18:28:34","新北市新莊區新崑路59號","121.43075","24.9997416666667","6500500","新莊區"
"242042","400-BY","2017/09/18 18:28:42","新北市新莊區天祥街74號","121.41586","25.0293233333333","6500500","新莊區"
"242060","362-BY","2017/09/18 18:28:32","新北市新莊區四維路19號","121.423988333333","25.024015","6500500","新莊區"
"242058","353-BY","2017/09/18 18:28:42","新北市新莊區中正路897-10號","121.411598333333","25.021645","6500500","新莊區"
"242036","133-UY","2017/09/18 18:28:31","新北市樹林區中正路282-1號","121.41616","25.0099433333333","6500500","新莊區"
"242046","172-VK","2017/09/18 18:28:41","新北市新莊區中正路803巷62號","121.421988333333","25.0276666666667","6500500","新莊區"
"242056","349-TH","2017/09/18 18:28:43","新北市新莊區瓊林路59-66號","121.441318333333","25.0226483333333","6500500","新莊區"
"238015","755-BX","2017/09/18 18:28:45","新北市樹林區啟智街153號","121.416196666667","24.987885","6500700","樹林區"
"238023","601-UM","2017/09/18 18:28:45","新北市樹林區忠信街15號","121.407615","25.0150066666667","6500700","樹林區"
"238019","599-UM","2017/09/18 18:28:43","新北市樹林區中華路190號","121.41207","24.9804533333333","6500700","樹林區"
"238018","571-TV","2017/09/18 18:28:42","新北市樹林區保安街一段16巷18號","121.428216666667","24.9938133333333","6500700","樹林區"
"238024","5061-A6","2017/09/18 18:28:44","新北市樹林區後站街6巷29號","121.42405","24.99154","6500700","樹林區"
"238021","KEA-2217","2017/09/18 18:28:46","新北市樹林區柑園街二段175號","121.380441666667","24.9530816666667","6500700","樹林區"
"238022","KEA-2213","2017/09/18 18:28:32","新北市樹林區水源街32巷6號","121.425575","24.98156","6500700","樹林區"
"238008","308-TH","2017/09/18 13:30:47","新北市樹林區育德街76巷1號","121.38879","24.9683133333333","6500700","樹林區"
"238025","303-VK","2017/09/18 18:28:44","新北市樹林區保安街一段92號","121.424205","24.99473","6500700","樹林區"
"238017","283-BY","2017/09/18 18:28:31","新北市樹林區保安街二段271-1號","121.41288","25.0054483333333","6500700","樹林區"
"238020","268-VK","2017/09/18 18:28:37","新北市樹林區三龍街14巷2號","121.410103333333","25.0180483333333","6500700","樹林區"
"238026","172-UY","2017/09/18 18:28:40","新北市樹林區中山路三段204號","121.38733","24.9683183333333","6500700","樹林區"
"238016","169-UY","2017/09/18 18:28:41","新北市樹林區文化街28號","121.419323333333","24.987735","6500700","樹林區"
"239007","AAC-297","2017/09/18 18:28:44","新北市鶯歌區中正一路305號","121.356475","24.9570416666667","6500800","鶯歌區"
"239008","527-UM","2017/09/18 18:28:47","新北市鶯歌區國際一路14號","121.336206666667","24.9765516666667","6500800","鶯歌區"
"239005","526-UM","2017/09/18 18:28:42","新北市鶯歌區鶯桃路668巷23號","121.328991666667","24.970245","6500800","鶯歌區"
"239001","417-VK","2017/09/18 18:28:39","新北市鶯歌區國中街183號","121.338906666667","24.9395933333333","6500800","鶯歌區"
"239003","360-BY","2017/09/18 18:28:37","新北市鶯歌區福安街13巷1號","121.335665","24.96535","6500800","鶯歌區"
"239002","359-BY","2017/09/18 18:28:40","新北市鶯歌區中山路112號","121.350656666667","24.9570616666667","6500800","鶯歌區"
"239004","193-VK","2017/09/18 18:28:30","新北市鶯歌區尖山路293巷13號","121.341571666667","24.9442433333333","6500800","鶯歌區"
"221008","489-VK","2017/09/18 18:28:30","新北市汐止區汐萬路一段256巷3號","121.652616666667","25.0745783333333","6501100","汐止區"
"221036","130-UY","2017/09/18 18:28:37","新北市汐止區長興街一段50號","121.670753333333","25.0796066666667","6501100","汐止區"
"221015","131-UY","2017/09/18 18:28:30","新北市汐止區鄉友街24號","121.668645","25.081085","6501100","汐止區"
"221010","269-BY","2017/09/18 18:28:42","新北市汐止區祥雲街20號","121.646626666667","25.0900516666667","6501100","汐止區"
"221012","278-VK","2017/09/18 18:28:41","新北市汐止區保長路51巷1號","121.673223333333","25.0789083333333","6501100","汐止區"
"221023","279-VK","2017/09/18 18:28:38","新北市汐止區康寧街474巷7-2號","121.632238333333","25.06794","6501100","汐止區"
"221032","280-BY","2017/09/18 18:28:38","新北市汐止區民權街二段97巷4弄9號","121.618768333333","25.0470966666667","6501100","汐止區"
"221027","281-BY","2017/09/18 18:28:38","新北市汐止區建成路37巷8號","121.662625","25.07235","6501100","汐止區"
"221038","297-VK","2017/09/18 18:28:42","新北市汐止區忠孝東路304號","121.664238333333","25.068755","6501100","汐止區"
"221029","298-VK","2017/09/18 18:28:32","新北市汐止區樟樹二路339巷18號","121.641808333333","25.0714333333333","6501100","汐止區"
"221021","299-VK","2017/09/18 18:28:46","新北市汐止區新台五路一段146號","121.653318333333","25.062015","6501100","汐止區"
"221031","353-TW","2017/09/18 18:28:36","新北市汐止區大同路一段221號","121.634053333333","25.0574566666667","6501100","汐止區"
"221035","622-UM","2017/09/18 18:28:33","新北市汐止區大同路二段105號","121.649823333333","25.0633583333333","6501100","汐止區"
"221025","623-UM","2017/09/18 18:28:39","新北市汐止區仁愛路121巷1號","121.662761666667","25.063785","6501100","汐止區"
"221033","647-BX","2017/09/18 18:28:43","新北市汐止區宜興街65號","121.622551666667","25.0430716666667","6501100","汐止區"
"221002","707-TV","2017/09/18 18:28:42","新北市汐止區福德一路174號","121.635928333333","25.0661533333333","6501100","汐止區"
"221018","753-BX","2017/09/18 18:28:41","新北市汐止區茄苳路210號","121.670661666667","25.068845","6501100","汐止區"
"220079","145-BY","2017/09/18 18:28:41","新北市板橋區華東街1-10號","121.44838","24.9950533333333","6500100","板橋區"
"220082","610-BX","2017/09/18 18:28:42","新北市板橋區華東街1-10號","121.448235","24.994975","6500100","板橋區"
"220064","282-UM","2017/09/18 18:28:29","新北市板橋區華東街1-10號","121.44864","24.9950283333333","6500100","板橋區"
"220053","285-VK","2017/09/18 18:28:31","新北市板橋區民生路二段120號","121.470463333333","25.01989","6500100","板橋區"
"220083","286-VK","2017/09/18 18:28:43","新北市板橋區華東街1-10號","121.448271666667","24.9952033333333","6500100","板橋區"
"242001","281-VK","2017/09/18 17:00:36","新北市新莊區環河路636-7號","121.437383333333","25.0112416666667","6500500","新莊區"
"242011","280-VK","2017/09/18 18:28:30","新北市新莊區中港路中慶巷27弄13號","121.450108333333","25.05322","6500500","新莊區"
"220035","560-BX","2017/09/18 18:28:34","新北市板橋區南雅南路二段144巷69號","121.450545","24.9954366666667","6500100","板橋區"
"220051","830-TW","2017/09/18 16:49:51","新北市板橋區民生路二段188號","121.46997","25.0203883333333","6500100","板橋區"
"220073","985-R7","2017/09/18 18:28:31","新北市板橋區華東街1-10號","121.448395","24.994915","6500100","板橋區"
