"lineid","car","time","location","longitude","latitude","cityid","cityname"
"234046","148-BY","2017/09/18 19:47:39","新北市永和區永利路129號","121.52407","25.00309","6500400","永和區"
"234013","149-BY","2017/09/18 19:47:50","新北市永和區永平路296號","121.507455","25.0121966666667","6500400","永和區"
"234007","207-UY","2017/09/18 19:47:45","新北市中和區中和路232號","121.506795","24.9993933333333","6500400","永和區"
"234081","298-R6","2017/09/18 19:47:53","新北市永和區永亨路100號","121.523145","25.0048466666667","6500400","永和區"
"234038","336-UY","2017/09/18 19:47:54","新北市永和區民樂街55巷10號","121.527878333333","24.9985766666667","6500400","永和區"
"234064","337-UY","2017/09/18 19:47:41","新北市永和區中正路295-1號","121.517518333333","25.001705","6500400","永和區"
"234086","338-UY","2017/09/18 19:47:51","新北市永和區林森路41巷31號","121.526211666667","25.0042883333333","6500400","永和區"
"234070","552-UM","2017/09/18 19:47:46","新北市永和區國光路14號","121.519086666667","25.0083616666667","6500400","永和區"
"234054","553-UM","2017/09/18 19:47:53","新北市永和區竹林路39巷28弄11號","121.519615","25.01442","6500400","永和區"
"234017","745-BX","2017/09/18 19:47:52","新北市永和區忠孝街26巷27弄1號","121.515256666667","25.0170066666667","6500400","永和區"
"234030","746-BX","2017/09/18 19:47:43","新北市永和區民生路67巷45號","121.525155","24.997515","6500400","永和區"
"234061","AAD-866","2017/09/18 19:47:43","新北市永和區中正路184號","121.515271666667","24.9969733333333","6500400","永和區"
"234042","862-TW","2017/09/18 19:47:48","新北市永和區中和路389巷40號","121.508178333333","25.001945","6500400","永和區"
"234050","863-TW","2017/09/18 19:47:53","新北市永和區環河西路一段107號","121.510981666667","25.0175116666667","6500400","永和區"
"234026","9371-KE","2017/09/18 19:47:41","新北市永和區雙和街7巷7-1號","121.509468333333","25.0014733333333","6500400","永和區"
"234011","9373-KE","2017/09/18 19:47:57","新北市永和區仁愛路306巷20號","121.502073333333","25.0087016666667","6500400","永和區"
"249001","173-UM","2017/09/18 19:47:50","新北市八里區中華路二段165巷1號","121.407496666667","25.1512033333333","6502300","八里區"
"249004","303-UY","2017/09/18 19:47:39","新北市八里區仁愛路37號","121.413436666667","25.16065","6502300","八里區"
"249002","305-UY","2017/09/18 19:47:54","新北市八里區頂寮五街17號","121.451485","25.1261183333333","6502300","八里區"
"249003","593-UM","2017/09/18 19:47:43","新北市八里區華峰三街78號","121.39827","25.145445","6502300","八里區"
"248016","026-BX","2017/09/18 19:47:42","新北市五股區成泰路四段22巷29號","121.4556","25.108285","6501500","五股區"
"248008","095-VK","2017/09/18 19:47:45","新北市五股區國道路三段1號","121.469908333333","25.075135","6501500","五股區"
"248018","225-UY","2017/09/18 19:34:19","新北市五股區壟路16-1號","121.414896666667","25.0854033333333","6501500","五股區"
"248012","247-BX","2017/09/18 19:47:42","新北市五股區蓬萊路6巷3號","121.435585","25.0797566666667","6501500","五股區"
"248014","261-SL","2017/09/18 19:47:52","新北市五股區五福路52巷11弄2號","121.433958333333","25.0898966666667","6501500","五股區"
"248010","272-BY","2017/09/18 19:47:54","新北市五股區登林路74-3號","121.431","25.0693683333333","6501500","五股區"
"248002","678-BX","2017/09/18 19:47:51","新北市五股區成泰路四段8號","121.452996666667","25.1064866666667","6501500","五股區"
"248004","682-TV","2017/09/18 19:47:39","新北市五股區成泰路一段222號","121.436511666667","25.0799483333333","6501500","五股區"
"234077","969-R7","2017/09/18 19:47:53","新北市永和區民權路23號","121.52026","24.9977516666667","6500400","永和區"
"234074","AAC-211","2017/09/18 19:47:44","新北市永和區福和路76巷6弄1號","121.522966666667","25.0084816666667","6500400","永和區"
"234067","AAC-212","2017/09/18 19:47:56","新北市永和區永貞路355巷24號","121.508711666667","25.007335","6500400","永和區"
"234003","AAC-295","2017/09/18 19:47:55","新北市永和區福和路319號","121.51596","25.0071983333333","6500400","永和區"
"244019","403-UM","2017/09/18 19:47:53","新北市林口區四維路114號","121.377323333333","25.0782133333333","6501700","林口區"
"243013","AAD-798","2017/09/18 19:47:42","新北市泰山區應化街7號","121.423885","25.043715","6501600","泰山區"
"243009","297-R6","2017/09/18 19:47:59","新北市泰山區美寧街76號","121.431518333333","25.0646383333333","6501600","泰山區"
"243015","380-SR","2017/09/18 19:47:59","新北市泰山區明志路二段237巷26號","121.428006666667","25.04788","6501600","泰山區"
"243014","421-VK","2017/09/18 19:47:40","新北市泰山區泰林路二段33-7號","121.435225","25.0563916666667","6501600","泰山區"
"243010","KEA-2215","2017/09/18 19:47:48","新北市泰山區民生路33號","121.430708333333","25.0521733333333","6501600","泰山區"
"243011","KEA-2216","2017/09/18 19:47:52","新北市泰山區明志路三段196巷21弄24號","121.422596666667","25.0385066666667","6501600","泰山區"
"243012","646-TV","2017/09/18 19:47:48","新北市泰山區福興一街75號","121.432428333333","25.0579833333333","6501600","泰山區"
"243016","680-BX","2017/09/18 19:47:49","新北市泰山區明志路三段519號","121.421418333333","25.0318133333333","6501600","泰山區"
"222003","436-BY","2017/09/18 19:36:02","新北市深坑區深南路51-1號","121.621115","25.01004","6501800","深坑區"
"222002","659-BX","2017/09/18 19:47:57","新北市深坑區北深路一段288號","121.628098333333","25.0077566666667","6501800","深坑區"
"222001","696-SL","2017/09/18 19:47:44","新北市深坑區北深路三段14號","121.609658333333","25.0011616666667","6501800","深坑區"
"231041","002-UM","2017/09/18 19:47:46","新北市新店區中央路200號","121.530563333333","24.9741933333333","6500600","新店區"
"231059","046-UY","2017/09/18 19:47:40","新北市新店區安和路二段1號","121.517756666667","24.9668316666667","6500600","新店區"
"231061","047-UY","2017/09/18 19:47:48","新北市新店區安民街241號","121.517291666667","24.9722733333333","6500600","新店區"
"231060","106-UY","2017/09/18 19:47:49","新北市新店區安康路二段163號","121.51008","24.9593","6500600","新店區"
"231051","107-UY","2017/09/18 19:47:40","新北市新店區中央二街66號","121.526521666667","24.9746583333333","6500600","新店區"
"231047","108-UY","2017/09/18 19:47:41","新北市新店區五峰路61巷2-3號","121.54765","24.9698733333333","6500600","新店區"
"231052","187-VK","2017/09/18 19:47:58","新北市新店區新烏路二段431號","121.551976666667","24.9089483333333","6500600","新店區"
"231050","215-TC","2017/09/18 19:47:47","新北市新店區北宜路二段150-1號","121.557851666667","24.95397","6500600","新店區"
"231057","256-BX","2017/09/18 19:47:55","新北市新店區花園六路三段10號","121.557143333333","24.93228","6500600","新店區"
"231063","268-BY","2017/09/18 19:47:46","新北市新店區車子路22號","121.50462","24.9536266666667","6500600","新店區"
"231046","278-BY","2017/09/18 19:47:51","新北市新店區福園街15-1號","121.532965","24.97278","6500600","新店區"
"231054","AAD-862","2017/09/18 19:47:55","新北市新店區光明街83號","121.538963333333","24.96082","6500600","新店區"
"231056","4716-K9","2017/09/18 19:47:48","新北市新店區中央路218號","121.529791666667","24.9730433333333","6500600","新店區"
"231067","4772-VM","2017/09/18 19:47:52","新北市新店區精忠路10-1號","121.532656666667","24.9590883333333","6500600","新店區"
"231065","512-UM","2017/09/18 19:47:51","新北市新店區安祥路109巷90弄2號","121.477895","24.95977","6500600","新店區"
"231064","515-UM","2017/09/18 19:47:55","新北市新店區安和路一段52巷2-1號","121.517716666667","24.9666883333333","6500600","新店區"
"231040","619-UM","2017/09/18 19:47:50","新北市新店區北新路一段96巷23號","121.54302","24.9688133333333","6500600","新店區"
"231042","641-BX","2017/09/18 19:47:41","新北市新店區中興路一段267-4號","121.545026666667","24.9678833333333","6500600","新店區"
"231068","718-UY","2017/09/18 19:47:55","新北市新店區安華路28-1號","121.51927","24.9607233333333","6500600","新店區"
"231049","719-UM","2017/09/18 19:47:42","新北市新店區民權路98-1號","121.536438333333","24.9832483333333","6500600","新店區"
"231062","720-UM","2017/09/18 19:47:48","新北市新店區永業路49巷2號","121.5321","24.9550266666667","6500600","新店區"
"231044","897-TW","2017/09/18 19:47:51","新北市新店區順安街75號","121.540658333333","24.9869316666667","6500600","新店區"
"231045","898-TW","2017/09/18 19:47:55","新北市新店區中生路83巷3號","121.564705","24.9518216666667","6500600","新店區"
"231043","899-TW","2017/09/18 19:47:55","新北市新店區中正路187號","121.54067","24.972165","6500600","新店區"
"241011","013-R5","2017/09/18 19:47:41","新北市三重區三和路二段173巷47號","121.499286666667","25.07026","6500200","三重區"
"241028","022-UY","2017/09/18 19:47:47","新北市三重區中正南路157號","121.493798333333","25.0560716666667","6500200","三重區"
"241008","059-VK","2017/09/18 19:47:54","新北市三重區永福街103號","121.479148333333","25.0774783333333","6500200","三重區"
"241009","060-VK","2017/09/18 19:47:41","新北市三重區三和路四段402號","121.481135","25.0795333333333","6500200","三重區"
"241031","061-VK","2017/09/18 19:47:47","新北市三重區重新路四段244巷6號","121.486181666667","25.0536","6500200","三重區"
"241015","062-VK","2017/09/18 19:47:54","新北市三重區三和路1段14-3號","121.503313333333","25.0648816666667","6500200","三重區"
"241017","063-VK","2017/09/18 19:47:42","新北市三重區重陽路三段5巷10號","121.489426666667","25.0661516666667","6500200","三重區"
"241026","066-VK","2017/09/18 19:47:47","新北市三重區文化南路42號","121.50038","25.060295","6500200","三重區"
"241003","091-VK","2017/09/18 19:47:56","新北市三重區五華街93巷42號","121.493411666667","25.0847633333333","6500200","三重區"
"241005","262-UM","2017/09/18 19:47:53","新北市三重區溪尾街266號","121.487363333333","25.0832266666667","6500200","三重區"
"241016","266-UM","2017/09/18 19:47:55","新北市三重區正義北路16巷31-5號","121.496435","25.0627466666667","6500200","三重區"
"241022","267-UM","2017/09/18 19:47:53","新北市三重區新北大道一段7號","121.489786666667","25.0616116666667","6500200","三重區"
"241032","269-UM","2017/09/18 19:47:40","新北市三重區重陽路一段77號","121.486686666667","25.058795","6500200","三重區"
"241013","270-UM","2017/09/18 19:47:38","新北市三重區仁賢街36-2號","121.496711666667","25.0749983333333","6500200","三重區"
"241025","271-UM","2017/09/18 19:47:53","新北市三重區頂崁街210巷23弄1號","121.475886666667","25.0682616666667","6500200","三重區"
"241007","398-BY","2017/09/18 19:47:49","新北市三重區三和路四段133-1號","121.484831666667","25.0779183333333","6500200","三重區"
"241020","413-TH","2017/09/18 19:47:55","新北市三重區三和路四段146號","121.488548333333","25.07566","6500200","三重區"
"241004","475-VK","2017/09/18 19:47:57","新北市三重區五華街74號","121.493403333333","25.0820216666667","6500200","三重區"
"241019","478-VK","2017/09/18 19:47:42","新北市三重區自強路二段74巷25號","121.487706666667","25.069725","6500200","三重區"
"241030","480-VK","2017/09/18 19:47:42","新北市三重區環河南路250號","121.491388333333","25.05072","6500200","三重區"
"241014","543-UM","2017/09/18 19:47:45","新北市三重區長元街98巷18弄25號","121.501888333333","25.067435","6500200","三重區"
"241023","545-UM","2017/09/18 19:47:41","新北市三重區頂崁街172號","121.477506666667","25.065915","6500200","三重區"
"241006","AAD-863","2017/09/18 19:47:57","新北市三重區永福街275號","121.482265","25.07422","6500200","三重區"
"241035","743-BX","2017/09/18 19:47:41","新北市三重區文化北路33-6號","121.499216666667","25.06451","6500200","三重區"
"241018","887-TS","2017/09/18 19:47:53","新北市三重區雙園街110-1號","121.494863333333","25.0675616666667","6500200","三重區"
"241012","941-UM","2017/09/18 19:47:51","新北市三重區仁福街64巷6號","121.497763333333","25.0749683333333","6500200","三重區"
"241029","942-UM","2017/09/18 19:47:57","新北市三重區光明路31-1號","121.491268333333","25.0583116666667","6500200","三重區"
"235066","003-UY","2017/09/18 19:47:53","新北市中和區南工路6號","121.505421666667","25.000235","6500300","中和區"
"235064","005-UY","2017/09/18 19:47:38","新北市中和區南山路131號","121.502208333333","24.996685","6500300","中和區"
"235056","096-UM","2017/09/18 19:47:52","新北市中和區中山路三段114巷17號","121.475563333333","25.007935","6500300","中和區"
"235039","097-UM","2017/09/18 19:47:47","新北市中和區秀峰街80-5號","121.519956666667","24.99087","6500300","中和區"
"235065","098-UM","2017/09/18 19:47:50","新北市中和區福祥路7號","121.499421666667","25.0032116666667","6500300","中和區"
"235040","150-BY","2017/09/18 19:47:49","新北市中和區安平路59號","121.509625","24.9951233333333","6500300","中和區"
"235058","151-BY","2017/09/18 19:47:52","新北市中和區員山路142巷21號","121.48232","24.9965466666667","6500300","中和區"
"235055","183-VK","2017/09/18 19:47:45","新北市中和區中山路三段181巷18弄37號","121.47263","25.0049883333333","6500300","中和區"
"235038","185-VK","2017/09/18 19:47:50","新北市中和區自立路15巷2號","121.522605","24.9958266666667","6500300","中和區"
"235049","186-VK","2017/09/18 19:47:57","新北市中和區中正路2號","121.503248333333","24.9938733333333","6500300","中和區"
"235067","255-BX","2017/09/18 19:47:54","新北市中和區連城路340巷14弄1號","121.483411666667","24.9971466666667","6500300","中和區"
"235044","293-VK","2017/09/18 19:47:50","新北市中和區南山路541號","121.507965","24.98677","6500300","中和區"
"235072","301-VK","2017/09/18 19:47:55","新北市中和區永和路103巷2號","121.494973333333","25.0067316666667","6500300","中和區"
"235043","352-BY","2017/09/18 19:47:44","新北市中和區華新街149號","121.506258333333","24.9816433333333","6500300","中和區"
"235051","376-QA","2017/09/18 19:47:57","新北市中和區中興街178號","121.499705","24.9909283333333","6500300","中和區"
"235068","377-QA","2017/09/18 19:47:45","新北市中和區中山路二段191號","121.500168333333","25.0026983333333","6500300","中和區"
"235061","378-QA","2017/09/18 19:47:57","新北市中和區員山路170號","121.481506666667","24.9999216666667","6500300","中和區"
"235050","4979-A6","2017/09/18 19:47:47","新北市中和區和平街164巷4號","121.506046666667","24.992355","6500300","中和區"
"235069","4980-A6","2017/09/18 19:47:40","新北市中和區中正路637巷52弄1號","121.485448333333","24.9933766666667","6500300","中和區"
"235042","551-UM","2017/09/18 19:47:41","新北市中和區保健路46巷22弄4號","121.508695","24.99594","6500300","中和區"
"235070","558-UM","2017/09/18 19:47:43","新北市中和區景平路545巷1弄7號","121.498578333333","24.9990816666667","6500300","中和區"
"235045","565-BX","2017/09/18 19:47:57","新北市中和區景新街334號","121.511968333333","24.9907933333333","6500300","中和區"
"235054","640-BX","2017/09/18 19:47:37","新北市中和區國光街107巷2弄29號","121.469363333333","24.99893","6500300","中和區"
"235060","647-TV","2017/09/18 19:47:46","新北市中和區中山路二段505號","121.48225","25.00508","6500300","中和區"
"235047","732-UM","2017/09/18 19:47:54","新北市中和區南山路283巷8號","121.504645","24.9923866666667","6500300","中和區"
"235046","733-UM","2017/09/18 19:47:38","新北市中和區四維街26號","121.512801666667","24.9871383333333","6500300","中和區"
"235057","801-TS","2017/09/18 19:47:59","新北市中和區員山路286號","121.481346666667","25.0022716666667","6500300","中和區"
"235041","802-TS","2017/09/18 19:47:48","新北市中和區中和路416號","121.511551666667","25.0031733333333","6500300","中和區"
"235052","805-TS","2017/09/18 19:47:48","新北市中和區興南路二段117巷15號","121.505876666667","24.983965","6500300","中和區"
"235048","896-TW","2017/09/18 19:47:48","新北市中和區興南路二段49號","121.507376666667","24.985315","6500300","中和區"
"235053","900-TW","2017/09/18 19:47:51","新北市中和區國光街215巷4弄1號","121.466366666667","25.0017683333333","6500300","中和區"
"235063","911-UM","2017/09/18 19:47:47","新北市中和區安邦街11號","121.495926666667","24.9982633333333","6500300","中和區"
"235037","AAC-213","2017/09/18 19:47:58","新北市中和區秀朗路三段74-3號","121.526246666667","24.9940583333333","6500300","中和區"
"235059","AAC-215","2017/09/18 19:47:44","新北市中和區圓通路305巷6號","121.493986666667","24.9898733333333","6500300","中和區"
"220068","013-TV","2017/09/18 19:47:55","新北市板橋區中山路二段412巷16-1號","121.483336666667","25.0202533333333","6500100","板橋區"
"220065","072-UY","2017/09/18 19:47:43","新北市板橋區國泰街17號","121.469318333333","25.00674","6500100","板橋區"
"220086","073-UY","2017/09/18 19:47:44","新北市板橋區中正路1巷4號","121.455666666667","25.0119166666667","6500100","板橋區"
"220106","075-UY","2017/09/18 19:47:49","新北市板橋區民治街17號","121.477793333333","25.034385","6500100","板橋區"
"220069","AAD-861","2017/09/18 19:47:56","新北市板橋區稚暉街2巷46號","121.455246666667","25.0029466666667","6500100","板橋區"
"247001","402-BY","2017/09/18 16:32:08","新北市五股區中興路三段3-6號","121.449578333333","25.0787466666667","6501400","蘆洲區"
"247002","337-TH","2017/09/18 19:47:25","新北市蘆洲區長榮路641號","121.459798333333","25.0908533333333","6501400","蘆洲區"
"247004","336-TH","2017/09/18 19:47:46","新北市蘆洲區中原路24號","121.460206666667","25.0828333333333","6501400","蘆洲區"
"247006","056-VK","2017/09/18 19:47:40","新北市五股區四維路185巷6-1號","121.467178333333","25.07684","6501400","蘆洲區"
"247008","053-VK","2017/09/18 19:47:44","新北市蘆洲區中山一路76號","121.478615","25.0811783333333","6501400","蘆洲區"
"247014","007-UY","2017/09/18 19:47:55","新北市蘆洲區保和街69巷18號","121.46967","25.0853566666667","6501400","蘆洲區"
"226004","312-R5","2017/09/18 19:47:57","新北市平溪區靜安路三段130號","121.774241666667","25.0378566666667","6502400","平溪區"
"228003","097-TW","2017/09/18 19:47:53","新北市貢寮區真理里美艷山街28號","121.9257","25.065805","6502600","貢寮區"
"228001","670-TC","2017/09/18 19:47:57","新北市貢寮區真理里大澳街10巷54號","121.925848333333","25.0564666666667","6502600","貢寮區"
"224010","AGQ-8101","2017/09/18 19:47:47","新北市瑞芳區基山街164號","121.843","25.10786","6501200","瑞芳區"
"224002","639-TC","2017/09/18 19:47:46","新北市瑞芳區員山子路員山巷27號","121.816791666667","25.1040966666667","6501200","瑞芳區"
"227008","642-TC","2017/09/18 19:47:52","新北市雙溪區新基里中華路79號","121.865808333333","25.038395","6502500","雙溪區"
"227001","400-TW","2017/09/18 19:47:54","新北市雙溪區雙溪里內挖路43號","121.86331","25.036535","6502500","雙溪區"
"208002","742-BX","2017/09/18 19:47:57","新北市金山區八德街2號","121.635178333333","25.2238233333333","6502700","金山區"
"208003","665-BX","2017/09/18 19:47:50","新北市金山區中正路20號","121.635926666667","25.2223283333333","6502700","金山區"
"208001","761-BX","2017/09/18 19:47:55","新北市金山區重和里林口29號","121.596623333333","25.2099483333333","6502700","金山區"
"251009","008-UM","2017/09/18 19:47:40","新北市淡水區中正路38-1號","121.44372","25.1692683333333","6501000","淡水區"
"251004","009-UM","2017/09/18 19:47:56","新北市淡水區民權路177巷57號","121.460588333333","25.1338033333333","6501000","淡水區"
"251008","181-VK","2017/09/18 19:47:49","新北市淡水區中正路二段24巷2-1號","121.426783333333","25.17699","6501000","淡水區"
"251013","182-VK","2017/09/18 19:47:50","新北市淡水區頂田寮12號","121.46261","25.2140366666667","6501000","淡水區"
"251012","441-VK","2017/09/18 19:47:52","新北市淡水區淡金路二段600號","121.446635","25.1927583333333","6501000","淡水區"
"251015","442-VK","2017/09/18 19:47:56","新北市淡水區北新路二段30號","121.477011666667","25.1857466666667","6501000","淡水區"
"251005","443-VK","2017/09/18 19:47:54","新北市淡水區中山路95巷2號","121.442138333333","25.17065","6501000","淡水區"
"251001","559-UM","2017/09/18 19:47:57","新北市淡水區中正東路二段95號","121.459475","25.15219","6501000","淡水區"
"251006","561-UM","2017/09/18 19:47:50","新北市淡水區水碓街15號","121.443491666667","25.1769866666667","6501000","淡水區"
"251011","650-BX","2017/09/18 19:47:43","新北市淡水區水源街二段194號","121.456948333333","25.1757733333333","6501000","淡水區"
"251002","672-BX","2017/09/18 19:27:21","新北市淡水區中正路二段31號","121.41927","25.1819233333333","6501000","淡水區"
"207003","550-UM","2017/09/18 19:47:51","新北市萬里區大鵬里萬里加投180號","121.64301","25.215785","6502800","萬里區"
"207004","225-TW","2017/09/18 19:47:55","新北市萬里區萬里里瑪鋉路207號","121.690391666667","25.1793833333333","6502800","萬里區"
"252002","178-VK","2017/09/18 19:47:45","新北市三芝區三民街26號","121.504716666667","25.2587283333333","6502100","三芝區"
"252001","292-VK","2017/09/18 19:47:58","新北市三芝區公正街9號","121.499781666667","25.2575666666667","6502100","三芝區"
"252006","AAC-283","2017/09/18 16:42:18","新北市三芝區埔坪里埔頭坑41號","121.504495","25.2644333333333","6502100","三芝區"
"237004","078-UY","2017/09/18 19:47:54","新北市三峽區添福15-32號","121.372603333333","24.9047966666667","6500900","三峽區"
"237009","210-TH","2017/09/18 19:47:45","新北市三峽區中園街77號","121.367993333333","24.92524","6500900","三峽區"
"237013","252-BX","2017/09/18 19:47:47","新北市三峽區橫溪路44號","121.39662","24.9353866666667","6500900","三峽區"
"237012","275-BY","2017/09/18 19:47:59","新北市三峽區光明路25號","121.373296666667","24.9312183333333","6500900","三峽區"
"237008","302-VK","2017/09/18 19:47:43","新北市三峽區永安街143-2號","121.3735","24.928085","6500900","三峽區"
"237014","433-BY","2017/09/18 19:47:56","新北市三峽區嘉添37號","121.368723333333","24.9110866666667","6500900","三峽區"
"237006","5529-G3","2017/09/18 19:47:47","新北市三峽區中正路一段336巷15弄2號","121.369961666667","24.9249666666667","6500900","三峽區"
"237015","649-BX","2017/09/18 19:47:45","新北市三峽區溪東路218巷25號","121.406933333333","24.9304616666667","6500900","三峽區"
"237010","706-TV","2017/09/18 19:20:50","新北市三峽區復興路30-1號","121.37429","24.9361533333333","6500900","三峽區"
"237005","AKY-6261","2017/09/18 19:47:57","新北市三峽區文化路122號","121.37097","24.9362316666667","6500900","三峽區"
"236069","105-UM","2017/09/18 19:47:48","新北市土城區和平路28號","121.443416666667","24.9726216666667","6501300","土城區"
"236042","107-UM","2017/09/18 19:47:37","新北市土城區清水路85巷7號","121.456148333333","24.9823266666667","6501300","土城區"
"236078","166-UM","2017/09/18 19:47:44","新北市土城區溪頭路20巷2弄2號","121.412911666667","24.9555216666667","6501300","土城區"
"236030","253-BX","2017/09/18 19:47:42","新北市土城區中央路一段290號","121.443343333333","24.982495","6501300","土城區"
"236026","269-VK","2017/09/18 19:47:48","新北市土城區中央路二段61巷22號","121.443243333333","24.9788033333333","6501300","土城區"
"236036","271-VK","2017/09/18 19:47:48","新北市土城區國際路46號","121.466243333333","24.97897","6501300","土城區"
"236020","401-BY","2017/09/18 19:47:41","新北市土城區金城路三段200-5號","121.46895","24.9874433333333","6501300","土城區"
"236058","912-UM","2017/09/18 19:47:55","新北市土城區中央路二段51號","121.442683333333","24.9796466666667","6501300","土城區"
"236048","913-UM","2017/09/18 19:47:56","新北市土城區青雲路299-1號","121.45906","24.97954","6501300","土城區"
"236062","915-UM","2017/09/18 19:47:53","新北市土城區延平街33巷1號","121.467783333333","24.99172","6501300","土城區"
"236053","AAC-216","2017/09/18 19:47:41","新北市土城區立德路91號","121.462966666667","24.9877866666667","6501300","土城區"
"242031","AAC-296","2017/09/18 19:47:39","新北市新莊區忠孝街110號","121.443826666667","25.037515","6500500","新莊區"
"242029","986-R7","2017/09/18 19:47:46","新北市新莊區新泰路421-7號","121.442361666667","25.0452016666667","6500500","新莊區"
"242050","751-BX","2017/09/18 19:47:47","新北市新莊區民安路298號","121.42816","25.0218016666667","6500500","新莊區"
"242023","613-BX","2017/09/18 19:47:43","新北市新莊區化成路144號","121.4654","25.0448366666667","6500500","新莊區"
"242027","612-BX","2017/09/18 19:47:55","新北市新莊區中平路181號","121.444786666667","25.0489916666667","6500500","新莊區"
"242034","497-BY","2017/09/18 19:47:46","新北市新莊區仁愛街54巷1號","121.44495","25.03713","6500500","新莊區"
"242048","441-UM","2017/09/18 19:47:50","新北市新莊區後港一路28巷6號","121.425516666667","25.02549","6500500","新莊區"
"242060","362-BY","2017/09/18 19:47:49","新北市新莊區中正路400號","121.441906666667","25.0342283333333","6500500","新莊區"
"242058","353-BY","2017/09/18 19:47:41","新北市新莊區八德街62號","121.424898333333","25.0223266666667","6500500","新莊區"
"242036","133-UY","2017/09/18 19:47:51","新北市新莊區建安街60號","121.427185","25.02469","6500500","新莊區"
"242046","172-VK","2017/09/18 19:47:47","新北市樹林區俊興街292號","121.418438333333","25.0173333333333","6500500","新莊區"
"242002","176-VK","2017/09/18 19:47:49","新北市新莊區新泰路2-11號","121.450131666667","25.03252","6500500","新莊區"
"242013","346-TH","2017/09/18 19:47:54","新北市新莊區中誠街92號","121.45005","25.0478066666667","6500500","新莊區"
"242017","350-TH","2017/09/18 19:47:52","新北市新莊區中華路一段158號","121.45267","25.0412733333333","6500500","新莊區"
"238015","755-BX","2017/09/18 19:47:51","新北市樹林區樹德街33號","121.421751666667","24.9914833333333","6500700","樹林區"
"238023","601-UM","2017/09/18 19:47:45","新北市樹林區三福街166號","121.40472","25.0159666666667","6500700","樹林區"
"238024","5061-A6","2017/09/18 19:47:44","新北市樹林區佳園路一段80巷52號","121.391625","24.9695133333333","6500700","樹林區"
"238021","KEA-2217","2017/09/18 19:47:46","新北市樹林區學士路20號","121.382251666667","24.9474516666667","6500700","樹林區"
"238022","KEA-2213","2017/09/18 19:47:52","新北市樹林區國凱街50巷10號","121.420441666667","24.9784616666667","6500700","樹林區"
"238008","308-TH","2017/09/18 13:30:47","新北市樹林區育德街76巷1號","121.38879","24.9683133333333","6500700","樹林區"
"238025","303-VK","2017/09/18 19:47:40","新北市樹林區大安路626號","121.411041666667","24.98264","6500700","樹林區"
"238017","283-BY","2017/09/18 19:47:51","新北市樹林區保安街二段45巷15號","121.415315","24.9999","6500700","樹林區"
"238014","282-BY","2017/09/18 19:47:46","新北市樹林區千歲街44號","121.425831666667","24.9969866666667","6500700","樹林區"
"238020","268-VK","2017/09/18 19:47:37","新北市樹林區俊英街3號","121.429793333333","24.99981","6500700","樹林區"
"239006","891-R6","2017/09/18 19:47:47","新北市鶯歌區鶯桃路35號","121.34304","24.9502783333333","6500800","鶯歌區"
"239005","526-UM","2017/09/18 19:47:42","新北市樹林區中山路三段214號","121.379601666667","24.9677816666667","6500800","鶯歌區"
"221008","489-VK","2017/09/18 19:47:50","新北市汐止區康寧街61巷50弄8號","121.620616666667","25.0675033333333","6501100","汐止區"
"221036","130-UY","2017/09/18 19:47:37","新北市汐止區汐萬路一段158號","121.652661666667","25.0713366666667","6501100","汐止區"
"221015","131-UY","2017/09/18 19:47:50","新北市汐止區大同路二段559號","121.662698333333","25.0696916666667","6501100","汐止區"
"221010","269-BY","2017/09/18 19:47:42","新北市汐止區汐萬路一段418巷6弄8號","121.649943333333","25.0778966666667","6501100","汐止區"
"221012","278-VK","2017/09/18 19:47:41","新北市汐止區保長路267號","121.680936666667","25.074355","6501100","汐止區"
"221023","279-VK","2017/09/18 19:47:58","新北市汐止區民族六街6巷2號","121.629783333333","25.069865","6501100","汐止區"
"221032","280-BY","2017/09/18 19:47:58","新北市汐止區橫科路407巷99號","121.629103333333","25.0515116666667","6501100","汐止區"
"221027","281-BY","2017/09/18 19:47:42","新北市汐止區忠孝東路9號","121.658275","25.06602","6501100","汐止區"
"221038","297-VK","2017/09/18 19:47:42","新北市汐止區忠孝東路295號","121.664158333333","25.0689333333333","6501100","汐止區"
"221029","298-VK","2017/09/18 19:47:52","新北市汐止區康寧街901號","121.651601666667","25.074975","6501100","汐止區"
"221021","299-VK","2017/09/18 19:47:46","新北市汐止區新台五路一段181號","121.655385","25.0631433333333","6501100","汐止區"
"221031","353-TW","2017/09/18 19:47:57","新北市汐止區福德三路127號","121.633563333333","25.0676066666667","6501100","汐止區"
"221035","622-UM","2017/09/18 19:47:53","新北市汐止區汐萬路一段155號","121.653191666667","25.0710566666667","6501100","汐止區"
"221025","623-UM","2017/09/18 19:47:39","新北市汐止區秀峰路81巷19號","121.660945","25.0647466666667","6501100","汐止區"
"221033","647-BX","2017/09/18 19:47:23","新北市汐止區東勢街70號","121.633148333333","25.03998","6501100","汐止區"
"221002","707-TV","2017/09/18 19:47:42","新北市汐止區大同路一段219巷27號","121.633201666667","25.0583983333333","6501100","汐止區"
"221018","753-BX","2017/09/18 19:47:41","新北市汐止區汐萬路一段310號","121.650313333333","25.07479","6501100","汐止區"
"220079","145-BY","2017/09/18 19:47:41","新北市板橋區中正路183巷46號","121.454976666667","25.0160333333333","6500100","板橋區"
"220080","200-UY","2017/09/18 19:47:39","新北市板橋區大觀路二段37巷81號","121.45013","25.0023916666667","6500100","板橋區"
"220082","610-BX","2017/09/18 19:47:42","新北市板橋區溪崑一街23號","121.430695","24.9918966666667","6500100","板橋區"
"220101","245-BX","2017/09/18 19:47:50","新北市板橋區莒光路196巷28號","121.473031666667","25.022585","6500100","板橋區"
"220097","257-TC","2017/09/18 19:47:45","新北市板橋區幸福路32巷2弄14號","121.461811666667","25.021045","6500100","板橋區"
"220056","276-BY","2017/09/18 19:47:46","新北市板橋區四川路二段99巷7號","121.452883333333","24.99419","6500100","板橋區"
"220072","277-BY","2017/09/18 19:47:49","新北市板橋區金門街215巷101號","121.433671666667","24.988385","6500100","板橋區"
"220064","282-UM","2017/09/18 19:47:49","新北市板橋區實踐路205號","121.464495","25.0027566666667","6500100","板橋區"
"220071","283-VK","2017/09/18 19:47:47","新北市板橋區信義路279巷13號","121.463131666667","24.9900016666667","6500100","板橋區"
"220094","285-UM","2017/09/18 19:47:55","新北市板橋區長江路二段59號","121.464653333333","25.0314083333333","6500100","板橋區"
"220053","285-VK","2017/09/18 19:47:51","新北市板橋區中山路二段60巷1弄11號","121.47465","25.01559","6500100","板橋區"
"220083","286-VK","2017/09/18 19:47:51","新北市板橋區龍興街65巷65號","121.442011666667","25.0020383333333","6500100","板橋區"
"220081","287-VK","2017/09/18 19:31:31","新北市板橋區大觀路一段75巷37號","121.448861666667","25.0042383333333","6500100","板橋區"
"220090","288-VK","2017/09/18 19:47:43","新北市板橋區龍泉街54巷5號","121.456821666667","25.0265783333333","6500100","板橋區"
"220061","293-UM","2017/09/18 19:47:41","新北市板橋區中山路一段265巷36弄2號","121.46918","25.0150716666667","6500100","板橋區"
"220075","297-UM","2017/09/18 19:47:56","新北市板橋區金華街10巷16號","121.456205","25.0200583333333","6500100","板橋區"
"242001","281-VK","2017/09/18 17:00:36","新北市新莊區環河路636-7號","121.437383333333","25.0112416666667","6500500","新莊區"
"220062","305-R5","2017/09/18 19:47:56","新北市板橋區三民路二段81巷24號","121.480403333333","25.0166366666667","6500100","板橋區"
"220092","307-R5","2017/09/18 19:47:51","新北市板橋區陽明街164巷15號","121.46405","25.0245","6500100","板橋區"
"220098","317-R6","2017/09/18 19:47:49","新北市板橋區裕民街131號","121.459141666667","25.0272416666667","6500100","板橋區"
"220089","487-VK","2017/09/18 19:47:55","新北市板橋區英士路61號","121.460563333333","25.0242933333333","6500100","板橋區"
"220088","491-VK","2017/09/18 19:47:50","新北市板橋區仁化街103號","121.476731666667","25.0323216666667","6500100","板橋區"
"220035","560-BX","2017/09/18 19:47:53","新北市板橋區金華街72-3號","121.45759","25.02064","6500100","板橋區"
"220103","561-BX","2017/09/18 19:47:42","新北市板橋區陽明街29巷12號","121.464685","25.022075","6500100","板橋區"
"220084","568-UM","2017/09/18 19:47:57","新北市板橋區滿平二街38號","121.425181666667","24.9877483333333","6500100","板橋區"
"220063","609-BX","2017/09/18 19:47:57","新北市板橋區三民路一段89號","121.479673333333","25.0219416666667","6500100","板橋區"
"220091","637-BX","2017/09/18 19:47:53","新北市板橋區懷德街127巷37號","121.480031666667","25.031565","6500100","板橋區"
"220057","686-BX","2017/09/18 19:47:51","新北市板橋區和平路安樂巷51號","121.462268333333","24.9931066666667","6500100","板橋區"
"220077","687-BX","2017/09/18 19:47:38","新北市板橋區僑中一街150號","121.44484","25.011835","6500100","板橋區"
"220093","689-BX","2017/09/18 19:47:52","新北市板橋區長江路二段163號","121.466273333333","25.031895","6500100","板橋區"
"220054","741-BX","2017/09/18 19:47:59","新北市板橋區實踐路106號","121.46404","25.0047516666667","6500100","板橋區"
"220055","827-TW","2017/09/18 19:47:57","新北市板橋區和平路29號","121.459866666667","24.995705","6500100","板橋區"
"220067","829-TW","2017/09/18 19:47:35","新北市板橋區長安街255巷41號","121.47232","25.01122","6500100","板橋區"
"220102","830-TW","2017/09/18 19:47:43","新北市板橋區仁化街5號","121.474778333333","25.03168","6500100","板橋區"
"220096","831-TW","2017/09/18 19:47:46","新北市板橋區民生路二段232-4號","121.469186666667","25.0224066666667","6500100","板橋區"
"220074","895-R6","2017/09/18 19:47:54","新北市板橋區大東街4號","121.456488333333","25.009375","6500100","板橋區"
"220073","985-R7","2017/09/18 19:47:55","新北市板橋區大仁街1-3號","121.456105","25.017045","6500100","板橋區"
"220070","AAC-253","2017/09/18 19:47:44","新北市板橋區民族路220號","121.468608333333","25.007485","6500100","板橋區"
