"lineid","car","time","location","longitude","latitude","cityid","cityname"
"234046","148-BY","2017/09/18 20:17:47","新北市永和區得和路322號","121.523046666667","24.99954","6500400","永和區"
"234013","149-BY","2017/09/18 20:17:48","新北市永和區保生路40巷1號","121.50585","25.0082916666667","6500400","永和區"
"234007","207-UY","2017/09/18 20:17:45","新北市永和區環河西路二段217巷1號","121.501471666667","25.0100633333333","6500400","永和區"
"234081","298-R6","2017/09/18 20:17:53","新北市永和區福和路19巷1弄3號","121.524275","25.0079016666667","6500400","永和區"
"234038","336-UY","2017/09/18 20:17:55","新北市永和區成功路一段93巷23弄9號","121.528575","25.0031","6500400","永和區"
"234064","337-UY","2017/09/18 20:17:51","新北市永和區得和路211號","121.519171666667","25.0003466666667","6500400","永和區"
"234086","338-UY","2017/09/18 20:17:51","新北市永和區福和路213號","121.519228333333","25.0075233333333","6500400","永和區"
"234070","552-UM","2017/09/18 20:17:46","新北市永和區永寧街46號","121.519991666667","25.0069483333333","6500400","永和區"
"234054","553-UM","2017/09/18 20:17:53","新北市永和區光復街2巷8號","121.516833333333","25.0165683333333","6500400","永和區"
"234017","745-BX","2017/09/18 20:17:52","新北市永和區仁愛路9號","121.514841666667","25.0134316666667","6500400","永和區"
"234030","746-BX","2017/09/18 20:17:43","新北市永和區民有街25巷12號","121.517461666667","24.996535","6500400","永和區"
"234061","AAD-866","2017/09/18 20:17:53","新北市永和區安樂路134號","121.514088333333","25.000235","6500400","永和區"
"234042","862-TW","2017/09/18 20:17:48","新北市永和區中和路463號","121.509883333333","25.001675","6500400","永和區"
"234050","863-TW","2017/09/18 20:17:59","新北市永和區環河西路二段87號","121.506658333333","25.014995","6500400","永和區"
"234011","9373-KE","2017/09/18 20:17:37","新北市永和區保生路55-1號","121.50451","25.0108966666667","6500400","永和區"
"249005","172-UM","2017/09/18 20:17:43","新北市八里區下罟子2號","121.387321666667","25.1411566666667","6502300","八里區"
"249001","173-UM","2017/09/18 20:17:50","新北市八里區中華路二段466號","121.400871666667","25.1461883333333","6502300","八里區"
"249004","303-UY","2017/09/18 20:17:39","新北市八里區中山路一段330號","121.412711666667","25.1590933333333","6502300","八里區"
"249002","305-UY","2017/09/18 20:17:48","新北市八里區龍米路一段348-3號","121.451553333333","25.1309983333333","6502300","八里區"
"249003","593-UM","2017/09/18 20:17:43","新北市八里區中山路二段447巷2號","121.396961666667","25.14537","6502300","八里區"
"248016","026-BX","2017/09/18 20:17:42","新北市五股區凌雲路一段158巷50弄21號","121.447861666667","25.10438","6501500","五股區"
"248012","247-BX","2017/09/18 20:17:42","新北市五股區民義路一段172巷10號","121.433366666667","25.0884583333333","6501500","五股區"
"248002","678-BX","2017/09/18 20:17:48","新北市五股區成泰路三段165號","121.445225","25.0918616666667","6501500","五股區"
"248004","682-TV","2017/09/18 20:17:39","新北市五股區成泰路二段82號","121.437433333333","25.082345","6501500","五股區"
"234023","9380-KE","2017/09/18 20:17:53","新北市永和區復興街16巷5號","121.515795","25.0125566666667","6500400","永和區"
"234077","969-R7","2017/09/18 20:17:53","新北市永和區民享街8號","121.515221666667","24.9954283333333","6500400","永和區"
"234074","AAC-211","2017/09/18 20:17:38","新北市永和區竹林路159號","121.520655","25.0103366666667","6500400","永和區"
"234067","AAC-212","2017/09/18 20:17:36","新北市永和區保平路264號","121.508846666667","25.0051583333333","6500400","永和區"
"234003","AAC-295","2017/09/18 20:17:51","新北市永和區永和路一段115-1號","121.513936666667","25.0080483333333","6500400","永和區"
"244019","403-UM","2017/09/18 20:17:53","新北市林口區太平里180號","121.367068333333","25.1350666666667","6501700","林口區"
"243013","AAD-798","2017/09/18 20:17:42","新北市泰山區新民路14巷2弄2號","121.42634","25.0445783333333","6501600","泰山區"
"243009","297-R6","2017/09/18 20:17:59","新北市泰山區福泰街47號","121.433408333333","25.05988","6501600","泰山區"
"243015","380-SR","2017/09/18 20:17:59","新北市泰山區仁德路50號","121.43419","25.0568333333333","6501600","泰山區"
"243014","421-VK","2017/09/18 20:17:40","新北市泰山區泰林路二段262號","121.431643333333","25.062355","6501600","泰山區"
"243010","KEA-2215","2017/09/18 20:17:48","新北市泰山區明志路二段254巷14號","121.426103333333","25.0479216666667","6501600","泰山區"
"243011","KEA-2216","2017/09/18 20:17:51","新北市泰山區新北大道七段103號","121.4177","25.0319833333333","6501600","泰山區"
"243012","646-TV","2017/09/18 20:17:48","新北市泰山區楓江路113號","121.438531666667","25.0641783333333","6501600","泰山區"
"243016","680-BX","2017/09/18 20:17:59","新北市泰山區明志路二段218號","121.427286666667","25.0486583333333","6501600","泰山區"
"222003","436-BY","2017/09/18 20:17:47","新北市深坑區埔新街99號","121.619255","25.0022083333333","6501800","深坑區"
"222002","659-BX","2017/09/18 20:17:57","新北市深坑區萬福路57號","121.600231666667","25.0072783333333","6501800","深坑區"
"222001","696-SL","2017/09/18 20:17:44","新北市深坑區北深路三段213號","121.600418333333","25.0039783333333","6501800","深坑區"
"231041","002-UM","2017/09/18 20:17:46","新北市新店區民權路44號","121.54022","24.9829716666667","6500600","新店區"
"231055","0293-UT","2017/09/18 20:17:52","新北市新店區新明街8號","121.541056666667","24.968195","6500600","新店區"
"231059","046-UY","2017/09/18 20:17:40","新北市新店區安德街132號","121.508655","24.96031","6500600","新店區"
"231061","047-UY","2017/09/18 20:17:40","新北市新店區安興路33-1號","121.515761666667","24.9704416666667","6500600","新店區"
"231060","106-UY","2017/09/18 20:17:49","新北市新店區安康路三段522號","121.482775","24.9494216666667","6500600","新店區"
"231051","107-UY","2017/09/18 20:17:40","新北市新店區中央六街14號","121.529935","24.9746033333333","6500600","新店區"
"231047","108-UY","2017/09/18 20:17:48","新北市新店區永華街35號","121.543985","24.9762","6500600","新店區"
"231052","187-VK","2017/09/18 20:17:58","新北市新店區新烏路三段9號","121.552518333333","24.9061616666667","6500600","新店區"
"231050","215-TC","2017/09/18 20:17:47","新北市新店區北宜路一段142號","121.540113333333","24.9542416666667","6500600","新店區"
"231057","256-BX","2017/09/18 20:17:55","新北市新店區花園五路一段18號","121.552095","24.9341116666667","6500600","新店區"
"231063","268-BY","2017/09/18 20:17:41","新北市新店區黎明路9號","121.502495","24.9501833333333","6500600","新店區"
"231054","AAD-862","2017/09/18 20:17:55","新北市新店區檳榔路63號","121.543576666667","24.962295","6500600","新店區"
"231056","4716-K9","2017/09/18 20:17:48","新北市新店區中正路275巷26號","121.536945","24.973215","6500600","新店區"
"231067","4772-VM","2017/09/18 20:17:52","新北市新店區溪洲路8巷1-1號","121.533523333333","24.9613316666667","6500600","新店區"
"231065","512-UM","2017/09/18 20:17:31","新北市新店區安祥路106巷20號","121.47803","24.962365","6500600","新店區"
"231064","515-UM","2017/09/18 20:17:55","新北市新店區安樂街1-1號","121.519935","24.97374","6500600","新店區"
"231040","619-UM","2017/09/18 20:17:50","新北市新店區博愛街1號","121.540443333333","24.9725566666667","6500600","新店區"
"231042","641-BX","2017/09/18 20:17:41","新北市新店區中興路二段231-2號","121.54773","24.9749233333333","6500600","新店區"
"231068","718-UY","2017/09/18 20:17:55","新北市新店區寶安街33號","121.541995","24.9824683333333","6500600","新店區"
"231049","719-UM","2017/09/18 20:17:42","新北市新店區北新路二段68號","121.542856666667","24.9724283333333","6500600","新店區"
"231062","720-UM","2017/09/18 20:17:48","新北市新店區安康路二段458號","121.494161666667","24.9540366666667","6500600","新店區"
"231044","897-TW","2017/09/18 20:17:50","新北市新店區順安街20號","121.541053333333","24.9853516666667","6500600","新店區"
"231045","898-TW","2017/09/18 20:17:55","新北市新店區新坡一街102號","121.547785","24.9639283333333","6500600","新店區"
"231043","899-TW","2017/09/18 20:17:55","新北市新店區建國路133號","121.539323333333","24.9782133333333","6500600","新店區"
"231066","AKT-0513","2017/09/18 20:17:58","新北市新店區安民街166號","121.516843333333","24.9706083333333","6500600","新店區"
"241011","013-R5","2017/09/18 20:17:59","新北市三重區龍門路150號","121.498541666667","25.07301","6500200","三重區"
"241028","022-UY","2017/09/18 20:17:47","新北市三重區大同南路174號","121.496721666667","25.0573533333333","6500200","三重區"
"241008","059-VK","2017/09/18 20:17:53","新北市三重區永福街211巷19號","121.479206666667","25.0740683333333","6500200","三重區"
"241009","060-VK","2017/09/18 20:17:41","新北市三重區三和路四段382巷135號","121.479491666667","25.078165","6500200","三重區"
"241031","061-VK","2017/09/18 20:17:47","新北市三重區過圳街9-1號","121.488783333333","25.060155","6500200","三重區"
"241015","062-VK","2017/09/18 20:17:54","新北市三重區重新路一段100號","121.501148333333","25.06337","6500200","三重區"
"241017","063-VK","2017/09/18 20:17:42","新北市三重區大同北路223號","121.49138","25.0662216666667","6500200","三重區"
"241024","065-VK","2017/09/18 20:17:50","新北市三重區忠孝路三段13號","121.481736666667","25.0674183333333","6500200","三重區"
"241026","066-VK","2017/09/18 20:17:47","新北市三重區中央南路65號","121.501296666667","25.0610483333333","6500200","三重區"
"241002","090-VK","2017/09/18 20:17:52","新北市三重區仁忠街5號","121.497496666667","25.083025","6500200","三重區"
"241003","091-VK","2017/09/18 20:17:56","新北市三重區富華街70號","121.49059","25.083135","6500200","三重區"
"241005","262-UM","2017/09/18 20:17:53","新北市三重區碧華街213號","121.488745","25.08277","6500200","三重區"
"241016","266-UM","2017/09/18 20:17:55","新北市三重區新北大道一段7號","121.48985","25.06155","6500200","三重區"
"241022","267-UM","2017/09/18 20:17:57","新北市三重區明志街135號","121.488991666667","25.0632683333333","6500200","三重區"
"241032","269-UM","2017/09/18 20:17:40","新北市三重區捷運路19巷6弄1號","121.484831666667","25.0570116666667","6500200","三重區"
"241013","270-UM","2017/09/18 20:17:57","新北市三重區三和路三段151巷7號","121.492263333333","25.0737983333333","6500200","三重區"
"241025","271-UM","2017/09/18 20:17:24","新北市三重區中正北路312巷6號","121.479176666667","25.068635","6500200","三重區"
"241007","398-BY","2017/09/18 20:17:49","新北市三重區三和路四段117巷56號","121.486545","25.0779483333333","6500200","三重區"
"241020","413-TH","2017/09/18 20:17:55","新北市三重區忠孝路一段75號","121.490505","25.0720233333333","6500200","三重區"
"241004","475-VK","2017/09/18 20:17:57","新北市三重區仁愛街366巷32號","121.490831666667","25.0799716666667","6500200","三重區"
"241019","478-VK","2017/09/18 20:17:42","新北市三重區自強路二段33巷36號","121.490338333333","25.06981","6500200","三重區"
"241030","480-VK","2017/09/18 20:17:42","新北市三重區集美街89巷3號","121.488615","25.05304","6500200","三重區"
"241014","543-UM","2017/09/18 20:17:45","新北市三重區長榮路131號","121.504018333333","25.0694433333333","6500200","三重區"
"241023","545-UM","2017/09/18 20:17:41","新北市三重區頂崁街187巷10號","121.477978333333","25.06662","6500200","三重區"
"241035","743-BX","2017/09/18 20:17:41","新北市三重區正義北路32-1號","121.497428333333","25.0634366666667","6500200","三重區"
"241018","887-TS","2017/09/18 20:17:53","新北市三重區雙園街99號","121.493781666667","25.0673416666667","6500200","三重區"
"241012","941-UM","2017/09/18 20:17:56","新北市三重區河邊北街266號","121.501633333333","25.0765233333333","6500200","三重區"
"241029","942-UM","2017/09/18 20:17:37","新北市三重區中正南路129巷32號","121.493076666667","25.05671","6500200","三重區"
"241033","AAC-255","2017/09/18 20:17:55","新北市三重區光復路一段61巷31弄2號","121.474908333333","25.0492133333333","6500200","三重區"
"235066","003-UY","2017/09/18 20:17:53","新北市中和區水源路118號","121.506906666667","25.0034516666667","6500300","中和區"
"235039","097-UM","2017/09/18 20:17:46","新北市中和區大勇街25巷9弄1號","121.51682","24.9932983333333","6500300","中和區"
"235065","098-UM","2017/09/18 20:17:50","新北市中和區永和路128巷9號","121.497681666667","25.00697","6500300","中和區"
"235040","150-BY","2017/09/18 20:17:49","新北市中和區保健路44巷12號","121.50915","24.99685","6500300","中和區"
"235044","293-VK","2017/09/18 20:17:50","新北市中和區復興路335號","121.500256666667","24.9901533333333","6500300","中和區"
"235072","301-VK","2017/09/18 20:17:55","新北市林口區太平里180號","121.366565","25.1343833333333","6500300","中和區"
"235068","377-QA","2017/09/18 20:17:45","新北市中和區福祥路83號","121.499096666667","25.0058583333333","6500300","中和區"
"235050","4979-A6","2017/09/18 20:17:47","新北市中和區景平路426號","121.507483333333","24.9933433333333","6500300","中和區"
"235069","4980-A6","2017/09/18 20:17:40","新北市中和區圓通路198巷2弄3號","121.496236666667","24.9946833333333","6500300","中和區"
"235042","551-UM","2017/09/18 20:17:42","新北市新店區薏仁坑路自強巷1號","121.497796666667","24.95768","6500300","中和區"
"235070","558-UM","2017/09/18 20:17:43","新北市中和區中正路250號","121.495681666667","24.993965","6500300","中和區"
"235041","802-TS","2017/09/18 20:17:48","新北市中和區安平路38號","121.509965","24.9949566666667","6500300","中和區"
"235037","AAC-213","2017/09/18 20:17:38","新北市永和區民族街81巷62號","121.520408333333","24.9963333333333","6500300","中和區"
"235059","AAC-215","2017/09/18 20:18:00","新北市中和區圓通路391-2號","121.489988333333","24.9892","6500300","中和區"
"220065","072-UY","2017/09/18 20:17:43","新北市板橋區館前西路25號","121.45854","25.00688","6500100","板橋區"
"220069","AAD-861","2017/09/18 20:17:58","新北市板橋區貴興路51號","121.457536666667","25.0032583333333","6500100","板橋區"
"247022","893-R6","2017/09/18 20:17:40","新北市蘆洲區民族路568號","121.467261666667","25.08878","6501400","蘆洲區"
"247012","546-UM","2017/09/18 20:17:43","新北市蘆洲區中興街15巷28號","121.480145","25.0879816666667","6501400","蘆洲區"
"247020","500-BY","2017/09/18 20:17:58","新北市蘆洲區仁愛街127號","121.470485","25.0945166666667","6501400","蘆洲區"
"247001","402-BY","2017/09/18 16:32:08","新北市五股區中興路三段3-6號","121.449578333333","25.0787466666667","6501400","蘆洲區"
"247010","339-TH","2017/09/18 20:17:51","新北市蘆洲區信義路222巷32弄16號","121.480418333333","25.0846016666667","6501400","蘆洲區"
"247002","337-TH","2017/09/18 20:17:45","新北市蘆洲區長安街331巷36號","121.455855","25.086715","6501400","蘆洲區"
"247004","336-TH","2017/09/18 20:17:46","新北市蘆洲區長安街220巷11弄2號","121.459536666667","25.0851483333333","6501400","蘆洲區"
"247016","057-VK","2017/09/18 20:17:59","新北市蘆洲區光華路132巷39號","121.465755","25.0837416666667","6501400","蘆洲區"
"247006","056-VK","2017/09/18 20:17:40","新北市蘆洲區九芎街139巷22弄7號","121.465968333333","25.0785583333333","6501400","蘆洲區"
"247008","053-VK","2017/09/18 20:17:44","新北市蘆洲區集賢路300號","121.481626666667","25.085145","6501400","蘆洲區"
"247014","007-UY","2017/09/18 20:17:56","新北市蘆洲區中山二路147號","121.471588333333","25.0814533333333","6501400","蘆洲區"
"247024","002-UY","2017/09/18 20:17:39","新北市蘆洲區光榮路120巷8弄41號","121.464483333333","25.087975","6501400","蘆洲區"
"247018","001-UY","2017/09/18 20:17:56","新北市蘆洲區民族路408巷10號","121.47478","25.091855","6501400","蘆洲區"
"208003","665-BX","2017/09/18 20:17:58","新北市金山區海興路41號","121.630718333333","25.2384066666667","6502700","金山區"
"251009","008-UM","2017/09/18 20:17:40","新北市淡水區中山路88號","121.442958333333","25.170575","6501000","淡水區"
"251008","181-VK","2017/09/18 20:17:49","新北市淡水區淡海路150巷8號","121.42215","25.1840516666667","6501000","淡水區"
"251013","182-VK","2017/09/18 20:17:50","新北市淡水區相公山1-2號","121.474268333333","25.206695","6501000","淡水區"
"251010","413-VK","2017/09/18 20:17:56","新北市淡水區新民街一段134號","121.427525","25.1888883333333","6501000","淡水區"
"251012","441-VK","2017/09/18 20:17:52","新北市淡水區淡金路三段352號","121.449268333333","25.209105","6501000","淡水區"
"251015","442-VK","2017/09/18 20:17:56","新北市淡水區淡金路四段542巷17號","121.452688333333","25.2270933333333","6501000","淡水區"
"251001","559-UM","2017/09/18 20:17:57","新北市淡水區新市二路四段265號","121.445753333333","25.1924866666667","6501000","淡水區"
"251006","561-UM","2017/09/18 20:17:49","新北市淡水區北新路169巷4號","121.450273333333","25.1795316666667","6501000","淡水區"
"251011","650-BX","2017/09/18 20:17:43","新北市淡水區下圭柔山90-8號","121.431348333333","25.210215","6501000","淡水區"
"251003","766-UM","2017/09/18 20:17:43","新北市淡水區中山北路一段229號","121.44447","25.1795633333333","6501000","淡水區"
"207004","225-TW","2017/09/18 20:17:55","新北市萬里區北基里仁七街9號","121.680958333333","25.1753283333333","6502800","萬里區"
"252002","178-VK","2017/09/18 20:17:41","新北市三芝區中正路一段18巷6號","121.503381666667","25.2589066666667","6502100","三芝區"
"252001","292-VK","2017/09/18 20:17:38","新北市三芝區中山路一段14號","121.500678333333","25.258025","6502100","三芝區"
"252006","AAC-283","2017/09/18 16:42:18","新北市三芝區埔坪里埔頭坑41號","121.504495","25.2644333333333","6502100","三芝區"
"237012","275-BY","2017/09/18 20:17:59","新北市三峽區中華路61號","121.372228333333","24.9306066666667","6500900","三峽區"
"237006","5529-G3","2017/09/18 20:17:47","新北市三峽區嘉添9號","121.368681666667","24.912","6500900","三峽區"
"237005","AKY-6261","2017/09/18 20:17:53","新北市三峽區三樹路98巷74弄91號","121.38509","24.9384583333333","6500900","三峽區"
"236069","105-UM","2017/09/18 20:17:48","新北市土城區大安路89號","121.433146666667","24.967765","6501300","土城區"
"236042","107-UM","2017/09/18 20:17:37","新北市土城區學享街7號","121.450775","24.9872816666667","6501300","土城區"
"236078","166-UM","2017/09/18 20:17:44","新北市土城區德安街20號","121.42148","24.9643783333333","6501300","土城區"
"236030","253-BX","2017/09/18 20:17:42","新北市土城區中央路一段45巷2弄2號","121.448466666667","24.9903066666667","6501300","土城區"
"236026","269-VK","2017/09/18 20:17:48","新北市土城區中央路一段249巷10弄1號","121.445785","24.98541","6501300","土城區"
"236014","270-VK","2017/09/18 20:17:45","新北市土城區廣明街90巷23號","121.45548","24.9946283333333","6501300","土城區"
"236036","271-VK","2017/09/18 20:17:48","新北市土城區明德路一段42號","121.465233333333","24.9843716666667","6501300","土城區"
"236020","401-BY","2017/09/18 20:17:50","新北市土城區延吉街111巷12弄18號","121.471538333333","24.98561","6501300","土城區"
"236058","912-UM","2017/09/18 20:17:52","新北市土城區中央路二段191-3號","121.442146666667","24.9753366666667","6501300","土城區"
"236053","AAC-216","2017/09/18 20:17:41","新北市土城區中華路二段62號","121.438938333333","24.9766766666667","6501300","土城區"
"242031","AAC-296","2017/09/18 20:17:39","新北市新莊區中正路414-1號","121.440971666667","25.03403","6500500","新莊區"
"242029","986-R7","2017/09/18 20:17:46","新北市新莊區中原路486號","121.447298333333","25.054635","6500500","新莊區"
"242050","751-BX","2017/09/18 20:17:47","新北市新莊區民安西路212巷6號","121.425373333333","25.0149883333333","6500500","新莊區"
"242025","615-BX","2017/09/18 20:17:51","新北市新莊區五工三路70巷7號","121.459406666667","25.0651333333333","6500500","新莊區"
"242023","613-BX","2017/09/18 20:17:43","新北市新莊區化成路728號","121.4657","25.0571716666667","6500500","新莊區"
"242027","612-BX","2017/09/18 20:17:55","新北市新莊區幸福路602-1號","121.452275","25.049335","6500500","新莊區"
"242039","566-BX","2017/09/18 20:17:56","新北市新莊區龍安路471號","121.425078333333","25.0183783333333","6500500","新莊區"
"242034","497-BY","2017/09/18 20:17:46","新北市新莊區建中街116巷3弄2號","121.44511","25.0371466666667","6500500","新莊區"
"242044","442-UM","2017/09/18 20:17:48","新北市新莊區中正路895-46號","121.412246666667","25.0213816666667","6500500","新莊區"
"242048","441-UM","2017/09/18 20:17:50","新北市新莊區四維路186巷9號","121.421351666667","25.02119","6500500","新莊區"
"242053","440-UM","2017/09/18 20:17:47","新北市新莊區民安西路282號","121.426103333333","25.012565","6500500","新莊區"
"242042","400-BY","2017/09/18 20:17:42","新北市新莊區天祥街54巷2弄1號","121.416653333333","25.02914","6500500","新莊區"
"242060","362-BY","2017/09/18 20:17:49","新北市新莊區新樹路168號","121.434781666667","25.0221116666667","6500500","新莊區"
"242058","353-BY","2017/09/18 20:17:41","新北市新莊區四維路213號","121.42167","25.0199933333333","6500500","新莊區"
"242007","132-UY","2017/09/18 20:17:56","新北市新莊區福壽街94巷10號","121.458765","25.0500116666667","6500500","新莊區"
"242036","133-UY","2017/09/18 20:17:51","新北市新莊區建安街24號","121.428843333333","25.0261816666667","6500500","新莊區"
"242021","135-UY","2017/09/18 20:17:55","新北市新莊區復興路一段7號","121.445658333333","25.0416083333333","6500500","新莊區"
"242046","172-VK","2017/09/18 20:17:47","新北市新莊區中正路新生巷55號","121.417446666667","25.0228216666667","6500500","新莊區"
"242009","173-VK","2017/09/18 20:16:42","新北市新莊區昌平街57號","121.454725","25.053085","6500500","新莊區"
"242015","175-VK","2017/09/18 20:17:50","新北市新莊區中和街42號","121.448133333333","25.04414","6500500","新莊區"
"242002","176-VK","2017/09/18 20:17:49","新北市新莊區化成路32號","121.464973333333","25.0430216666667","6500500","新莊區"
"242013","346-TH","2017/09/18 20:17:55","新北市新莊區中和街186巷2弄2號","121.447643333333","25.049715","6500500","新莊區"
"242019","348-TH","2017/09/18 20:17:54","新北市新莊區博愛路7巷2號","121.456021666667","25.043905","6500500","新莊區"
"242056","349-TH","2017/09/18 20:17:43","新北市新莊區豐年街28巷1弄2號","121.445926666667","25.0323566666667","6500500","新莊區"
"242017","350-TH","2017/09/18 20:17:52","新北市新莊區中港一街119號","121.448511666667","25.0451716666667","6500500","新莊區"
"238023","601-UM","2017/09/18 20:17:45","新北市樹林區環河路2-2號","121.425461666667","24.9768683333333","6500700","樹林區"
"238021","KEA-2217","2017/09/18 20:17:46","新北市樹林區田尾街192巷10-1號","121.400103333333","24.9495766666667","6500700","樹林區"
"238008","308-TH","2017/09/18 13:30:47","新北市樹林區育德街76巷1號","121.38879","24.9683133333333","6500700","樹林區"
"239005","526-UM","2017/09/18 20:16:42","新北市鶯歌區二甲路13-16號","121.345101666667","24.93513","6500800","鶯歌區"
"221008","489-VK","2017/09/18 20:17:50","新北市汐止區康寧街163號","121.622228333333","25.0667683333333","6501100","汐止區"
"221036","130-UY","2017/09/18 20:17:37","新北市汐止區福安街59巷13號","121.664488333333","25.0640116666667","6501100","汐止區"
"221015","131-UY","2017/09/18 20:17:50","新北市汐止區建成路142巷19弄17號","121.661816666667","25.0738683333333","6501100","汐止區"
"221010","269-BY","2017/09/18 20:17:42","新北市汐止區八連路一段317號","121.639705","25.0860566666667","6501100","汐止區"
"221012","278-VK","2017/09/18 20:17:41","新北市汐止區保新街267號","121.690521666667","25.0681833333333","6501100","汐止區"
"221023","279-VK","2017/09/18 20:17:38","新北市汐止區明峰街310號","121.625045","25.0675716666667","6501100","汐止區"
"221032","280-BY","2017/09/18 20:17:38","新北市汐止區弘道街53巷2號","121.618633333333","25.0483866666667","6501100","汐止區"
"221027","281-BY","2017/09/18 20:17:42","新北市汐止區中正路99巷18號","121.661121666667","25.068945","6501100","汐止區"
"221038","297-VK","2017/09/18 20:17:42","新北市汐止區忠孝東路488號","121.666511666667","25.07486","6501100","汐止區"
"221029","298-VK","2017/09/18 20:17:52","新北市汐止區樟樹一路99巷7弄1號","121.641178333333","25.0636466666667","6501100","汐止區"
"221021","299-VK","2017/09/18 20:17:52","新北市汐止區水源路一段235號","121.654273333333","25.0604233333333","6501100","汐止區"
"221031","353-TW","2017/09/18 20:17:57","新北市汐止區福德二路98號","121.632491666667","25.0661333333333","6501100","汐止區"
"221035","622-UM","2017/09/18 20:17:53","新北市汐止區長江街97號","121.658193333333","25.07282","6501100","汐止區"
"221025","623-UM","2017/09/18 20:17:59","新北市汐止區水源路二段30號","121.654748333333","25.05729","6501100","汐止區"
"221033","647-BX","2017/09/18 20:17:43","新北市汐止區東勢街201巷104號","121.633601666667","25.0429033333333","6501100","汐止區"
"221002","707-TV","2017/09/18 20:17:42","新北市汐止區福德二路18號","121.635093333333","25.0680566666667","6501100","汐止區"
"221018","753-BX","2017/09/18 20:18:01","新北市汐止區茄安路14號","121.673091666667","25.0678983333333","6501100","汐止區"
"220101","245-BX","2017/09/18 20:17:50","新北市板橋區莊敬路40號","121.473073333333","25.0269366666667","6500100","板橋區"
"220097","257-TC","2017/09/18 20:17:45","新北市板橋區文化路一段221巷10號","121.463211666667","25.0177083333333","6500100","板橋區"
"220083","286-VK","2017/09/18 20:17:43","新北市板橋區僑中二街90巷2號","121.446433333333","25.0091566666667","6500100","板橋區"
"220081","287-VK","2017/09/18 19:31:31","新北市板橋區大觀路一段75巷37號","121.448861666667","25.0042383333333","6500100","板橋區"
"220061","293-UM","2017/09/18 20:17:41","新北市板橋區中山路二段13號","121.472146666667","25.0149833333333","6500100","板橋區"
"242001","281-VK","2017/09/18 17:00:36","新北市新莊區環河路636-7號","121.437383333333","25.0112416666667","6500500","新莊區"
"220089","487-VK","2017/09/18 20:17:55","新北市板橋區互助街28號","121.462311666667","25.0273116666667","6500100","板橋區"
"242011","280-VK","2017/09/18 20:17:50","新北市新莊區中信街37巷1弄1號","121.450333333333","25.0505233333333","6500500","新莊區"
"220103","561-BX","2017/09/18 20:17:42","新北市板橋區新海路186號","121.460876666667","25.023545","6500100","板橋區"
"220084","568-UM","2017/09/18 20:17:47","新北市板橋區溪崑二街112巷42號","121.425445","24.98927","6500100","板橋區"
"220055","827-TW","2017/09/18 20:17:37","新北市板橋區重慶路290巷32號","121.46193","24.9986633333333","6500100","板橋區"
"220102","830-TW","2017/09/18 20:17:45","新北市板橋區文化路一段98號","121.46454","25.0179583333333","6500100","板橋區"
"220074","895-R6","2017/09/18 20:17:54","新北市板橋區府中路57號","121.45837","25.0094533333333","6500100","板橋區"
"220070","AAC-253","2017/09/18 20:17:58","新北市板橋區四川路二段245巷23號","121.451331666667","24.9929883333333","6500100","板橋區"
