"lineid","car","time","location","longitude","latitude","cityid","cityname"
"244019","403-UM","2017/09/18 20:56:04","新北市林口區粉寮69號","121.4051","25.09078","6501700","林口區"
"231050","215-TC","2017/09/18 21:27:47","新北市新店區三民路21巷1號","121.539175","24.9715366666667","6500600","新店區"
"231063","268-BY","2017/09/18 21:27:41","新北市新店區吉祥街11巷2號","121.497651666667","24.9463383333333","6500600","新店區"
"231042","641-BX","2017/09/18 21:27:41","新北市新店區安平路53-2號","121.52046","24.9661933333333","6500600","新店區"
"241017","063-VK","2017/09/18 21:27:42","新北市三重區中正北路25巷2號","121.49322","25.0626866666667","6500200","三重區"
"241024","065-VK","2017/09/18 21:27:49","新北市三重區中正北路115巷6號","121.484118333333","25.0676966666667","6500200","三重區"
"241005","262-UM","2017/09/18 21:27:53","新北市三重區仁華街116-1號","121.485893333333","25.0831","6500200","三重區"
"241016","266-UM","2017/09/18 21:27:55","新北市三重區正義北路176號","121.496491666667","25.0664333333333","6500200","三重區"
"241007","398-BY","2017/09/18 21:27:48","新北市三重區正義北路113號","121.496915","25.065815","6500200","三重區"
"235026","800-TS","2017/09/18 20:30:08","新北市中和區員山路36巷16-3號","121.48478","24.991645","6500300","中和區"
"247022","893-R6","2017/09/18 21:27:40","新北市蘆洲區長榮路253號","121.459908333333","25.0861333333333","6501400","蘆洲區"
"247012","546-UM","2017/09/18 21:27:43","新北市蘆洲區復興路335巷6-6號","121.486753333333","25.0933616666667","6501400","蘆洲區"
"247020","500-BY","2017/09/18 21:27:38","新北市蘆洲區永平街32巷45弄36號","121.458263333333","25.0932266666667","6501400","蘆洲區"
"247001","402-BY","2017/09/18 16:32:08","新北市五股區中興路三段3-6號","121.449578333333","25.0787466666667","6501400","蘆洲區"
"247010","339-TH","2017/09/18 21:27:50","新北市蘆洲區三民路26巷33號","121.477021666667","25.0828866666667","6501400","蘆洲區"
"247002","337-TH","2017/09/18 21:27:45","新北市五股區中興路三段5號","121.450793333333","25.0801433333333","6501400","蘆洲區"
"247008","053-VK","2017/09/18 21:27:44","新北市蘆洲區中山一路97巷32弄5號","121.475685","25.081185","6501400","蘆洲區"
"247014","007-UY","2017/09/18 21:27:35","新北市蘆洲區中正路185巷76號","121.466196666667","25.0843683333333","6501400","蘆洲區"
"247024","002-UY","2017/09/18 21:27:38","新北市蘆洲區環堤大道92號","121.455345","25.0850833333333","6501400","蘆洲區"
"251009","008-UM","2017/09/18 21:27:40","新北市淡水區民族路33巷16-8號","121.463386666667","25.1359516666667","6501000","淡水區"
"251004","009-UM","2017/09/18 21:27:56","新北市淡水區民族路19號","121.460556666667","25.1370066666667","6501000","淡水區"
"251007","179-VK","2017/09/18 21:27:47","新北市淡水區水源街二段194號","121.456886666667","25.1760766666667","6501000","淡水區"
"251008","181-VK","2017/09/18 21:27:49","新北市淡水區水源街二段181號","121.455646666667","25.1756133333333","6501000","淡水區"
"251013","182-VK","2017/09/18 21:27:50","新北市淡水區埤島50-2號","121.461045","25.198035","6501000","淡水區"
"251010","413-VK","2017/09/18 21:27:36","新北市淡水區沙崙路25巷21號","121.420578333333","25.18235","6501000","淡水區"
"251012","441-VK","2017/09/18 21:27:52","新北市淡水區淡金路五段20號","121.452623333333","25.2324716666667","6501000","淡水區"
"251015","442-VK","2017/09/18 21:27:56","新北市淡水區中山北路三段157號","121.445176666667","25.1962833333333","6501000","淡水區"
"251005","443-VK","2017/09/18 21:27:54","新北市淡水區水源街一段73號","121.44464","25.1723466666667","6501000","淡水區"
"251001","559-UM","2017/09/18 21:27:37","新北市淡水區濱海路一段306巷9弄57號","121.438936666667","25.190995","6501000","淡水區"
"251006","561-UM","2017/09/18 21:27:53","新北市淡水區公明街34號","121.442841666667","25.168995","6501000","淡水區"
"251011","650-BX","2017/09/18 21:27:43","新北市淡水區新民街122號","121.437585","25.177775","6501000","淡水區"
"251003","766-UM","2017/09/18 21:27:43","新北市淡水區崁頂15-5號","121.43895","25.1859","6501000","淡水區"
"252006","AAC-283","2017/09/18 16:42:18","新北市三芝區埔坪里埔頭坑41號","121.504495","25.2644333333333","6502100","三芝區"
"238008","308-TH","2017/09/18 13:30:47","新北市樹林區育德街76巷1號","121.38879","24.9683133333333","6500700","樹林區"
"242001","281-VK","2017/09/18 17:00:36","新北市新莊區環河路636-7號","121.437383333333","25.0112416666667","6500500","新莊區"
"220070","AAC-253","2017/09/18 21:27:44","新北市板橋區華東街1-9號","121.448241666667","24.99486","6500100","板橋區"
