"lineid","car","time","location","longitude","latitude"
"248005","653-BX","2017/05/29 08:18:42","新北市五股區明德路12巷1號","121.433281666667","25.0716683333333"
"232005","290-BY","2017/05/29 08:05:08","新北市坪林區鶯子瀨3-1號","121.70593","24.914125"
"232001","291-BY","2017/05/29 08:18:35","新北市坪林區粗石斛2號","121.747075","24.953895"
"232012","705-BZ","2017/05/29 08:18:46","新北市坪林區金瓜寮24-2號","121.680256666667","24.908075"
"232017","758-BX","2017/05/29 08:17:46","新北市坪林區中心崙9號","121.780883333333","24.9422416666667"
"244006","080-UY","2017/05/29 08:18:58","新北市林口區湖子48-3號","121.383143333333","25.0950933333333"
"244001","248-BX","2017/05/29 08:19:02","新北市林口區下福里26號","121.309083333333","25.1117633333333"
"244019","402-UM","2017/05/29 08:18:55","新北市林口區文化一路一段190巷7弄2-2號","121.379906666667","25.0746566666667"
"244012","742-UY","2017/05/29 08:18:58","新北市林口區中正路555號","121.381136666667","25.076905"
"244008","410-SL","2017/05/29 08:18:49","新北市林口區中北三街186號","121.382913333333","25.082445"
"244022","483-VK","2017/05/29 08:19:03","新北市林口區育林街11巷2號","121.385636666667","25.0752883333333"
"244016","485-VK","2017/05/29 08:19:02","新北市林口區文化二路一段260巷4號","121.371123333333","25.0734066666667"
"244010","701-TV","2017/05/29 08:18:57","新北市林口區竹林路4號","121.38665","25.077105"
"244024","837-TS","2017/05/29 08:19:03","新北市林口區文化三路一段249巷75號","121.363083333333","25.0724383333333"
"244020","838-TS","2017/05/29 08:19:01","新北市林口區東林街14號","121.3962","25.0789216666667"
"222005","289-BY","2017/05/29 08:18:51","新北市深坑區深南路51-1號","121.621375","25.0101533333333"
"231052","187-VK","2017/05/29 08:18:48","新北市新店區北宜路三段50號","121.57268","24.9507433333333"
"231008","192-VK","2017/05/29 08:19:00","新北市新店區新烏路一段231號","121.54913","24.930755"
"247001","402-BY","2017/05/29 08:18:50","新北市蘆洲區民族路422巷114弄31號","121.472716666667","25.095165"
"226005","5620-A6","2017/05/29 08:19:00","新北市平溪區南山里南山坪114號","121.782988333333","25.0440866666667"
"226001","7418-A5","2017/05/29 08:16:28","新北市平溪區東勢里番仔坑3號","121.746951666667","25.0001833333333"
"226003","AGD-0702","2017/05/29 08:09:37","新北市平溪區嶺腳里嶺腳寮85號","121.749468333333","25.0353616666667"
"223006","022-BY","2017/05/29 08:18:50","新北市深坑區旺耽路45巷21號","121.628271666667","25.0030483333333"
"223002","198-BX","2017/05/29 08:18:58","新北市石碇區北宜路五段58號","121.633708333333","24.95295"
"223008","406-TH","2017/05/29 08:19:03","新北市石碇區靜安路一段253號","121.692831666667","25.0066316666667"
"223001","592-UM","2017/05/29 08:19:01","新北市石碇區北宜路五段80號","121.646673333333","24.9518483333333"
"223004","660-BX","2017/05/29 08:18:58","新北市石碇區外按16-1號","121.650628333333","24.997585"
"223007","661-BX","2017/05/29 08:18:52","新北市石碇區靜安路一段253號","121.692703333333","25.006595"
"223005","677-TV","2017/05/29 08:18:54","新北市石碇區外按16-1號","121.650651666667","24.99758"
"227005","282-VK","2017/05/29 08:15:04","新北市雙溪區上林里大瀨13號","121.824121666667","25.0201916666667"
"253003","6232-TK","2017/05/29 08:18:48","新北市石門區石崩山21-1號","121.5671","25.277525"
"253001","6251-TK","2017/05/29 08:18:59","新北市石門區楓林7號","121.537725","25.2940833333333"
"253002","637-UY","2017/05/29 08:18:36","新北市石門區大溪墘9-7號","121.552671666667","25.27496"
"253004","8270-PC","2017/05/29 08:18:52","新北市石門區阿里荖4-2號","121.61388","25.2786916666667"
"252006","073-UM","2017/05/29 08:18:46","新北市三芝區後厝里大片頭88號","121.457396666667","25.2456016666667"
"252004","249-BX","2017/05/29 08:18:53","新北市三芝區興華里車埕59號","121.498736666667","25.1969566666667"
"237001","159-UY","2017/05/29 08:18:59","新北市三峽區大德路70號","121.377291666667","24.9432783333333"
"236007","165-UM","2017/05/29 08:18:51","新北市土城區石門路85-6號","121.46859","24.9566583333333"
"236001","339-SR","2017/05/29 08:18:50","新北市土城區中州路76號","121.412038333333","24.95836"
"236005","498-BY","2017/05/29 08:19:01","新北市土城區大暖路39號","121.423555","24.96057"
"242020","AAC-296","2017/05/29 08:18:54","新北市新莊區永寧街30巷2號","121.452918333333","25.0389533333333"
"242028","986-R7","2017/05/29 08:18:57","新北市新莊區中平路86號","121.444838333333","25.0450916666667"
"242047","751-BX","2017/05/29 08:18:53","新北市新莊區萬安街24號","121.421393333333","25.0245416666667"
"242024","615-BX","2017/05/29 08:18:58","新北市新莊區五權一路3-9號","121.457621666667","25.0657383333333"
"242022","613-BX","2017/05/29 08:18:57","新北市新莊區福壽街35號","121.45819","25.04846"
"242026","612-BX","2017/05/29 08:18:56","新北市新莊區福壽街160號","121.458251666667","25.0526766666667"
"242035","566-BX","2017/05/29 08:18:56","新北市新莊區建福路59巷31號","121.428053333333","25.0277483333333"
"242040","497-BY","2017/05/29 08:18:59","新北市新莊區壽山路27號","121.420293333333","25.0290716666667"
"242045","441-UM","2017/05/29 08:18:59","新北市新莊區建國一路23號","121.434011666667","25.031365"
"242030","415-TV","2017/05/29 08:18:53","新北市新莊區新泰路351號","121.444615","25.042395"
"242001","413-TV","2017/05/29 08:19:01","新北市新莊區新莊路16-2號","121.458901666667","25.0375383333333"
"242038","400-BY","2017/05/29 08:18:43","新北市新莊區民安西路1號","121.426508333333","25.0218816666667"
"242059","362-BY","2017/05/29 08:18:58","新北市新莊區新樹路107號","121.437586666667","25.0269616666667"
"242057","353-BY","2017/05/29 08:18:44","新北市新莊區新北大道七段371號","121.412598333333","25.026565"
"242010","132-UY","2017/05/29 08:18:56","新北市新莊區中港路684號","121.450723333333","25.0568016666667"
"242033","133-UY","2017/05/29 08:18:46","新北市新莊區福海街31巷2號","121.44522","25.0339566666667"
"242018","135-UY","2017/05/29 08:19:00","新北市新莊區明中街51巷1號","121.456873333333","25.0396283333333"
"242043","172-VK","2017/05/29 08:19:04","新北市新莊區雙鳳路32號","121.416511666667","25.0270683333333"
"242006","173-VK","2017/05/29 08:18:50","新北市新莊區福樂街156巷12弄2號","121.456123333333","25.048735"
"242012","175-VK","2017/05/29 08:19:00","新北市新莊區中泰街104巷5弄11號","121.448291666667","25.04683"
"242055","176-VK","2017/05/29 08:18:07","新北市新莊區豐年街100巷1號","121.446486666667","25.0307183333333"
"242049","346-TH","2017/05/29 08:18:48","新北市新莊區民安西路155巷7弄17號","121.42689","25.0170016666667"
"242003","347-TH","2017/05/29 08:18:52","新北市新莊區福樂街56巷16號","121.458418333333","25.0460966666667"
"242016","348-TH","2017/05/29 08:18:45","新北市新莊區永安街4號","121.452298333333","25.0448566666667"
"242052","349-TH","2017/05/29 08:18:56","新北市新莊區新樹路701號","121.43212","25.0022633333333"
"242014","350-TH","2017/05/29 08:19:01","新北市新莊區新泰路502巷55號","121.44439","25.046405"
"242008","351-TH","2017/05/29 08:19:03","新北市新莊區昌平街59巷26號","121.453946666667","25.05328"
"239008","527-UM","2017/05/29 08:16:29","新北市鶯歌區永和街69號","121.333036666667","24.967805"
"239005","526-UM","2017/05/29 08:18:54","新北市鶯歌區永和街34巷10弄2號","121.333355","24.967385"
