"lineid","car","time","location","longitude","latitude"
"248005","653-BX","2017/05/29 08:48:42","新北市五股區明德路12巷1號","121.433295","25.07169"
"232005","290-BY","2017/05/29 08:48:57","新北市坪林區石7號","121.70938","24.9084366666667"
"232001","291-BY","2017/05/29 08:48:55","新北市坪林區下坑子口6-15號","121.711493333333","24.9434183333333"
"232012","705-BZ","2017/05/29 08:43:56","新北市坪林區北宜路八段6號","121.701815","24.9357983333333"
"232017","758-BX","2017/05/29 08:48:59","新北市坪林區鷺鶿岫4-1號","121.787133333333","24.9564233333333"
"244006","080-UY","2017/05/29 08:48:27","新北市林口區竹林路270號","121.389976666667","25.0813566666667"
"244019","402-UM","2017/05/29 08:48:55","新北市林口區文化一路一段135巷7號","121.37315","25.071955"
"244012","742-UY","2017/05/29 08:48:58","新北市林口區中山路160巷21號","121.391643333333","25.07932"
"244008","410-SL","2017/05/29 08:48:49","新北市林口區中山路492號","121.379988333333","25.0824983333333"
"244022","483-VK","2017/05/29 08:48:58","新北市林口區東湖一街69號","121.385406666667","25.07252"
"244016","485-VK","2017/05/29 08:49:02","新北市林口區文化二路一段68巷2號","121.36617","25.0686766666667"
"244010","701-TV","2017/05/29 08:48:57","新北市林口區中正路106號","121.393733333333","25.0772266666667"
"244024","837-TS","2017/05/29 08:48:43","新北市林口區南勢里41-1號","121.355608333333","25.0748916666667"
"244020","838-TS","2017/05/29 08:49:01","新北市林口區工六路94號","121.400993333333","25.0767283333333"
"222005","289-BY","2017/05/29 08:48:51","新北市深坑區土庫尖路75-1號","121.63124","25.0181883333333"
"231052","187-VK","2017/05/29 08:48:48","新北市新店區青峰路26號","121.58653","24.9529866666667"
"231008","192-VK","2017/05/29 08:49:00","新北市新店區新烏路三段寶島巷2弄3號","121.552036666667","24.898655"
"247001","402-BY","2017/05/29 08:48:50","新北市蘆洲區民族路422巷114弄55號","121.471906666667","25.0951233333333"
"226005","5620-A6","2017/05/29 08:49:00","新北市平溪區南山里乾坑10號","121.790211666667","25.0471933333333"
"226001","7418-A5","2017/05/29 08:30:08","新北市平溪區東勢里番仔坑16號","121.75553","24.9915483333333"
"226003","AGD-0702","2017/05/29 08:48:57","新北市平溪區十分里十分街54號","121.775226666667","25.0414366666667"
"223006","022-BY","2017/05/29 08:48:50","新北市石碇區靜安路一段97號","121.66165","25.0074966666667"
"223002","198-BX","2017/05/29 08:48:49","新北市石碇區北宜路五段土巷10號","121.62753","24.944165"
"223008","406-TH","2017/05/29 08:49:03","新北市石碇區十八重溪13號","121.677846666667","25.0112483333333"
"223001","592-UM","2017/05/29 08:49:01","新北市石碇區北宜路六段塗潭巷18號","121.649928333333","24.9330116666667"
"223004","660-BX","2017/05/29 08:48:58","新北市石碇區崩山47號","121.678516666667","24.97048"
"223007","661-BX","2017/05/29 08:48:51","新北市石碇區十八重溪13號","121.67782","25.011255"
"223005","677-TV","2017/05/29 08:48:54","新北市石碇區崩山31-1號","121.678836666667","24.9658766666667"
"227005","282-VK","2017/05/29 08:48:43","新北市雙溪區泰平里料角坑3號","121.822478333333","24.9701966666667"
"253003","6232-TK","2017/05/29 08:48:48","新北市石門區內石門18-3號","121.572451666667","25.2743333333333"
"253001","6251-TK","2017/05/29 08:48:59","新北市石門區下員坑16-6號","121.508206666667","25.279635"
"253002","637-UY","2017/05/29 08:48:56","新北市石門區九芎林36-1號","121.566125","25.2533216666667"
"253004","8270-PC","2017/05/29 08:48:52","新北市石門區阿里荖48號","121.603513333333","25.276305"
"252006","073-UM","2017/05/29 08:48:46","新北市三芝區古庄里四棧橋38-1號","121.483445","25.2630616666667"
"252004","249-BX","2017/05/29 08:48:53","新北市三芝區興華里田心子16號","121.493341666667","25.2043716666667"
"236007","165-UM","2017/05/29 08:48:51","新北市土城區清水路32巷2號","121.45579","24.9809816666667"
"236001","339-SR","2017/05/29 08:48:50","新北市土城區中央路三段81-2號","121.43853","24.9684483333333"
"236005","498-BY","2017/05/29 08:48:49","新北市土城區承天路4巷27號","121.436885","24.960615"
"242020","AAC-296","2017/05/29 08:48:54","新北市新莊區中正路281號","121.44915","25.035345"
"242028","986-R7","2017/05/29 08:48:57","新北市新莊區中平路378號","121.444706666667","25.0534733333333"
"242047","751-BX","2017/05/29 08:48:45","新北市新莊區民安路49號","121.42395","25.0262266666667"
"242024","615-BX","2017/05/29 08:48:58","新北市新莊區五工路68巷5號","121.458168333333","25.0638833333333"
"242022","613-BX","2017/05/29 08:48:57","新北市新莊區化成路752-8號","121.465388333333","25.058295"
"242026","612-BX","2017/05/29 08:48:52","新北市新莊區立信三街35巷1號","121.442948333333","25.0506216666667"
"242035","566-BX","2017/05/29 08:48:56","新北市新莊區建安街102號","121.425691666667","25.0237216666667"
"242040","497-BY","2017/05/29 08:48:59","新北市新莊區青山路一段32號","121.410696666667","25.0275533333333"
"242045","441-UM","2017/05/29 08:48:51","新北市新莊區民安路16-29號","121.422376666667","25.02791"
"242030","415-TV","2017/05/29 08:49:01","新北市新莊區新泰路225巷5號","121.446141666667","25.0391483333333"
"242001","413-TV","2017/05/29 08:49:01","新北市新莊區中正路2號","121.465815","25.0420816666667"
"242038","400-BY","2017/05/29 08:49:03","新北市新莊區民安西路59號","121.427455","25.0202616666667"
"242059","362-BY","2017/05/29 08:48:58","新北市新莊區瓊林路186號","121.440435","25.0220733333333"
"242057","353-BY","2017/05/29 08:49:04","新北市新莊區中正路881-8號","121.417356666667","25.025385"
"242010","132-UY","2017/05/29 08:48:56","新北市新莊區中榮街17號","121.450766666667","25.0527866666667"
"242033","133-UY","2017/05/29 08:48:46","新北市新莊區建中街102號","121.446456666667","25.0365516666667"
"242018","135-UY","2017/05/29 08:48:47","新北市新莊區民樂街65巷10號","121.457398333333","25.041765"
"242043","172-VK","2017/05/29 08:48:48","新北市新莊區龍安路101號","121.416228333333","25.0224716666667"
"242006","173-VK","2017/05/29 08:49:02","新北市新莊區思源路593巷29號","121.457846666667","25.0596"
"242012","175-VK","2017/05/29 08:49:00","新北市新莊區幸福路710巷1弄2號","121.449598333333","25.0496483333333"
"242055","176-VK","2017/05/29 08:49:03","新北市新莊區新泰路71號","121.449398333333","25.034365"
"242049","346-TH","2017/05/29 08:48:47","新北市新莊區民安西路172巷2弄2號","121.425806666667","25.0160133333333"
"242003","347-TH","2017/05/29 08:48:52","新北市新莊區復興路三段14號","121.46073","25.0440533333333"
"242016","348-TH","2017/05/29 08:48:45","新北市新莊區中港路397號","121.451758333333","25.0467766666667"
"242052","349-TH","2017/05/29 08:48:55","新北市新莊區民安西路365號","121.428583333333","25.0105283333333"
"242014","350-TH","2017/05/29 08:49:01","新北市新莊區復興路一段47巷4號","121.446996666667","25.0423633333333"
"242008","351-TH","2017/05/29 08:49:01","新北市新莊區昌隆街92號","121.456198333333","25.05077"
"239008","527-UM","2017/05/29 08:16:29","新北市鶯歌區永和街69號","121.333036666667","24.967805"
"239005","526-UM","2017/05/29 08:48:54","新北市鶯歌區永和街34巷10弄4號","121.333341666667","24.967355"
