"lineid","car","time","location","longitude","latitude"
"244009","410-SL","2017/05/29 10:00:43","新北市林口區粉寮69號","121.404993333333","25.090865"
"244025","837-TS","2017/05/29 09:21:13","新北市林口區粉寮路二段160巷28號","121.405213333333","25.090765"
"231008","192-VK","2017/05/29 11:26:20","新北市新店區成功路108號","121.536505","24.8944966666667"
"247001","402-BY","2017/05/29 11:38:50","新北市五股區中興路三段3-6號","121.449831666667","25.078805"
"227005","282-VK","2017/05/29 11:39:03","新北市雙溪區共和里中山路8號","121.86497","25.0330183333333"
"220063","609-BX","2017/05/29 08:54:21","新北市板橋區民生路二段36-1號","121.472488333333","25.0166566666667"
