"lineid","car","time","location","longitude","latitude"
"244009","410-SL","2017/05/29 10:00:43","新北市林口區粉寮69號","121.404993333333","25.090865"
"244025","837-TS","2017/05/29 09:21:13","新北市林口區粉寮路二段160巷28號","121.405213333333","25.090765"
"243007","380-SR","2017/05/29 03:24:13","新北市泰山區犁頭窠3-1號","121.42219","25.0603183333333"
"231008","192-VK","2017/05/29 12:08:50","新北市新店區頂石厝路8號","121.540935","24.9197383333333"
"235031","255-BX","2017/05/29 12:05:07","新北市中和區和城路一段271巷1號","121.485428333333","24.992025"
"247001","402-BY","2017/05/29 12:08:50","新北市五股區中興路三段3-6號","121.449835","25.078895"
"227005","282-VK","2017/05/29 12:08:43","新北市雙溪區三貂里政光路3-1號","121.85082","25.063305"
"207002","749-BX","2017/05/29 12:08:51","新北市萬里區萬里里成功新村67號","121.688726666667","25.1739866666667"
"220063","609-BX","2017/05/29 08:54:21","新北市板橋區民生路二段36-1號","121.472488333333","25.0166566666667"
