"lineid","car","time","location","longitude","latitude","cityid","cityname"
"248005","653-BX","2017/06/12 08:09:24","新北市五股區明德路12巷1號","121.433343333333","25.0717316666667","6501500","五股區"
"232005","290-BY","2017/06/12 08:09:21","新北市坪林區鶯子瀨2-6號","121.707528333333","24.913525","6502000","坪林區"
"232001","291-BY","2017/06/12 08:09:25","新北市坪林區虎寮潭1-5號","121.744186666667","24.955375","6502000","坪林區"
"232012","705-BZ","2017/06/12 08:09:29","新北市坪林區九芎根10-1號","121.664355","24.8812083333333","6502000","坪林區"
"232017","758-BX","2017/06/12 08:09:20","新北市坪林區坪雙路二段162號","121.763803333333","24.9631616666667","6502000","坪林區"
"244012","069-UM","2017/06/12 08:09:24","新北市林口區中山路40號","121.395473333333","25.0784483333333","6501700","林口區"
"244006","080-UY","2017/06/12 08:09:00","新北市林口區中湖43-16號","121.38085","25.092945","6501700","林口區"
"244001","248-BX","2017/06/12 08:09:23","新北市林口區嘉溪雅坑9號","121.333975","25.106","6501700","林口區"
"244018","403-UM","2017/06/12 08:09:34","新北市林口區中山路23號","121.39577","25.0783283333333","6501700","林口區"
"244022","483-VK","2017/06/12 08:09:25","新北市林口區仁愛路一段330號","121.391631666667","25.0763733333333","6501700","林口區"
"244016","485-VK","2017/06/12 08:09:38","新北市林口區中山路303號","121.383935","25.0803766666667","6501700","林口區"
"244008","656-BX","2017/06/12 08:09:22","新北市林口區竹林路418巷8號","121.38966","25.08476","6501700","林口區"
"244010","701-TV","2017/06/12 08:09:35","新北市林口區中正路451號","121.384506666667","25.0776566666667","6501700","林口區"
"244020","838-TS","2017/06/12 08:09:31","新北市林口區粉寮路67-16號","121.404113333333","25.0911033333333","6501700","林口區"
"243002","548-UM","2017/06/12 08:09:20","新北市泰山區明志路一段95號","121.433586666667","25.0639966666667","6501600","泰山區"
"222005","289-BY","2017/06/12 08:09:36","新北市深坑區深坑街1號","121.616676666667","25.0025733333333","6501800","深坑區"
"231007","189-VK","2017/06/12 08:09:22","新北市新店區安華路28-1號","121.519753333333","24.9609066666667","6500600","新店區"
"231008","192-VK","2017/06/12 08:09:28","新北市新店區光明街179-1號","121.53963","24.9629116666667","6500600","新店區"
"247002","402-BY","2017/06/12 08:09:26","新北市蘆洲區中山一路138號","121.47633","25.081745","6501400","蘆洲區"
"226005","5620-A6","2017/06/12 08:09:37","新北市平溪區南山里南山坪21號","121.772771666667","25.03739","6502400","平溪區"
"226001","8452-VL","2017/06/12 08:09:26","新北市平溪區十分里十分街15-1號","121.775018333333","25.040545","6502400","平溪區"
"226003","AGD-0702","2017/06/12 08:04:47","新北市平溪區嶺腳里嶺腳寮83-2號","121.750358333333","25.03499","6502400","平溪區"
"223006","022-BY","2017/06/12 08:09:31","新北市深坑區昇高坑路51-1號","121.630296666667","24.994055","6501900","石碇區"
"223002","198-BX","2017/06/12 08:09:17","新北市石碇區北宜路五段大湖巷6號","121.633486666667","24.94269","6501900","石碇區"
"223003","205-TH","2017/06/12 08:09:30","新北市石碇區小粗坑(格頭里)1號","121.650408333333","24.9523516666667","6501900","石碇區"
"223008","406-TH","2017/06/12 08:09:34","新北市石碇區靜安路一段329號","121.697556666667","25.0068466666667","6501900","石碇區"
"223001","592-UM","2017/06/12 08:09:24","新北市石碇區北宜路五段崙尾寮巷2-1號","121.648936666667","24.9532416666667","6501900","石碇區"
"223004","660-BX","2017/06/12 08:09:24","新北市石碇區八分寮49-1號","121.64268","25.0143","6501900","石碇區"
"223007","661-BX","2017/06/12 08:09:29","新北市石碇區靜安路一段325號","121.696956666667","25.00661","6501900","石碇區"
"227005","282-VK","2017/06/12 08:09:24","新北市雙溪區上林里內平林103號","121.826726666667","25.0272016666667","6502500","雙溪區"
"253003","6232-TK","2017/06/12 08:08:50","新北市石門區石崩山6-1號","121.564793333333","25.2845616666667","6502200","石門區"
"253001","6251-TK","2017/06/12 08:09:37","新北市石門區楓林26-17號","121.542111666667","25.2904433333333","6502200","石門區"
"253002","637-UY","2017/06/12 08:09:30","新北市石門區九芎林1號","121.55589","25.2749116666667","6502200","石門區"
"253004","8270-PC","2017/06/12 08:09:28","新北市石門區草埔尾3號","121.59809","25.2788216666667","6502200","石門區"
"252006","073-UM","2017/06/12 08:07:36","新北市三芝區後厝里芝麻四街31號","121.474271666667","25.24562","6502100","三芝區"
"252004","249-BX","2017/06/12 08:09:36","新北市三芝區興華里車埕16-8號","121.505718333333","25.19844","6502100","三芝區"
"237001","159-UY","2017/06/12 08:09:34","新北市三峽區學成路285號","121.376266666667","24.943305","6500900","三峽區"
"236007","165-UM","2017/06/12 08:09:24","新北市土城區青雲路567號","121.459036666667","24.972045","6501300","土城區"
"236001","339-SR","2017/06/12 08:08:47","新北市土城區龍泉路79-1號","121.430458333333","24.942585","6501300","土城區"
"236005","498-BY","2017/06/12 08:09:34","新北市土城區永平街51號","121.427715","24.959095","6501300","土城區"
"242020","AAC-296","2017/06/12 08:09:36","新北市新莊區中華路一段226號","121.452608333333","25.0430866666667","6500500","新莊區"
"242028","986-R7","2017/06/12 08:09:30","新北市新莊區復興路一段161號","121.450925","25.0433666666667","6500500","新莊區"
"242047","751-BX","2017/06/12 08:09:36","新北市新莊區萬安街147號","121.420433333333","25.0216816666667","6500500","新莊區"
"242057","705-TV","2017/06/12 08:09:38","新北市新莊區中正路700-21號","121.417951666667","25.0270466666667","6500500","新莊區"
"242024","615-BX","2017/06/12 08:09:37","新北市新莊區思源路116號","121.460111666667","25.0468583333333","6500500","新莊區"
"242022","613-BX","2017/06/12 08:09:31","新北市新莊區民樂街97號","121.457875","25.04379","6500500","新莊區"
"242026","612-BX","2017/06/12 08:09:36","新北市新莊區福壽街110號","121.458085","25.050605","6500500","新莊區"
"242035","566-BX","2017/06/12 08:09:29","新北市新莊區建福路69巷44號","121.428801666667","25.0275","6500500","新莊區"
"242040","497-BY","2017/06/12 08:09:32","新北市泰山區中山路二段841號","121.425541666667","25.0354883333333","6500500","新莊區"
"242003","442-UM","2017/06/12 08:09:31","新北市新莊區自立街198號","121.45662","25.0455833333333","6500500","新莊區"
"242045","441-UM","2017/06/12 08:09:34","新北市新莊區中正路589號","121.434203333333","25.03228","6500500","新莊區"
"242049","440-UM","2017/06/12 08:09:30","新北市新莊區西盛街237號","121.428085","25.0162416666667","6500500","新莊區"
"242033","413-TV","2017/06/12 08:09:37","新北市新莊區新莊路695號","121.44415","25.0328783333333","6500500","新莊區"
"242038","400-BY","2017/06/12 08:09:40","新北市新莊區民安西路1號","121.426696666667","25.021965","6500500","新莊區"
"242059","362-BY","2017/06/12 08:09:30","新北市新莊區瓊林南路171-3號","121.433803333333","25.0111983333333","6500500","新莊區"
"242010","132-UY","2017/06/12 08:09:26","新北市新莊區中原路201-2號","121.451141666667","25.053935","6500500","新莊區"
"242018","135-UY","2017/06/12 08:09:38","新北市新莊區中港路216號","121.454471666667","25.0426066666667","6500500","新莊區"
"242043","172-VK","2017/06/12 08:09:28","新北市新莊區富國路65巷3號","121.419763333333","25.0263933333333","6500500","新莊區"
"242006","173-VK","2017/06/12 08:09:23","新北市新莊區福樂街118巷6號","121.457361666667","25.0480483333333","6500500","新莊區"
"242012","175-VK","2017/06/12 08:09:30","新北市新莊區中誠街96號","121.449943333333","25.0477933333333","6500500","新莊區"
"242055","176-VK","2017/06/12 08:09:37","新北市新莊區新泰路3巷33號","121.449028333333","25.0319566666667","6500500","新莊區"
"242030","346-TH","2017/06/12 08:09:39","新北市新莊區新泰路321巷29號","121.4434","25.0411283333333","6500500","新莊區"
"242001","347-TH","2017/06/12 08:09:34","新北市新莊區新莊路354號","121.449838333333","25.0334916666667","6500500","新莊區"
"242016","348-TH","2017/06/12 08:09:29","新北市新莊區復興路一段149巷21弄1號","121.450166666667","25.04412","6500500","新莊區"
"242052","349-TH","2017/06/12 08:09:30","新北市樹林區中正路14號","121.430015","24.99736","6500500","新莊區"
"242014","350-TH","2017/06/12 08:09:38","新北市新莊區新泰路394號","121.444021666667","25.0435033333333","6500500","新莊區"
"242008","351-TH","2017/06/12 08:09:26","新北市新莊區福壽街169巷13號","121.456781666667","25.0535933333333","6500500","新莊區"
"239001","661-UM","2017/06/12 08:09:34","新北市鶯歌區西湖街63號","121.338875","24.9610933333333","6500800","鶯歌區"
