"lineid","car","time","location","longitude","latitude","cityid","cityname"
"248005","653-BX","2017/06/12 09:09:24","新北市五股區水碓路3-1號","121.43385","25.072235","6501500","五股區"
"232005","290-BY","2017/06/12 09:09:26","新北市坪林區魚堀9-1號","121.708433333333","24.9048666666667","6502000","坪林區"
"232017","758-BX","2017/06/12 09:07:40","新北市坪林區鷺鶿岫3號","121.782526666667","24.958355","6502000","坪林區"
"244012","069-UM","2017/06/12 09:09:24","新北市林口區文化一路二段188號","121.382801666667","25.0802916666667","6501700","林口區"
"244006","080-UY","2017/06/12 09:09:21","新北市林口區中湖50-1號","121.383763333333","25.0910433333333","6501700","林口區"
"244018","403-UM","2017/06/12 09:09:34","新北市林口區忠孝路542巷11弄2-5號","121.372756666667","25.0670266666667","6501700","林口區"
"244022","483-VK","2017/06/12 09:09:25","新北市林口區東湖路220號","121.382768333333","25.0739683333333","6501700","林口區"
"244016","485-VK","2017/06/12 09:09:18","新北市林口區文化二路一段20巷25弄13號","121.365428333333","25.067315","6501700","林口區"
"244008","656-BX","2017/06/12 09:09:24","新北市林口區文林一街121號","121.378796666667","25.0872","6501700","林口區"
"244010","701-TV","2017/06/12 09:09:35","新北市林口區中正路57巷7弄2號","121.395313333333","25.07661","6501700","林口區"
"244024","837-TS","2017/06/12 09:09:22","新北市林口區仁愛二路101-1號","121.367795","25.0751283333333","6501700","林口區"
"243002","548-UM","2017/06/12 09:09:20","新北市泰山區黎明路25號","121.421775","25.0608966666667","6501600","泰山區"
"222005","289-BY","2017/06/12 09:09:36","新北市深坑區土庫尖路75-1號","121.631226666667","25.01827","6501800","深坑區"
"231007","189-VK","2017/06/12 09:09:22","新北市新店區新潭路三段236號","121.501298333333","24.9041966666667","6500600","新店區"
"231008","192-VK","2017/06/12 09:09:32","新北市新店區廣興路40-2號","121.539965","24.9121633333333","6500600","新店區"
"247002","402-BY","2017/06/12 09:09:26","新北市蘆洲區民族路408巷84號","121.47201","25.09528","6501400","蘆洲區"
"226005","5620-A6","2017/06/12 09:09:17","新北市平溪區南山里南山坪94號","121.776903333333","25.04114","6502400","平溪區"
"226001","8452-VL","2017/06/12 08:43:06","新北市平溪區東勢里番仔坑16號","121.755526666667","24.9915","6502400","平溪區"
"223002","198-BX","2017/06/12 09:09:27","新北市石碇區烏塗窟16-2號","121.656423333333","24.9753633333333","6501900","石碇區"
"223003","205-TH","2017/06/12 09:09:30","新北市石碇區北宜路六段水底寮巷18號","121.661933333333","24.9411366666667","6501900","石碇區"
"223008","406-TH","2017/06/12 09:09:34","新北市石碇區石汐路1號","121.678125","25.03348","6501900","石碇區"
"223001","592-UM","2017/06/12 09:09:24","新北市石碇區北宜路六段水底寮巷23號","121.663366666667","24.941575","6501900","石碇區"
"223004","660-BX","2017/06/12 09:09:24","新北市石碇區崩山46號","121.680238333333","24.96859","6501900","石碇區"
"223007","661-BX","2017/06/12 09:09:38","新北市石碇區碇南路二段鹿窟巷2號","121.672173333333","25.0309766666667","6501900","石碇區"
"227005","282-VK","2017/06/12 09:09:24","新北市雙溪區泰平里料角坑3號","121.820238333333","24.97094","6502500","雙溪區"
"253003","6232-TK","2017/06/12 09:09:30","新北市石門區尖子鹿53-2號","121.580561666667","25.2703566666667","6502200","石門區"
"253001","6251-TK","2017/06/12 09:09:36","新北市石門區八甲73號","121.529706666667","25.2631483333333","6502200","石門區"
"253002","637-UY","2017/06/12 09:08:10","新北市石門區七股61號","121.556625","25.2503816666667","6502200","石門區"
"253004","8270-PC","2017/06/12 09:03:04","新北市石門區草埔尾34號","121.603533333333","25.2663716666667","6502200","石門區"
"252006","073-UM","2017/06/12 09:09:36","新北市三芝區古庄里四棧橋20號","121.488743333333","25.2611933333333","6502100","三芝區"
"252004","249-BX","2017/06/12 09:09:36","新北市三芝區興華里田心子18號","121.494188333333","25.2032083333333","6502100","三芝區"
"237001","159-UY","2017/06/12 09:09:34","新北市鶯歌區中正一路481號","121.373223333333","24.9596366666667","6500900","三峽區"
"236007","165-UM","2017/06/12 09:09:24","新北市土城區中山路32號","121.424555","24.9636183333333","6501300","土城區"
"236001","339-SR","2017/06/12 09:09:22","新北市土城區和平路73號","121.443973333333","24.97119","6501300","土城區"
"236005","498-BY","2017/06/12 09:09:34","新北市土城區中央路三段99-6號","121.436476666667","24.9670316666667","6501300","土城區"
"242020","AAC-296","2017/06/12 09:09:21","新北市新莊區新泰路269號","121.445848333333","25.0402533333333","6500500","新莊區"
"242028","986-R7","2017/06/12 09:09:40","新北市新莊區中華路二段151號","121.452761666667","25.0514933333333","6500500","新莊區"
"242047","751-BX","2017/06/12 09:09:36","新北市新莊區民安路106號","121.424261666667","25.0255516666667","6500500","新莊區"
"242057","705-TV","2017/06/12 09:09:24","新北市新莊區八德街115號","121.424016666667","25.0207266666667","6500500","新莊區"
"242024","615-BX","2017/06/12 09:09:37","新北市新莊區五工二路70巷4號","121.460501666667","25.066065","6500500","新莊區"
"242022","613-BX","2017/06/12 09:09:24","新北市新莊區新北大道二段302號","121.464546666667","25.0613466666667","6500500","新莊區"
"242026","612-BX","2017/06/12 09:09:36","新北市新莊區幸福路612號","121.451666666667","25.04931","6500500","新莊區"
"242035","566-BX","2017/06/12 09:09:41","新北市新莊區建安街25巷12號","121.429596666667","25.0261483333333","6500500","新莊區"
"242040","497-BY","2017/06/12 09:09:32","新北市新莊區壽山路49-7號","121.414228333333","25.0311616666667","6500500","新莊區"
"242003","442-UM","2017/06/12 09:09:31","新北市新莊區化成路63巷105號","121.461623333333","25.04589","6500500","新莊區"
"242045","441-UM","2017/06/12 09:09:38","新北市新莊區裕民街101號","121.41844","25.0230933333333","6500500","新莊區"
"242049","440-UM","2017/06/12 09:09:30","新北市新莊區西盛街259號","121.428161666667","25.0158383333333","6500500","新莊區"
"242033","413-TV","2017/06/12 09:09:37","新北市新莊區華興街8號","121.446163333333","25.035255","6500500","新莊區"
"242038","400-BY","2017/06/12 09:09:40","新北市新莊區民安路232號","121.426238333333","25.0223133333333","6500500","新莊區"
"242059","362-BY","2017/06/12 09:09:41","新北市新莊區瓊泰路51巷2號","121.443413333333","25.0284083333333","6500500","新莊區"
"242010","132-UY","2017/06/12 09:09:26","新北市新莊區中信街67巷7號","121.44867","25.050725","6500500","新莊區"
"242018","135-UY","2017/06/12 09:09:38","新北市新莊區復興路二段198號","121.45943","25.044415","6500500","新莊區"
"242043","172-VK","2017/06/12 09:09:28","新北市新莊區中正路746巷45-1號","121.411286666667","25.0253016666667","6500500","新莊區"
"242006","173-VK","2017/06/12 09:09:36","新北市新莊區福壽街94巷13弄4號","121.459085","25.05033","6500500","新莊區"
"242012","175-VK","2017/06/12 09:09:30","新北市新莊區中平路270巷7弄35號","121.446248333333","25.0509833333333","6500500","新莊區"
"242055","176-VK","2017/06/12 09:09:37","新北市新莊區中正路347巷19號","121.447213333333","25.034255","6500500","新莊區"
"242030","346-TH","2017/06/12 09:09:31","新北市新莊區忠孝街56號","121.443958333333","25.0360416666667","6500500","新莊區"
"242001","347-TH","2017/06/12 09:09:33","新北市新莊區中正路58號","121.461681666667","25.0401233333333","6500500","新莊區"
"242016","348-TH","2017/06/12 09:09:24","新北市新莊區中港三街78號","121.449596666667","25.0462883333333","6500500","新莊區"
"242052","349-TH","2017/06/12 09:09:30","新北市新莊區民安西路410巷12弄4號","121.427775","25.00911","6500500","新莊區"
"242014","350-TH","2017/06/12 09:09:38","新北市新莊區永樂街230號","121.446298333333","25.04438","6500500","新莊區"
"242008","351-TH","2017/06/12 09:09:26","新北市新莊區幸福路568號","121.45433","25.0494016666667","6500500","新莊區"
"239001","661-UM","2017/06/12 09:09:34","桃園市龜山區明興街275-1號","121.332641666667","24.9812933333333","6500800","鶯歌區"
