"lineid","car","time","location","longitude","latitude","cityid","cityname"
"244018","403-UM","2017/06/12 10:39:34","新北市林口區嘉寶里3-1號","121.364991666667","25.0952733333333","6501700","林口區"
"243004","646-TV","2017/06/12 09:24:32","新北市泰山區黎明路25號","121.422176666667","25.0607683333333","6501600","泰山區"
"231007","189-VK","2017/06/12 10:39:22","新北市新店區新潭路二段120號","121.513626666667","24.9230616666667","6500600","新店區"
"231008","192-VK","2017/06/12 10:39:28","新北市新店區小坑一路21-1號","121.53249","24.9123716666667","6500600","新店區"
"247002","402-BY","2017/06/12 10:39:26","新北市五股區中興路三段192號","121.442468333333","25.081535","6501400","蘆洲區"
"227005","282-VK","2017/06/12 09:39:24","新北市雙溪區泰平里溪尾寮6號","121.820175","24.9616733333333","6502500","雙溪區"
"253003","6232-TK","2017/06/12 10:39:30","新北市石門區小坑9號","121.594408333333","25.2883683333333","6502200","石門區"
"253001","6251-TK","2017/06/12 10:39:36","新北市石門區小坑9號","121.594366666667","25.28907","6502200","石門區"
"253002","637-UY","2017/06/12 10:38:50","新北市石門區七股12-1號","121.545208333333","25.2688766666667","6502200","石門區"
"253004","8270-PC","2017/06/12 10:32:44","新北市石門區小坑24號","121.59482","25.27732","6502200","石門區"
"252006","AAC-283","2017/06/12 00:47:09","新北市三芝區埔坪里埔頭坑41號","121.504493333333","25.2644033333333","6502100","三芝區"
"237001","159-UY","2017/06/12 10:39:34","新北市三峽區中山路459巷52-1號","121.356445","24.9360783333333","6500900","三峽區"
"242045","441-UM","2017/06/12 10:39:33","新北市板橋區板城路303號","121.452395","25.0017483333333","6500500","新莊區"
