"lineid","car","time","location","longitude","latitude","cityid","cityname"
"243004","646-TV","2017/06/12 09:24:32","新北市泰山區黎明路25號","121.422176666667","25.0607683333333","6501600","泰山區"
"231008","192-VK","2017/06/12 11:34:08","新北市新店區成功路91-1號","121.537696666667","24.8951966666667","6500600","新店區"
"247002","402-BY","2017/06/12 10:45:12","新北市五股區中興路三段3-6號","121.449516666667","25.0787883333333","6501400","蘆洲區"
"227005","282-VK","2017/06/12 11:59:24","新北市雙溪區魚行里丁子蘭坑47號","121.865983333333","24.9989983333333","6502500","雙溪區"
"221002","753-BX","2017/06/12 11:59:27","新北市汐止區汐萬路一段256巷1號","121.651831666667","25.0749033333333","6501100","汐止區"
