"lineid","car","time","location","longitude","latitude","cityid","cityname"
"234044","148-BY","2017/06/12 12:59:28","新北市永和區得和路373巷16弄11號","121.5256","25.00011","6500400","永和區"
"234012","149-BY","2017/06/12 12:59:21","新北市永和區信義路17巷5號","121.514108333333","25.0118233333333","6500400","永和區"
"234005","207-UY","2017/06/12 12:59:33","新北市永和區中山路一段50號","121.513118333333","25.0106833333333","6500400","永和區"
"234078","298-R6","2017/06/12 12:59:38","新北市永和區永亨路83號","121.521956666667","25.0056933333333","6500400","永和區"
"234036","336-UY","2017/06/12 12:59:25","新北市永和區民樂街73巷2號","121.527405","24.997115","6500400","永和區"
"234062","337-UY","2017/06/12 12:59:35","新北市永和區秀朗路一段180號","121.518896666667","25.0033533333333","6500400","永和區"
"234084","338-UY","2017/06/12 12:59:23","新北市永和區永寧街121號","121.518073333333","25.0057","6500400","永和區"
"234068","552-UM","2017/06/12 12:59:30","新北市永和區中興街52巷7號","121.517053333333","25.0110366666667","6500400","永和區"
"234052","553-UM","2017/06/12 12:59:36","新北市永和區竹林路66巷4號","121.518185","25.0133333333333","6500400","永和區"
"234015","745-BX","2017/06/12 12:59:29","新北市永和區永和路二段298號","121.516116666667","25.015805","6500400","永和區"
"234028","746-BX","2017/06/12 12:59:28","新北市永和區秀朗路二段291號","121.526278333333","24.9979916666667","6500400","永和區"
"234060","AAD-866","2017/06/12 12:59:26","新北市永和區中正路509巷2號","121.516631666667","25.0070566666667","6500400","永和區"
"234040","862-TW","2017/06/12 12:59:30","新北市永和區永貞路275號","121.511205","25.0051616666667","6500400","永和區"
"234048","863-TW","2017/06/12 12:59:34","新北市永和區文化路151號","121.510665","25.016235","6500400","永和區"
"234025","9371-KE","2017/06/12 12:59:26","新北市永和區永和路一段3號","121.512868333333","25.0052033333333","6500400","永和區"
"234010","9373-KE","2017/06/12 12:59:41","新北市永和區文化路9巷22弄46號","121.514098333333","25.0145166666667","6500400","永和區"
"248013","025-BX","2017/06/12 12:59:09","新北市五股區中興路二段182巷3號","121.455885","25.0781116666667","6501500","五股區"
"248015","026-BX","2017/06/12 12:59:35","新北市五股區中興路二段83巷26-6號","121.460075","25.075145","6501500","五股區"
"248005","077-UY","2017/06/12 12:59:37","新北市五股區中興路二段83巷26-6號","121.460066666667","25.0750383333333","6501500","五股區"
"248007","095-VK","2017/06/12 12:59:22","新北市五股區中興路二段150號","121.45863","25.07856","6501500","五股區"
"248019","225-UY","2017/06/12 12:59:30","新北市五股區中興路二段83巷26-6號","121.459906666667","25.07527","6501500","五股區"
"248009","272-BY","2017/06/12 12:59:27","新北市五股區中興路二段161號","121.457756666667","25.0772683333333","6501500","五股區"
"248003","677-BX","2017/06/12 12:59:41","","0","0","6501500","五股區"
"248001","678-BX","2017/06/12 12:59:18","新北市五股區中興路二段83巷26-6號","121.46004","25.0750533333333","6501500","五股區"
"234022","9380-KE","2017/06/12 12:59:26","新北市永和區竹林路75巷47號","121.520935","25.0144333333333","6500400","永和區"
"234076","969-R7","2017/06/12 12:59:23","新北市永和區智光街126號","121.515063333333","24.9956333333333","6500400","永和區"
"234072","AAC-211","2017/06/12 12:59:31","新北市永和區環河東路二段100號","121.524108333333","25.010325","6500400","永和區"
"234066","AAC-212","2017/06/12 12:59:25","新北市永和區永和路一段32號","121.513126666667","25.0049366666667","6500400","永和區"
"234001","AAC-295","2017/06/12 12:56:49","新北市永和區永和路一段168號","121.514171666667","25.00868","6500400","永和區"
"244001","248-BX","2017/06/12 12:59:22","新北市林口區粉寮路二段160巷28號","121.405166666667","25.0907933333333","6501700","林口區"
"243007","380-SR","2017/06/12 12:06:49","新北市泰山區黎明路25號","121.42308","25.0614266666667","6501600","泰山區"
"243004","646-TV","2017/06/12 09:24:32","新北市泰山區黎明路25號","121.422176666667","25.0607683333333","6501600","泰山區"
"231002","002-UM","2017/06/12 12:59:39","新北市新店區安華路28-1號","121.519625","24.9608666666667","6500600","新店區"
"231028","046-UY","2017/06/12 12:59:34","新北市新店區安華路28-1號","121.519628333333","24.9608666666667","6500600","新店區"
"231018","107-UY","2017/06/12 12:59:24","新北市新店區安華路28-1號","121.519538333333","24.96148","6500600","新店區"
"231011","108-UY","2017/06/12 12:59:21","新北市新店區安華路28-1號","121.519525","24.9614483333333","6500600","新店區"
"231008","192-VK","2017/06/12 12:59:21","新北市新店區松林路16巷41號","121.545258333333","24.9070033333333","6500600","新店區"
"231010","278-BY","2017/06/12 12:47:34","新北市新店區安華路28-1號","121.519698333333","24.9611083333333","6500600","新店區"
"231014","AAD-862","2017/06/12 12:59:21","新北市新店區安華路28-1號","121.519683333333","24.961435","6500600","新店區"
"231024","3713-VJ","2017/06/12 12:59:27","新北市新店區安華路3號","121.518968333333","24.9606116666667","6500600","新店區"
"231037","4715-K9","2017/06/12 12:59:26","新北市新店區安華路28-1號","121.519381666667","24.9607983333333","6500600","新店區"
"231036","512-UM","2017/06/12 12:59:31","新北市新店區安華路28-1號","121.519423333333","24.961345","6500600","新店區"
"231023","513-UM","2017/06/12 12:59:31","新北市新店區安華路28-1號","121.519636666667","24.9612066666667","6500600","新店區"
"231001","619-UM","2017/06/12 12:59:39","新北市新店區安華路28-1號","121.519605","24.9609566666667","6500600","新店區"
"231003","641-BX","2017/06/12 12:59:25","新北市新店區安華路28-1號","121.519571666667","24.9605366666667","6500600","新店區"
"231039","718-UY","2017/06/12 12:59:37","新北市新店區安華路28-1號","121.519506666667","24.961405","6500600","新店區"
"231031","720-UM","2017/06/12 12:59:21","新北市新店區安華路28-1號","121.519438333333","24.9613883333333","6500600","新店區"
"231005","897-TW","2017/06/12 12:59:25","新北市新店區安華路28-1號","121.519576666667","24.96071","6500600","新店區"
"231006","898-TW","2017/06/12 12:59:19","新北市新店區安華路28-1號","121.51928","24.9609633333333","6500600","新店區"
"231004","899-TW","2017/06/12 12:59:28","新北市新店區安華路28-1號","121.518916666667","24.9608983333333","6500600","新店區"
"235028","005-UY","2017/06/12 12:59:24","新北市中和區員山路36巷16-3號","121.484991666667","24.9914633333333","6500300","中和區"
"235029","098-UM","2017/06/12 12:59:26","新北市中和區中正路506號","121.488601666667","24.9943066666667","6500300","中和區"
"235004","150-BY","2017/06/12 12:59:35","新北市中和區和城路一段271巷1號","121.485538333333","24.9918616666667","6500300","中和區"
"235022","151-BY","2017/06/12 12:59:20","新北市中和區錦和路350-1號","121.49051","24.9935216666667","6500300","中和區"
"235002","185-VK","2017/06/12 12:59:37","新北市中和區成功路15號","121.526288333333","24.9938666666667","6500300","中和區"
"235031","255-BX","2017/06/12 12:59:41","新北市中和區中山路二段550號","121.484113333333","25.0053533333333","6500300","中和區"
"235036","301-VK","2017/06/12 12:59:29","新北市中和區員山路36巷13號","121.48402","24.9911216666667","6500300","中和區"
"235015","376-QA","2017/06/12 12:59:38","新北市中和區員山路36巷16-8號","121.485605","24.9923633333333","6500300","中和區"
"235025","378-QA","2017/06/12 12:21:31","新北市中和區中正路637巷60弄61號","121.485128333333","24.992715","6500300","中和區"
"235035","783-BX","2017/06/12 12:59:24","新北市中和區連城路469巷33號","121.483553333333","24.994675","6500300","中和區"
"235026","800-TS","2017/06/12 12:59:29","新北市中和區員山路36巷16-2號","121.48525","24.9915183333333","6500300","中和區"
"220013","072-UY","2017/06/12 12:59:26","新北市板橋區民生路二段22號","121.472926666667","25.0166833333333","6500100","板橋區"
"247002","402-BY","2017/06/12 12:59:40","新北市五股區中興路三段3-6號","121.4498","25.0789433333333","6501400","蘆洲區"
"208004","AAC-292","2017/06/12 12:59:26","新北市金山區磺港里磺港路169號","121.643576666667","25.22483","6502700","金山區"
"207002","749-BX","2017/06/12 12:59:25","新北市萬里區雙興里大坪路31號","121.632603333333","25.16848","6502800","萬里區"
"207001","463-BY","2017/06/12 12:59:23","新北市萬里區萬里里獅頭路23號","121.693268333333","25.17821","6502800","萬里區"
"252005","AAC-283","2017/06/12 12:58:41","新北市三芝區忠孝街145號","121.506143333333","25.2608","6502100","三芝區"
"236005","498-BY","2017/06/12 12:59:28","新北市土城區亞洲路30號","121.436085","24.9742333333333","6501300","土城區"
"221010","269-BY","2017/06/12 12:59:39","新北市汐止區忠三街8號","121.624735","25.07846","6501100","汐止區"
"221032","280-BY","2017/06/12 12:59:41","新北市汐止區建成路57巷22號","121.66224","25.0726716666667","6501100","汐止區"
"221002","753-BX","2017/06/12 12:59:27","新北市汐止區康寧街631號","121.636913333333","25.0717616666667","6501100","汐止區"
