"lineid","car","time","location","longitude","latitude","cityid","cityname"
"234044","148-BY","2017/06/12 13:49:26","新北市永和區永亨路201號","121.526186666667","25.0027683333333","6500400","永和區"
"234012","149-BY","2017/06/12 13:49:21","新北市永和區仁愛路168號","121.510128333333","25.012715","6500400","永和區"
"234005","207-UY","2017/06/12 13:49:33","新北市中和區中和路464號","121.51232","25.0040116666667","6500400","永和區"
"234078","298-R6","2017/06/12 13:49:41","新北市永和區林森路46巷1號","121.525013333333","25.0048233333333","6500400","永和區"
"234036","336-UY","2017/06/12 13:49:33","新北市永和區成功路二段153號","121.52672","24.997515","6500400","永和區"
"234062","337-UY","2017/06/12 13:49:35","新北市永和區中正路368巷29號","121.518581666667","25.0008933333333","6500400","永和區"
"234084","338-UY","2017/06/12 13:49:23","新北市永和區永亨路151號","121.52568","25.0039716666667","6500400","永和區"
"234068","552-UM","2017/06/12 13:49:30","新北市永和區福和路200號","121.519848333333","25.007875","6500400","永和區"
"234052","553-UM","2017/06/12 13:49:36","新北市永和區竹林路39巷28弄3號","121.519425","25.0147616666667","6500400","永和區"
"234015","745-BX","2017/06/12 13:49:29","新北市永和區文化路62號","121.514418333333","25.0151016666667","6500400","永和區"
"234028","746-BX","2017/06/12 13:49:28","新北市永和區民生路67巷44號","121.524983333333","24.9974316666667","6500400","永和區"
"234060","AAD-866","2017/06/12 13:49:26","新北市永和區中正路49號","121.514505","24.9962866666667","6500400","永和區"
"234040","862-TW","2017/06/12 13:49:26","新北市永和區中和路389巷13號","121.508108333333","25.001015","6500400","永和區"
"234048","863-TW","2017/06/12 13:49:34","新北市永和區保安路144號","121.508553333333","25.0149016666667","6500400","永和區"
"234025","9371-KE","2017/06/12 13:49:26","新北市永和區保生路3號","121.506526666667","25.0074133333333","6500400","永和區"
"234010","9373-KE","2017/06/12 13:49:21","新北市永和區保福路二段163巷13弄5號","121.509188333333","25.0143033333333","6500400","永和區"
"248015","026-BX","2017/06/12 13:49:34","新北市五股區成泰路三段543巷50號","121.450118333333","25.1028533333333","6501500","五股區"
"248007","095-VK","2017/06/12 13:49:22","新北市五股區中興路一段151巷59號","121.465136666667","25.07169","6501500","五股區"
"248019","225-UY","2017/06/12 13:49:30","新北市五股區凌雲路三段41-2號","121.43005","25.11782","6501500","五股區"
"248011","247-BX","2017/06/12 13:17:31","新北市五股區御史路1巷93號","121.441203333333","25.09057","6501500","五股區"
"248009","272-BY","2017/06/12 13:49:27","新北市五股區水碓五路85號","121.430196666667","25.0718816666667","6501500","五股區"
"248003","677-BX","2017/06/12 13:49:42","新北市五股區民義路二段73號","121.409016666667","25.1055966666667","6501500","五股區"
"248001","678-BX","2017/06/12 13:49:38","新北市五股區凌雲路一段86號","121.450671666667","25.101495","6501500","五股區"
"234022","9380-KE","2017/06/12 13:49:27","新北市永和區中正路654巷26號","121.517678333333","25.00849","6500400","永和區"
"234076","969-R7","2017/06/12 13:49:23","新北市永和區民權路36巷6號","121.519703333333","24.9989016666667","6500400","永和區"
"234072","AAC-211","2017/06/12 13:49:31","新北市永和區豫溪街189巷1號","121.52259","25.0102733333333","6500400","永和區"
"234066","AAC-212","2017/06/12 13:49:25","新北市永和區中山路一段191巷9弄12號","121.510018333333","25.0081216666667","6500400","永和區"
"234001","AAC-295","2017/06/12 13:47:49","新北市永和區永和路一段40-1號","121.51302","25.00541","6500400","永和區"
"244001","248-BX","2017/06/12 13:49:22","新北市林口區瑞平里52-3號","121.341613333333","25.12487","6501700","林口區"
"243005","AAD-798","2017/06/12 13:49:20","新北市泰山區明志路三段206巷3號","121.423295","25.03795","6501600","泰山區"
"243007","380-SR","2017/06/12 13:49:26","新北市泰山區美寧街58號","121.430563333333","25.0645833333333","6501600","泰山區"
"243006","421-VK","2017/06/12 13:49:27","新北市泰山區黎明路31號","121.42171","25.0607716666667","6501600","泰山區"
"243003","549-UM","2017/06/12 13:49:31","新北市泰山區明志路二段214巷16弄13號","121.426838333333","25.0496183333333","6501600","泰山區"
"243004","646-TV","2017/06/12 13:49:23","新北市泰山區福興街24號","121.434373333333","25.0577566666667","6501600","泰山區"
"243008","680-BX","2017/06/12 13:49:29","新北市泰山區明志路一段506號","121.430378333333","25.0542133333333","6501600","泰山區"
"231002","002-UM","2017/06/12 13:49:19","新北市新店區溪園路255巷25號","121.524001666667","24.9808233333333","6500600","新店區"
"231025","0291-UT","2017/06/12 13:49:36","新北市新店區中央五街22號","121.529266666667","24.9744016666667","6500600","新店區"
"231028","046-UY","2017/06/12 13:49:34","新北市新店區安和路三段16號","121.517968333333","24.981165","6500600","新店區"
"231030","047-UY","2017/06/12 13:49:27","新北市新店區安康路一段226-2號","121.523305","24.9637183333333","6500600","新店區"
"231029","106-UY","2017/06/12 13:49:37","新北市新店區安康路二段125-1號","121.512396666667","24.9609","6500600","新店區"
"231018","107-UY","2017/06/12 13:49:24","新北市新店區中正路382巷30號","121.53563","24.9779683333333","6500600","新店區"
"231011","108-UY","2017/06/12 13:49:40","新北市新店區德正街25巷8號","121.544671666667","24.9718466666667","6500600","新店區"
"231019","187-VK","2017/06/12 13:49:10","新北市新店區湖子內路22號","121.542321666667","24.93085","6500600","新店區"
"231026","256-BX","2017/06/12 13:49:24","新北市新店區三民路159巷19弄48號","121.532175","24.9731716666667","6500600","新店區"
"231034","268-BY","2017/06/12 13:49:34","新北市新店區達觀路16號","121.503095","24.9409266666667","6500600","新店區"
"231010","278-BY","2017/06/12 13:49:34","新北市新店區三民路60巷2號","121.535418333333","24.97241","6500600","新店區"
"231014","AAD-862","2017/06/12 13:49:21","新北市新店區竹林路30巷1號","121.55227","24.9512883333333","6500600","新店區"
"231027","3712-VJ","2017/06/12 13:49:31","新北市新店區北宜路一段105巷44號","121.540603333333","24.9558","6500600","新店區"
"231024","3713-VJ","2017/06/12 13:49:27","新北市新店區北新路一段271巷39號","121.539611666667","24.9672266666667","6500600","新店區"
"231038","4715-K9","2017/06/12 13:49:26","新北市新店區安華路30巷1號","121.51958","24.9592883333333","6500600","新店區"
"231036","512-UM","2017/06/12 13:49:31","新北市新店區安祥路110巷53號","121.47374","24.95683","6500600","新店區"
"231023","513-UM","2017/06/12 13:49:31","新北市新店區國校路16號","121.537876666667","24.9553533333333","6500600","新店區"
"231035","515-UM","2017/06/12 13:49:37","新北市新店區安忠路57巷7弄1號","121.513288333333","24.9586916666667","6500600","新店區"
"231001","619-UM","2017/06/12 13:49:39","新北市新店區三民路64號","121.535065","24.9722083333333","6500600","新店區"
"231003","641-BX","2017/06/12 13:49:25","新北市新店區檳榔路35巷1號","121.542883333333","24.9638716666667","6500600","新店區"
"231039","718-UY","2017/06/12 13:49:37","新北市新店區建國路40號","121.540523333333","24.9748233333333","6500600","新店區"
"231013","719-UM","2017/06/12 13:49:31","新北市新店區二十張路25巷14號","121.539111666667","24.9819966666667","6500600","新店區"
"231031","720-UM","2017/06/12 13:49:21","新北市新店區莒光路44巷21弄11-6號","121.51899","24.9521283333333","6500600","新店區"
"231005","897-TW","2017/06/12 13:49:25","新北市新店區寶中路121-1號","121.549678333333","24.9794616666667","6500600","新店區"
"231006","898-TW","2017/06/12 13:49:39","新北市新店區北宜路一段224號","121.544366666667","24.95316","6500600","新店區"
"231004","899-TW","2017/06/12 13:49:28","新北市新店區寶橋路98號","121.546833333333","24.97591","6500600","新店區"
"231037","AKT-0513","2017/06/12 13:49:40","新北市新店區薏仁坑路53-1號","121.492001666667","24.9638066666667","6500600","新店區"
"235030","003-UY","2017/06/12 13:49:35","新北市中和區水源路7巷4號","121.504055","25.003645","6500300","中和區"
"235028","005-UY","2017/06/12 13:49:24","新北市中和區連城路87號","121.496655","25.0002283333333","6500300","中和區"
"235027","006-UY","2017/06/12 13:49:30","新北市中和區連城路315號","121.489261666667","24.99623","6500300","中和區"
"235020","096-UM","2017/06/12 13:49:21","新北市中和區新民街94巷18號","121.481416666667","25.00926","6500300","中和區"
"235003","097-UM","2017/06/12 13:49:22","新北市中和區大勇街25巷54號","121.515211666667","24.99447","6500300","中和區"
"235029","098-UM","2017/06/12 13:49:26","新北市中和區中山路二段2巷27號","121.50322","25.006955","6500300","中和區"
"235004","150-BY","2017/06/12 13:49:35","新北市中和區保健路50巷66號","121.509396666667","24.9951583333333","6500300","中和區"
"235022","151-BY","2017/06/12 13:49:20","新北市中和區連城路563-1號","121.479513333333","24.994555","6500300","中和區"
"235019","183-VK","2017/06/12 13:49:22","新北市中和區民德路25巷7弄2號","121.46967","25.00308","6500300","中和區"
"235002","185-VK","2017/06/12 13:49:37","新北市中和區立人街14巷15號","121.519395","24.9949966666667","6500300","中和區"
"235013","186-VK","2017/06/12 13:49:22","新北市中和區景安路177巷1號","121.505486666667","24.994245","6500300","中和區"
"235031","255-BX","2017/06/12 13:49:21","新北市中和區新生街242巷1弄3號","121.483346666667","24.9976866666667","6500300","中和區"
"235008","293-VK","2017/06/12 13:49:38","新北市中和區復興路280巷1弄2號","121.502215","24.9907216666667","6500300","中和區"
"235036","301-VK","2017/06/12 13:49:29","新北市中和區永和路6號","121.499951666667","25.00275","6500300","中和區"
"235007","352-BY","2017/06/12 13:49:19","新北市中和區景平路2號","121.524593333333","24.9903733333333","6500300","中和區"
"235015","376-QA","2017/06/12 13:49:38","新北市中和區忠孝街106巷39號","121.513551666667","24.9842616666667","6500300","中和區"
"235032","377-QA","2017/06/12 13:49:34","新北市中和區中正路167巷15號","121.498425","24.9927216666667","6500300","中和區"
"235025","378-QA","2017/06/12 13:49:35","新北市中和區民享街49巷1號","121.474256666667","25.0028516666667","6500300","中和區"
"235014","4979-A6","2017/06/12 13:49:32","新北市中和區忠孝街58巷26號","121.512505","24.9828033333333","6500300","中和區"
"235033","4980-A6","2017/06/12 13:49:35","新北市中和區南山路50號","121.501915","24.9974933333333","6500300","中和區"
"235034","558-UM","2017/06/12 13:49:18","新北市中和區南華路51號","121.503968333333","24.9968783333333","6500300","中和區"
"235009","565-BX","2017/06/12 13:49:30","新北市中和區南山路206號","121.5061","24.9903133333333","6500300","中和區"
"235018","640-BX","2017/06/12 13:49:37","新北市中和區民享街32巷2號","121.474055","25.00333","6500300","中和區"
"235024","647-TV","2017/06/12 13:49:34","新北市中和區中山路三段24號","121.479195","25.00607","6500300","中和區"
"235011","732-UM","2017/06/12 13:49:20","新北市中和區興南路二段113巷2號","121.505648333333","24.984375","6500300","中和區"
"235010","733-UM","2017/06/12 13:49:23","新北市中和區仁愛街36巷44號","121.511328333333","24.9862933333333","6500300","中和區"
"235035","783-BX","2017/06/12 13:49:27","新北市中和區中山路二段482巷31號","121.489885","25.0067683333333","6500300","中和區"
"235026","800-TS","2017/06/12 13:49:29","新北市中和區景平路726-2號","121.496635","25.00355","6500300","中和區"
"235021","801-TS","2017/06/12 13:49:34","新北市中和區員山路327巷76號","121.479671666667","25.0021516666667","6500300","中和區"
"235016","805-TS","2017/06/12 13:49:22","新北市中和區興南路二段399巷2-1號","121.498541666667","24.9795283333333","6500300","中和區"
"235012","896-TW","2017/06/12 13:49:37","新北市中和區南山路409號","121.506978333333","24.9897816666667","6500300","中和區"
"235017","900-TW","2017/06/12 13:49:30","新北市中和區華安街16-2號","121.466063333333","24.998155","6500300","中和區"
"235003","157-BY","2017/06/12 13:49:32","新北市中和區永貞路249巷12號","121.512538333333","25.0036833333333","6500300","中和區"
"235001","AAC-213","2017/06/12 13:49:39","新北市中和區景平路111巷53號","121.515438333333","24.9903616666667","6500300","中和區"
"235023","AAC-215","2017/06/12 13:49:36","新北市中和區圓通路391-1號","121.490025","24.989155","6500300","中和區"
"220016","013-TV","2017/06/12 13:49:30","新北市板橋區民生路二段36號","121.472566666667","25.0173233333333","6500100","板橋區"
"220013","072-UY","2017/06/12 13:49:26","新北市板橋區中山路二段23號","121.472391666667","25.015215","6500100","板橋區"
"220034","073-UY","2017/06/12 13:49:28","新北市板橋區南雅西路二段180巷2號","121.451833333333","25.01401","6500100","板橋區"
"220105","075-UY","2017/06/12 13:49:27","新北市板橋區民生路二段188號","121.470243333333","25.0202666666667","6500100","板橋區"
"220045","120-SR","2017/06/12 13:49:29","新北市板橋區民生路二段120號","121.470338333333","25.0197716666667","6500100","板橋區"
"247002","402-BY","2017/06/12 13:49:20","新北市蘆洲區民族路63號","121.47906","25.0857216666667","6501400","蘆洲區"
"247005","341-TH","2017/06/12 13:49:23","新北市蘆洲區和平路77號","121.469331666667","25.0791283333333","6501400","蘆洲區"
"247007","339-TH","2017/06/12 13:49:25","新北市蘆洲區集賢路269巷3號","121.481586666667","25.0836416666667","6501400","蘆洲區"
"247023","337-TH","2017/06/12 13:49:26","新北市蘆洲區長榮路152號","121.461221666667","25.084635","6501400","蘆洲區"
"247013","057-VK","2017/06/12 13:49:40","新北市蘆洲區中正路117號","121.469678333333","25.0843233333333","6501400","蘆洲區"
"247003","056-VK","2017/06/12 13:49:24","新北市蘆洲區中原路31號","121.460191666667","25.082545","6501400","蘆洲區"
"247021","002-UY","2017/06/12 13:49:24","新北市蘆洲區中正路263巷2號","121.46732","25.087415","6501400","蘆洲區"
"247015","001-UY","2017/06/12 13:49:26","新北市蘆洲區光華路31號","121.469133333333","25.083185","6501400","蘆洲區"
"208004","AAC-292","2017/06/12 13:49:26","新北市金山區重和里三重橋24號","121.585605","25.1868583333333","6502700","金山區"
"207002","749-BX","2017/06/12 13:49:25","新北市萬里區崁腳里崁腳路166號","121.645168333333","25.15582","6502800","萬里區"
"207001","463-BY","2017/06/12 13:49:23","新北市萬里區磺潭里公館崙49號","121.628748333333","25.2064183333333","6502800","萬里區"
"252005","AAC-283","2017/06/12 12:58:41","新北市三芝區忠孝街145號","121.506143333333","25.2608","6502100","三芝區"
"236064","105-UM","2017/06/12 13:49:33","新北市土城區城林路6巷80號","121.438336666667","24.97974","6501300","土城區"
"236040","107-UM","2017/06/12 13:49:27","新北市土城區裕生路77號","121.446971666667","24.9844733333333","6501300","土城區"
"236074","166-UM","2017/06/12 13:49:25","新北市土城區中央路三段134號","121.43387","24.9657266666667","6501300","土城區"
"236028","253-BX","2017/06/12 13:49:23","新北市土城區城林路6巷80號","121.438363333333","24.9797533333333","6501300","土城區"
"236024","269-VK","2017/06/12 13:49:39","新北市土城區承天路67號","121.439573333333","24.9635316666667","6501300","土城區"
"236012","270-VK","2017/06/12 13:49:28","新北市土城區城林路6巷80號","121.43854","24.97977","6501300","土城區"
"236032","271-VK","2017/06/12 13:49:30","新北市土城區城林路6巷80號","121.438565","24.979785","6501300","土城區"
"236016","401-BY","2017/06/12 13:49:23","新北市土城區城林路6巷80號","121.438598333333","24.9798033333333","6501300","土城區"
"236005","498-BY","2017/06/12 13:49:28","新北市土城區員福街38號","121.4409","24.9789366666667","6501300","土城區"
"236056","912-UM","2017/06/12 13:49:38","新北市土城區中華路二段87-1號","121.439331666667","24.97803","6501300","土城區"
"236044","913-UM","2017/06/12 13:49:35","新北市土城區城林路6巷80號","121.438441666667","24.9798433333333","6501300","土城區"
"236060","915-UM","2017/06/12 13:49:32","新北市土城區城林路6巷80號","121.438366666667","24.9798066666667","6501300","土城區"
"236052","AAC-216","2017/06/12 13:49:28","新北市土城區城林路6巷80號","121.43871","24.9797466666667","6501300","土城區"
"221010","269-BY","2017/06/12 13:49:41","新北市汐止區八連路一段5號","121.6488","25.0801616666667","6501100","汐止區"
"221002","753-BX","2017/06/12 13:49:14","新北市汐止區大同路一段261號","121.635993333333","25.05833","6501100","汐止區"
"220027","145-BY","2017/06/12 13:49:24","新北市板橋區民權路202巷5弄2號","121.459958333333","25.0145766666667","6500100","板橋區"
"220030","610-BX","2017/06/12 13:49:20","新北市板橋區篤行路二段135號","121.43066","24.9896483333333","6500100","板橋區"
"220050","245-BX","2017/06/12 02:17:00","新北市板橋區文化路一段188巷9弄80號","121.468621666667","25.0188683333333","6500100","板橋區"
"220043","267-BY","2017/06/12 13:37:51","新北市板橋區民生路二段120號","121.470601666667","25.0198766666667","6500100","板橋區"
"220020","277-BY","2017/06/12 13:49:37","新北市板橋區金門街49號","121.43351","24.9933566666667","6500100","板橋區"
"220012","280-UM","2017/06/12 13:49:36","新北市板橋區民生路二段36-1號","121.472568333333","25.0167116666667","6500100","板橋區"
"220019","283-VK","2017/06/12 13:49:30","新北市板橋區觀光街12巷1弄2號","121.471996666667","25.0167266666667","6500100","板橋區"
"220040","285-UM","2017/06/12 13:49:19","新北市板橋區民生路二段188號","121.470088333333","25.0204516666667","6500100","板橋區"
"220001","285-VK","2017/06/12 13:49:25","新北市板橋區民生路二段36號","121.472708333333","25.01731","6500100","板橋區"
"220031","286-VK","2017/06/12 13:49:25","新北市板橋區大觀路二段22巷22號","121.445556666667","25.00357","6500100","板橋區"
"220029","287-VK","2017/06/12 13:49:22","新北市板橋區南雅西路二段128號","121.452048333333","25.012645","6500100","板橋區"
"220039","288-VK","2017/06/12 13:49:30","新北市板橋區民生路二段120號","121.470506666667","25.0198266666667","6500100","板橋區"
"220009","293-UM","2017/06/12 13:49:22","新北市板橋區民生路二段30號","121.472685","25.0171016666667","6500100","板橋區"
"220032","296-UM","2017/06/12 13:49:33","新北市板橋區大觀路二段148巷31號","121.44182","25.0003766666667","6500100","板橋區"
"220023","297-UM","2017/06/12 13:49:36","新北市板橋區大觀路一段28巷96號","121.450473333333","25.0110533333333","6500100","板橋區"
"220046","299-UM","2017/06/12 13:49:32","新北市板橋區民生路二段120號","121.470626666667","25.0201616666667","6500100","板橋區"
"220004","303-R5","2017/06/12 13:49:24","新北市板橋區四川路二段37號","121.454183333333","24.9954483333333","6500100","板橋區"
"220010","305-R5","2017/06/12 03:25:23","新北市板橋區民生路二段15-1號","121.472831666667","25.01636","6500100","板橋區"
"220041","307-R5","2017/06/12 04:07:57","新北市板橋區民生路二段120號","121.470385","25.0196366666667","6500100","板橋區"
"220047","317-R6","2017/06/12 13:49:21","新北市板橋區民生路二段120號","121.470618333333","25.0198166666667","6500100","板橋區"
"220028","461-BY","2017/06/12 13:49:39","新北市板橋區大觀路二段力行3巷1-6號","121.442556666667","24.9967916666667","6500100","板橋區"
"220038","487-VK","2017/06/12 13:49:32","新北市板橋區民生路二段120號","121.470846666667","25.0199416666667","6500100","板橋區"
"220037","491-VK","2017/06/12 13:48:15","新北市板橋區民生路二段120號","121.4706","25.0198316666667","6500100","板橋區"
"220104","560-BX","2017/06/12 13:49:21","新北市板橋區中正路275巷62弄4-3號","121.452996666667","25.01803","6500100","板橋區"
"220011","609-BX","2017/06/12 00:53:19","新北市板橋區民生路二段22號","121.472746666667","25.01664","6500100","板橋區"
"220005","686-BX","2017/06/12 13:49:30","新北市板橋區民生路二段36-1號","121.47254","25.016775","6500100","板橋區"
"220025","687-BX","2017/06/12 13:49:28","新北市板橋區大觀路三段121號","121.432726666667","24.9944083333333","6500100","板橋區"
"220042","689-BX","2017/06/12 13:49:39","新北市板橋區民生路二段161巷3號","121.470236666667","25.0198066666667","6500100","板橋區"
"220002","741-BX","2017/06/12 13:49:18","新北市板橋區民生路二段36-1號","121.472148333333","25.01695","6500100","板橋區"
"220003","827-TW","2017/06/12 13:49:20","新北市板橋區民生路二段15-1號","121.472751666667","25.016375","6500100","板橋區"
"220014","829-TW","2017/06/12 13:49:38","新北市板橋區中山路二段89巷7弄15號","121.472658333333","25.016805","6500100","板橋區"
"220051","830-TW","2017/06/11 01:24:14","新北市板橋區民生路二段161巷9號","121.47015","25.0195816666667","6500100","板橋區"
"220022","895-R6","2017/06/12 13:49:22","新北市板橋區南門街39號","121.457413333333","25.0087","6500100","板橋區"
"220021","985-R7","2017/06/12 13:49:32","新北市板橋區館前西路66號","121.457786666667","25.00717","6500100","板橋區"
"220018","AAC-253","2017/06/12 13:49:26","新北市板橋區民生路二段36-1號","121.472395","25.0169283333333","6500100","板橋區"
