"lineid","car","time","location","longitude","latitude","cityid","cityname"
"234005","207-UY","2017/06/12 14:39:33","新北市永和區安樂路198號","121.515078333333","25.0016333333333","6500400","永和區"
"234078","298-R6","2017/06/12 14:39:21","新北市永和區永利路66號","121.519436666667","25.00496","6500400","永和區"
"234062","337-UY","2017/06/12 14:39:35","新北市永和區永和路二段283號","121.515978333333","25.0157216666667","6500400","永和區"
"234084","338-UY","2017/06/12 14:39:23","新北市永和區光復街21號","121.51648","25.0174533333333","6500400","永和區"
"234052","553-UM","2017/06/12 14:39:36","新北市永和區環河東路一段80號","121.519615","25.0164733333333","6500400","永和區"
"234060","AAD-866","2017/06/12 14:39:26","新北市永和區秀朗路一段175號","121.51702","25.0036833333333","6500400","永和區"
"234040","862-TW","2017/06/12 14:39:26","新北市永和區福和路376號","121.514201666667","25.007765","6500400","永和區"
"234025","9371-KE","2017/06/12 14:39:26","新北市永和區雙和街7巷7-1號","121.509511666667","25.001435","6500400","永和區"
"248013","025-BX","2017/06/12 14:39:32","新北市五股區五福路52巷11弄2號","121.433961666667","25.0899233333333","6501500","五股區"
"248015","026-BX","2017/06/12 13:54:23","新北市五股區成泰路三段543巷60號","121.449533333333","25.1031783333333","6501500","五股區"
"248007","095-VK","2017/06/12 14:39:22","新北市五股區四維路155巷27號","121.466725","25.074035","6501500","五股區"
"248019","225-UY","2017/06/12 14:39:40","新北市五股區凌雲路三段41-2號","121.430016666667","25.117755","6501500","五股區"
"248011","247-BX","2017/06/12 14:39:01","新北市五股區民義路一段45號","121.436221666667","25.08443","6501500","五股區"
"248015","261-SL","2017/06/12 14:39:22","新北市五股區成泰路三段544-1號","121.453458333333","25.1019083333333","6501500","五股區"
"248009","272-BY","2017/06/12 14:39:27","新北市五股區登林路76號","121.429153333333","25.0701283333333","6501500","五股區"
"248003","677-BX","2017/06/12 14:39:42","新北市五股區成泰路二段41號","121.437318333333","25.082175","6501500","五股區"
"248001","678-BX","2017/06/12 14:39:38","新北市五股區成泰路三段259號","121.446928333333","25.0936916666667","6501500","五股區"
"234072","AAC-211","2017/06/12 14:39:31","新北市永和區竹林路91巷55弄5號","121.521781666667","25.0139383333333","6500400","永和區"
"234066","AAC-212","2017/06/12 14:39:25","新北市永和區保平路292巷13弄12號","121.506813333333","25.0055066666667","6500400","永和區"
"234001","AAC-295","2017/06/12 14:37:09","新北市永和區大新街65號","121.516535","25.008405","6500400","永和區"
"244001","248-BX","2017/06/12 14:39:22","新北市林口區竹林路265號","121.389588333333","25.0807516666667","6501700","林口區"
"243005","AAD-798","2017/06/12 14:39:20","新北市泰山區應化街7號","121.423871666667","25.0437216666667","6501600","泰山區"
"243001","297-R6","2017/06/12 14:39:28","新北市泰山區泰林路二段164巷30號","121.43451","25.06113","6501600","泰山區"
"243007","380-SR","2017/06/12 14:39:27","新北市泰山區明志路二段235號","121.427455","25.04825","6501600","泰山區"
"243006","421-VK","2017/06/12 14:39:28","新北市泰山區泰林路二段37-3號","121.435278333333","25.0572566666667","6501600","泰山區"
"243002","548-UM","2017/06/12 14:39:37","新北市泰山區明志路二段136巷24號","121.426161666667","25.051965","6501600","泰山區"
"243003","549-UM","2017/06/12 14:39:31","新北市泰山區明志路三段196巷21弄18號","121.422871666667","25.0388483333333","6501600","泰山區"
"243004","646-TV","2017/06/12 14:39:23","新北市泰山區全興路109號","121.433765","25.0567683333333","6501600","泰山區"
"243008","680-BX","2017/06/12 14:39:29","新北市泰山區貴陽街34號","121.423101666667","25.03248","6501600","泰山區"
"231002","002-UM","2017/06/12 14:39:39","新北市新店區中央路7號","121.533431666667","24.9786366666667","6500600","新店區"
"231025","0291-UT","2017/06/12 14:39:36","新北市新店區民族路161號","121.537796666667","24.9768066666667","6500600","新店區"
"231028","046-UY","2017/06/12 14:39:34","新北市新店區安德街60巷13號","121.51066","24.9625766666667","6500600","新店區"
"231030","047-UY","2017/06/12 14:39:27","新北市新店區安民街158號","121.51677","24.970205","6500600","新店區"
"231029","106-UY","2017/06/12 14:39:36","新北市新店區安康路三段312號","121.48713","24.9518383333333","6500600","新店區"
"231018","107-UY","2017/06/12 14:39:24","新北市新店區中央路226號","121.529498333333","24.97292","6500600","新店區"
"231011","108-UY","2017/06/12 14:39:40","新北市新店區寶橋路59-1號","121.545256666667","24.974835","6500600","新店區"
"231019","187-VK","2017/06/12 14:39:30","新北市新店區新烏路三段44號","121.553875","24.90476","6500600","新店區"
"231034","268-BY","2017/06/12 14:39:34","新北市新店區車子路14號","121.50483","24.9539966666667","6500600","新店區"
"231014","AAD-862","2017/06/12 14:39:21","新北市新店區北宜路三段275巷8號","121.602808333333","24.9554633333333","6500600","新店區"
"231027","3712-VJ","2017/06/12 14:39:40","新北市新店區德正街26號","121.543881666667","24.9719133333333","6500600","新店區"
"231038","4715-K9","2017/06/12 14:39:26","新北市新店區溪洲路145號","121.529256666667","24.963295","6500600","新店區"
"231036","512-UM","2017/06/12 14:39:31","新北市新店區安祥路106巷106號","121.474026666667","24.9591666666667","6500600","新店區"
"231023","513-UM","2017/06/12 14:39:31","新北市新店區檳榔路55號","121.54322","24.9628316666667","6500600","新店區"
"231035","515-UM","2017/06/12 14:39:37","新北市新店區安光路15巷15號","121.512288333333","24.9633916666667","6500600","新店區"
"231001","619-UM","2017/06/12 14:39:39","新北市新店區中正路28號","121.545178333333","24.9696433333333","6500600","新店區"
"231003","641-BX","2017/06/12 14:39:25","新北市新店區中興路二段192號","121.548391666667","24.9733916666667","6500600","新店區"
"231039","718-UY","2017/06/12 14:39:37","新北市新店區中興路三段1號","121.54609","24.97746","6500600","新店區"
"231013","719-UM","2017/06/12 14:39:38","新北市新店區明德路31號","121.541693333333","24.9773583333333","6500600","新店區"
"231005","897-TW","2017/06/12 14:39:25","新北市新店區復興路44-1號","121.538645","24.98685","6500600","新店區"
"231006","898-TW","2017/06/12 14:39:39","新北市新店區北宜路二段82-8號","121.554186666667","24.95343","6500600","新店區"
"231004","899-TW","2017/06/12 14:39:28","新北市新店區中正路282-11號","121.5385","24.9738716666667","6500600","新店區"
"235030","003-UY","2017/06/12 14:39:35","新北市中和區景新街137號","121.506058333333","24.99699","6500300","中和區"
"235028","005-UY","2017/06/12 14:39:24","新北市中和區南華路17-2號","121.502656666667","24.9956666666667","6500300","中和區"
"235027","006-UY","2017/06/12 14:39:30","新北市中和區連城路171巷41弄1號","121.496086666667","24.99653","6500300","中和區"
"235020","096-UM","2017/06/12 14:39:41","新北市中和區員山路514巷3號","121.479205","25.0096783333333","6500300","中和區"
"235003","097-UM","2017/06/12 14:39:38","新北市中和區秀峰街127巷16號","121.51893","24.9906016666667","6500300","中和區"
"235029","098-UM","2017/06/12 14:39:26","新北市中和區永和路12號","121.499851666667","25.00313","6500300","中和區"
"235004","150-BY","2017/06/12 14:39:35","新北市中和區宜安路22號","121.51313","24.995805","6500300","中和區"
"235022","151-BY","2017/06/12 14:39:20","新北市中和區員山路126-2號","121.48143","24.9960133333333","6500300","中和區"
"235019","183-VK","2017/06/12 14:39:22","新北市中和區德光路15巷6號","121.471276666667","25.0039966666667","6500300","中和區"
"235002","185-VK","2017/06/12 14:39:37","新北市中和區立人街55號","121.520356666667","24.9942033333333","6500300","中和區"
"235013","186-VK","2017/06/12 14:39:22","新北市中和區安平路17號","121.50914","24.9941433333333","6500300","中和區"
"235031","255-BX","2017/06/12 14:39:21","新北市中和區連城路340巷10弄5號","121.482871666667","24.9965733333333","6500300","中和區"
"235008","293-VK","2017/06/12 14:39:38","新北市中和區復興路294號","121.501626666667","24.9903183333333","6500300","中和區"
"235036","301-VK","2017/06/12 14:39:29","新北市中和區中和路94號","121.501068333333","25.0001666666667","6500300","中和區"
"235007","352-BY","2017/06/12 14:39:19","新北市中和區景平路480號","121.504983333333","24.9936666666667","6500300","中和區"
"235015","376-QA","2017/06/12 14:39:38","新北市中和區中興街156號","121.499808333333","24.99175","6500300","中和區"
"235032","377-QA","2017/06/12 14:39:34","新北市中和區南山路7號","121.502096666667","24.99963","6500300","中和區"
"235025","378-QA","2017/06/12 14:39:35","新北市中和區民安街15號","121.480518333333","25.0006916666667","6500300","中和區"
"235014","4979-A6","2017/06/12 14:39:32","新北市中和區景平路339號","121.50536","24.993205","6500300","中和區"
"235006","551-UM","2017/06/12 14:39:33","新北市中和區保健路2巷24號","121.507201666667","24.9976716666667","6500300","中和區"
"235034","558-UM","2017/06/12 14:39:38","新北市中和區中和路59號","121.500513333333","25.0011516666667","6500300","中和區"
"235009","565-BX","2017/06/12 14:39:30","新北市中和區景新街416號","121.512951666667","24.9890183333333","6500300","中和區"
"235018","640-BX","2017/06/12 14:39:37","新北市中和區國光街112巷22弄15號","121.470206666667","25.0023833333333","6500300","中和區"
"235024","647-TV","2017/06/12 14:39:28","新北市中和區新生街114巷37弄1號","121.48247","25.0021533333333","6500300","中和區"
"235011","732-UM","2017/06/12 14:39:40","新北市中和區景安路170號","121.50466","24.9926683333333","6500300","中和區"
"235010","733-UM","2017/06/12 14:39:23","新北市中和區忠孝街57號","121.511633333333","24.9845766666667","6500300","中和區"
"235035","783-BX","2017/06/12 14:39:24","新北市中和區建一路251號","121.488276666667","24.9966966666667","6500300","中和區"
"235026","800-TS","2017/06/12 14:39:29","新北市中和區中山路二段526巷33號","121.48573","25.0061416666667","6500300","中和區"
"235021","801-TS","2017/06/12 14:39:34","新北市中和區員山路425號","121.48093","25.00343","6500300","中和區"
"235016","805-TS","2017/06/12 14:39:22","新北市中和區華新街143巷63弄2號","121.506391666667","24.9792316666667","6500300","中和區"
"235012","896-TW","2017/06/12 14:39:37","新北市中和區景新街487號","121.513633333333","24.9873566666667","6500300","中和區"
"235017","900-TW","2017/06/12 14:39:30","新北市中和區民德路197-2號","121.468656666667","24.9988466666667","6500300","中和區"
"235003","157-BY","2017/06/12 14:39:32","新北市中和區宜安路144號","121.509596666667","24.9985083333333","6500300","中和區"
"235001","AAC-213","2017/06/12 14:39:39","新北市中和區秀朗路三段50巷10弄2號","121.524796666667","24.99514","6500300","中和區"
"235023","AAC-215","2017/06/12 14:39:31","新北市中和區圓通路305巷5弄2號","121.493575","24.9902116666667","6500300","中和區"
"220016","013-TV","2017/06/12 14:39:30","新北市板橋區中山路二段555號","121.483943333333","25.0218066666667","6500100","板橋區"
"220013","072-UY","2017/06/12 14:39:26","新北市板橋區國泰街111巷11號","121.46609","25.0061016666667","6500100","板橋區"
"220034","073-UY","2017/06/12 14:39:30","新北市板橋區中正路250巷44號","121.457208333333","25.0195383333333","6500100","板橋區"
"220105","075-UY","2017/06/12 14:39:36","新北市板橋區江寧路三段42號","121.471585","25.03192","6500100","板橋區"
"220045","120-SR","2017/06/12 14:39:29","新北市板橋區莊敬路168號","121.471676666667","25.0224583333333","6500100","板橋區"
"247019","893-R6","2017/06/12 14:39:36","新北市蘆洲區民義街35巷16號","121.471578333333","25.0899133333333","6501400","蘆洲區"
"247009","546-UM","2017/06/12 14:39:38","新北市蘆洲區信義路222巷39號","121.480178333333","25.085525","6501400","蘆洲區"
"247017","500-BY","2017/06/12 14:39:33","新北市蘆洲區民族路277號","121.475781666667","25.09089","6501400","蘆洲區"
"247002","402-BY","2017/06/12 14:39:20","新北市蘆洲區保和街71號","121.4694","25.086115","6501400","蘆洲區"
"247005","341-TH","2017/06/12 14:39:23","新北市蘆洲區長安街91號","121.462035","25.0804016666667","6501400","蘆洲區"
"247007","339-TH","2017/06/12 14:39:25","新北市蘆洲區民生街105號","121.473485","25.0787133333333","6501400","蘆洲區"
"247023","337-TH","2017/06/12 14:39:26","新北市蘆洲區正和街59號","121.46888","25.08126","6501400","蘆洲區"
"247001","336-TH","2017/06/12 14:39:24","新北市蘆洲區永樂街38巷45弄20號","121.457335","25.0901466666667","6501400","蘆洲區"
"247013","057-VK","2017/06/12 14:39:40","新北市蘆洲區成功路164號","121.471438333333","25.08344","6501400","蘆洲區"
"247003","056-VK","2017/06/12 14:39:28","新北市蘆洲區長安街283號","121.458245","25.0843416666667","6501400","蘆洲區"
"247011","007-UY","2017/06/12 14:39:36","新北市蘆洲區集賢路224巷46弄60-1號","121.480788333333","25.088055","6501400","蘆洲區"
"247021","002-UY","2017/06/12 14:39:24","新北市蘆洲區仁愛街264號","121.465163333333","25.092795","6501400","蘆洲區"
"247015","001-UY","2017/06/12 14:39:26","新北市蘆洲區正和街29號","121.469761666667","25.0819066666667","6501400","蘆洲區"
"208004","AAC-292","2017/06/12 14:39:26","新北市金山區重和里茅埔頭9-1號","121.605483333333","25.21928","6502700","金山區"
"207002","749-BX","2017/06/12 14:39:25","新北市萬里區溪底里香員林路17-1號","121.636093333333","25.1598783333333","6502800","萬里區"
"207001","463-BY","2017/06/12 14:39:22","新北市萬里區磺潭里員潭路54號","121.643325","25.1912116666667","6502800","萬里區"
"252005","AAC-283","2017/06/12 12:58:41","新北市三芝區忠孝街145號","121.506143333333","25.2608","6502100","三芝區"
"236064","105-UM","2017/06/12 14:39:33","新北市土城區永豐路255巷27弄33號","121.476473333333","24.9734416666667","6501300","土城區"
"236040","107-UM","2017/06/12 14:39:27","新北市土城區裕民路55巷15號","121.449423333333","24.98883","6501300","土城區"
"236074","166-UM","2017/06/12 14:39:25","新北市土城區中央路四段76-9號","121.418623333333","24.9601733333333","6501300","土城區"
"236028","253-BX","2017/06/12 14:39:23","新北市土城區福仁街72號","121.439256666667","24.9741483333333","6501300","土城區"
"236024","269-VK","2017/06/12 14:39:39","新北市土城區千歲路13號","121.440971666667","24.9695833333333","6501300","土城區"
"236012","270-VK","2017/06/12 14:39:28","新北市土城區清水路223號","121.460958333333","24.98251","6501300","土城區"
"236032","271-VK","2017/06/12 14:39:30","新北市土城區明德路一段291巷26號","121.460376666667","24.9759916666667","6501300","土城區"
"236016","401-BY","2017/06/12 14:39:23","新北市土城區延吉街264號","121.465983333333","24.9845383333333","6501300","土城區"
"236056","912-UM","2017/06/12 14:39:38","新北市土城區中央路四段53-1號","121.417553333333","24.958505","6501300","土城區"
"236044","913-UM","2017/06/12 14:39:35","新北市土城區明德路一段64號","121.465531666667","24.9833683333333","6501300","土城區"
"236060","915-UM","2017/06/12 14:39:32","新北市土城區金城路三段207巷8弄23號","121.470535","24.9908166666667","6501300","土城區"
"236052","AAC-216","2017/06/12 14:39:28","新北市土城區中華路一段145號","121.444025","24.9863216666667","6501300","土城區"
"221010","269-BY","2017/06/12 14:39:19","新北市汐止區長青路210巷82號","121.617103333333","25.11454","6501100","汐止區"
"221032","280-BY","2017/06/12 14:39:41","新北市汐止區國興街30巷26號","121.625715","25.0452033333333","6501100","汐止區"
"220027","145-BY","2017/06/12 14:39:24","新北市板橋區民權路202巷17弄44號","121.459086666667","25.0168033333333","6500100","板橋區"
"220030","610-BX","2017/06/12 14:39:40","新北市板橋區金門街301號","121.429993333333","24.9864983333333","6500100","板橋區"
"220050","245-BX","2017/06/12 14:39:42","新北市板橋區莊敬路208巷4弄1號","121.471568333333","25.02091","6500100","板橋區"
"220017","258-TC","2017/06/12 14:39:20","新北市板橋區華興街25號","121.45855","25.0044633333333","6500100","板橋區"
"220043","267-BY","2017/06/12 14:39:31","新北市板橋區銘傳街49號","121.469686666667","25.031685","6500100","板橋區"
"220020","277-BY","2017/06/12 14:39:37","新北市板橋區篤行路二段141巷25號","121.430688333333","24.9877016666667","6500100","板橋區"
"220012","280-UM","2017/06/12 14:39:38","新北市板橋區中山路一段100號","121.462188333333","25.0103266666667","6500100","板橋區"
"220019","283-VK","2017/06/12 14:39:30","新北市板橋區忠孝路24巷22號","121.460185","25.0010416666667","6500100","板橋區"
"220040","285-UM","2017/06/12 14:39:39","新北市板橋區文聖街135巷27號","121.47903","25.0289816666667","6500100","板橋區"
"220001","285-VK","2017/06/12 14:39:34","新北市板橋區富山街53巷1弄54號","121.477998333333","25.0204966666667","6500100","板橋區"
"220031","286-VK","2017/06/12 14:39:25","新北市板橋區龍興街71巷8號","121.443363333333","25.0020333333333","6500100","板橋區"
"220029","287-VK","2017/06/12 14:39:41","新北市板橋區大觀路一段75巷17號","121.448033333333","25.00441","6500100","板橋區"
"220039","288-VK","2017/06/12 14:39:30","新北市板橋區長江路一段134號","121.460506666667","25.030085","6500100","板橋區"
"220009","293-UM","2017/06/12 14:39:22","新北市板橋區漢生東路113巷10號","121.467831666667","25.0153583333333","6500100","板橋區"
"220032","296-UM","2017/06/12 14:39:33","新北市板橋區滿平街84巷100弄15號","121.425948333333","24.9861633333333","6500100","板橋區"
"220023","297-UM","2017/06/12 14:39:36","新北市板橋區中正路275巷50號","121.453633333333","25.01825","6500100","板橋區"
"220046","299-UM","2017/06/12 14:39:32","新北市板橋區幸福路32巷12號","121.461446666667","25.02085","6500100","板橋區"
"220004","303-R5","2017/06/12 14:39:29","新北市板橋區四川路一段489號","121.457228333333","24.9970183333333","6500100","板橋區"
"220010","305-R5","2017/06/12 14:39:32","新北市板橋區三民路二段109巷31號","121.480695","25.0160566666667","6500100","板橋區"
"220041","307-R5","2017/06/12 14:39:29","新北市板橋區文化路一段387巷29-3號","121.465725","25.022335","6500100","板橋區"
"220047","317-R6","2017/06/12 14:39:41","新北市板橋區四維路314號","121.462546666667","25.0300083333333","6500100","板橋區"
"220028","461-BY","2017/06/12 14:39:39","新北市板橋區大觀路二段153巷46弄4號","121.448916666667","24.9995066666667","6500100","板橋區"
"220038","487-VK","2017/06/12 14:39:32","新北市板橋區公館街252號","121.460025","25.0210433333333","6500100","板橋區"
"220037","491-VK","2017/06/12 14:38:36","新北市板橋區雙十路二段187號","121.473851666667","25.0288066666667","6500100","板橋區"
"220104","560-BX","2017/06/12 14:39:21","新北市板橋區金華街85巷42號","121.459178333333","25.0213166666667","6500100","板橋區"
"220052","561-BX","2017/06/12 14:39:35","新北市板橋區文化路一段286巷11號","121.46794","25.0214233333333","6500100","板橋區"
"220011","609-BX","2017/06/12 14:39:28","新北市板橋區三民路二段140號","121.479143333333","25.0158233333333","6500100","板橋區"
"220005","686-BX","2017/06/12 14:39:30","新北市板橋區國慶路182巷32-1號","121.462726666667","24.9949766666667","6500100","板橋區"
"220025","687-BX","2017/06/12 14:39:32","新北市板橋區僑中二街12巷2號","121.446845","25.0106533333333","6500100","板橋區"
"220042","689-BX","2017/06/12 14:39:39","新北市板橋區新海路332號","121.460376666667","25.02428","6500100","板橋區"
"220002","741-BX","2017/06/12 14:39:38","新北市板橋區忠孝路239巷36號","121.467493333333","25.0036533333333","6500100","板橋區"
"220003","827-TW","2017/06/12 14:39:40","新北市板橋區國慶路149巷13弄12號","121.460466666667","24.9971233333333","6500100","板橋區"
"220014","829-TW","2017/06/12 14:39:38","新北市板橋區長安街138巷1弄15-3號","121.473313333333","25.0098116666667","6500100","板橋區"
"220051","830-TW","2017/06/12 14:39:25","新北市板橋區雙十路二段48-1號","121.475696666667","25.02766","6500100","板橋區"
"220022","895-R6","2017/06/12 14:39:42","新北市板橋區倉後街1-8號","121.45552","25.00912","6500100","板橋區"
"220021","985-R7","2017/06/12 14:39:26","新北市板橋區瑞安街1號","121.454581666667","25.0234216666667","6500100","板橋區"
"220018","AAC-253","2017/06/12 14:39:31","新北市板橋區四川路一段74號","121.459666666667","25.005335","6500100","板橋區"
