"lineid","car","time","location","longitude","latitude","cityid","cityname"
"248015","026-BX","2017/06/12 14:57:16","新北市五股區中興路二段63巷17號","121.460193333333","25.0754166666667","6501500","五股區"
"248007","095-VK","2017/06/12 15:17:22","新北市五股區中興路一段1巷23號","121.46977","25.07067","6501500","五股區"
"248015","261-SL","2017/06/12 15:17:22","新北市五股區凌雲路一段158巷57弄1號","121.4471","25.1044766666667","6501500","五股區"
"248003","677-BX","2017/06/12 15:17:42","新北市五股區中興路四段25號","121.438756666667","25.0827416666667","6501500","五股區"
"244001","248-BX","2017/06/12 15:17:22","新北市林口區竹林路265號","121.389646666667","25.0807433333333","6501700","林口區"
"243003","549-UM","2017/06/12 15:17:31","新北市泰山區中山路二段661號","121.429385","25.0399316666667","6501600","泰山區"
"231002","002-UM","2017/06/12 15:17:39","新北市新店區中正路700巷1號","121.533863333333","24.9911866666667","6500600","新店區"
"231025","0291-UT","2017/06/12 15:17:36","新北市新店區中央路68號","121.532625","24.977485","6500600","新店區"
"231028","046-UY","2017/06/12 15:17:34","新北市新店區僑信路120巷40號","121.499333333333","24.945925","6500600","新店區"
"231030","047-UY","2017/06/12 15:17:27","新北市新店區安民街339號","121.517003333333","24.97488","6500600","新店區"
"231029","106-UY","2017/06/12 15:17:36","新北市新店區安康路三段740號","121.47386","24.9419216666667","6500600","新店區"
"231018","107-UY","2017/06/12 15:17:24","新北市新店區中央七街53號","121.528498333333","24.9760616666667","6500600","新店區"
"231011","108-UY","2017/06/12 15:17:20","新北市新店區寶元路一段65號","121.542248333333","24.98576","6500600","新店區"
"231019","187-VK","2017/06/12 15:17:29","新北市新店區金興路37-1號","121.552423333333","24.932105","6500600","新店區"
"231026","256-BX","2017/06/12 15:17:32","新北市新店區中正路265巷32號","121.537761666667","24.97303","6500600","新店區"
"231034","268-BY","2017/06/12 15:17:36","新北市新店區玫瑰路16號","121.49499","24.950325","6500600","新店區"
"231014","AAD-862","2017/06/12 15:17:21","新北市新店區明山路45號","121.563786666667","24.9559633333333","6500600","新店區"
"231024","3713-VJ","2017/06/12 15:17:27","新北市新店區中華路48巷3號","121.539926666667","24.96863","6500600","新店區"
"231036","512-UM","2017/06/12 15:17:31","新北市新店區安祥路69巷17號","121.48189","24.9613516666667","6500600","新店區"
"231023","513-UM","2017/06/12 15:17:31","新北市新店區北新路一段64巷12弄1號","121.54206","24.965575","6500600","新店區"
"231035","515-UM","2017/06/12 15:17:37","新北市新店區永平街23巷6號","121.516761666667","24.9831683333333","6500600","新店區"
"231001","619-UM","2017/06/12 15:17:19","新北市新店區北新路一段311號","121.541518333333","24.96799","6500600","新店區"
"231003","641-BX","2017/06/12 15:17:38","新北市新店區寶高路9號","121.55168","24.9776116666667","6500600","新店區"
"231039","718-UY","2017/06/12 15:17:37","新北市新店區寶元路一段65號","121.542248333333","24.985765","6500600","新店區"
"231031","720-UM","2017/06/12 15:17:21","新北市新店區和成街19巷33號","121.488065","24.9460066666667","6500600","新店區"
"231005","897-TW","2017/06/12 15:17:37","新北市新店區建國路199號","121.537918333333","24.9799183333333","6500600","新店區"
"231006","898-TW","2017/06/12 15:17:19","新北市新店區新坡一街16號","121.548431666667","24.96196","6500600","新店區"
"231004","899-TW","2017/06/12 15:17:28","新北市新店區博愛街13巷24號","121.540211666667","24.9740266666667","6500600","新店區"
"231037","AKT-0513","2017/06/12 15:17:20","新北市新店區柴埕路20巷2號","121.513968333333","24.9658516666667","6500600","新店區"
"241013","270-UM","2017/06/12 15:12:21","新北市三重區重新路四段121號","121.484631666667","25.052275","6500200","三重區"
"235030","003-UY","2017/06/12 15:17:32","新北市中和區南工路100號","121.507305","25.003185","6500300","中和區"
"235003","097-UM","2017/06/12 15:17:22","新北市中和區安樂路217巷56號","121.513023333333","24.9976583333333","6500300","中和區"
"235029","098-UM","2017/06/12 15:17:26","新北市中和區永和路128巷47號","121.497686666667","25.0069166666667","6500300","中和區"
"235008","293-VK","2017/06/12 15:17:38","新北市中和區中正路65巷1弄2號","121.501273333333","24.9929733333333","6500300","中和區"
"235007","352-BY","2017/06/12 15:17:39","新北市中和區興南路二段159巷10號","121.50511","24.983295","6500300","中和區"
"235032","377-QA","2017/06/12 15:17:38","新北市中和區勝利路35巷16號","121.498985","25.0072233333333","6500300","中和區"
"235033","4980-A6","2017/06/12 15:17:35","新北市中和區圓通路40號","121.500901666667","24.9977416666667","6500300","中和區"
"235034","558-UM","2017/06/12 15:17:38","新北市中和區圓通路117號","121.499396666667","24.996335","6500300","中和區"
"235035","783-BX","2017/06/12 15:17:27","新北市中和區建三路17號","121.486121666667","25.002665","6500300","中和區"
"235012","896-TW","2017/06/12 15:17:37","新北市中和區景新街368號","121.512148333333","24.9903366666667","6500300","中和區"
"235001","AAC-213","2017/06/12 15:17:19","新北市中和區秀朗路三段133巷2號","121.525361666667","24.99269","6500300","中和區"
"235023","AAC-215","2017/06/12 15:17:31","新北市中和區圓通路435巷2-1號","121.486436666667","24.9868083333333","6500300","中和區"
"220013","072-UY","2017/06/12 15:17:26","新北市板橋區中山路一段154巷3弄2號","121.46539","25.0104416666667","6500100","板橋區"
"220045","120-SR","2017/06/12 15:17:28","新北市板橋區莒光路79巷2-1號","121.471898333333","25.0243783333333","6500100","板橋區"
"247002","402-BY","2017/06/12 15:17:20","新北市蘆洲區三民路155號","121.471586666667","25.086965","6501400","蘆洲區"
"247013","057-VK","2017/06/12 15:17:40","新北市八里區下罟子17號","121.379328333333","25.142835","6501400","蘆洲區"
"247003","056-VK","2017/06/12 15:17:23","新北市林口區太平里180號","121.367826666667","25.1340383333333","6501400","蘆洲區"
"208004","AAC-292","2017/06/12 15:17:25","新北市金山區法鼓路555號","121.61612","25.2391933333333","6502700","金山區"
"207001","463-BY","2017/06/12 15:17:22","新北市萬里區磺潭里員潭路1-1號","121.647318333333","25.2031216666667","6502800","萬里區"
"252005","AAC-283","2017/06/12 12:58:41","新北市三芝區忠孝街145號","121.506143333333","25.2608","6502100","三芝區"
"236064","105-UM","2017/06/12 15:17:33","新北市土城區學成路76巷2-1號","121.451375","24.9884266666667","6501300","土城區"
"236040","107-UM","2017/06/12 15:17:31","新北市土城區裕民路267-1號","121.455266666667","24.9823483333333","6501300","土城區"
"236074","166-UM","2017/06/12 15:17:25","新北市土城區中州路52巷2弄22號","121.412566666667","24.9579466666667","6501300","土城區"
"236028","253-BX","2017/06/12 15:17:23","新北市土城區中央路一段318巷6號","121.442871666667","24.981865","6501300","土城區"
"236024","269-VK","2017/06/12 15:17:27","新北市土城區中央路二段151號","121.442063333333","24.9766166666667","6501300","土城區"
"236012","270-VK","2017/06/12 15:17:28","新北市土城區廣福街24號","121.456896666667","24.9893783333333","6501300","土城區"
"236032","271-VK","2017/06/12 15:17:37","新北市土城區國際路139巷10號","121.46847","24.9766883333333","6501300","土城區"
"236016","401-BY","2017/06/12 15:17:23","新北市土城區峰廷街3號","121.469155","24.98742","6501300","土城區"
"236056","912-UM","2017/06/12 15:17:38","新北市土城區金城路一段131號","121.444741666667","24.97364","6501300","土城區"
"236044","913-UM","2017/06/12 15:17:35","新北市土城區金城路二段394號","121.463895","24.9854916666667","6501300","土城區"
"236060","915-UM","2017/06/12 15:17:32","新北市土城區延平街55號","121.467878333333","24.9925033333333","6501300","土城區"
"236052","AAC-216","2017/06/12 15:17:28","新北市土城區學府路一段276號","121.449951666667","24.98303","6501300","土城區"
"238002","755-BX","2017/06/12 15:17:25","新北市樹林區中山路二段202號","121.411276666667","24.982345","6500700","樹林區"
"238010","601-UM","2017/06/12 15:17:27","新北市樹林區復興路322巷10號","121.416053333333","24.98702","6500700","樹林區"
"238019","599-UM","2017/06/12 15:17:29","新北市樹林區八德街251巷9號","121.422198333333","24.9786383333333","6500700","樹林區"
"238005","571-TV","2017/06/12 15:17:32","新北市板橋區大觀路三段59巷42號","121.435191666667","24.9948483333333","6500700","樹林區"
"238011","5061-A6","2017/06/12 15:17:28","新北市樹林區鎮前街168號","121.424305","24.989875","6500700","樹林區"
"238009","312-TH","2017/06/12 15:17:25","新北市樹林區國凱街150號","121.424041666667","24.980725","6500700","樹林區"
"238008","311-TH","2017/06/12 15:17:21","新北市樹林區西圳街一段165巷20弄11號","121.395556666667","24.9602033333333","6500700","樹林區"
"238012","303-VK","2017/06/12 15:17:37","新北市樹林區中山路二段34號","121.41731","24.9849233333333","6500700","樹林區"
"238004","283-BY","2017/06/12 15:17:40","新北市樹林區文化街91巷6號","121.415915","24.9895866666667","6500700","樹林區"
"238001","282-BY","2017/06/12 15:17:24","新北市樹林區保安街一段206號","121.421146666667","24.9961366666667","6500700","樹林區"
"238007","268-VK","2017/06/12 15:17:33","新北市板橋區大觀路三段131-1號","121.435131666667","24.99197","6500700","樹林區"
"238013","172-UY","2017/06/12 15:17:36","新北市樹林區東順街123號","121.406931666667","24.9750883333333","6500700","樹林區"
"238003","169-UY","2017/06/12 15:17:32","新北市樹林區中山路二段118號","121.413651666667","24.9831233333333","6500700","樹林區"
"221010","269-BY","2017/06/12 15:17:19","新北市汐止區汐萬路一段256巷3號","121.652123333333","25.0748016666667","6501100","汐止區"
"221032","280-BY","2017/06/12 15:17:20","新北市汐止區仁愛路35號","121.659473333333","25.0636083333333","6501100","汐止區"
"220030","610-BX","2017/06/12 15:17:20","新北市板橋區大觀路三段100號","121.432678333333","24.9945733333333","6500100","板橋區"
"220050","245-BX","2017/06/12 15:17:21","新北市板橋區雙十路二段47巷52號","121.47498","25.0254116666667","6500100","板橋區"
"220017","258-TC","2017/06/12 15:17:40","新北市板橋區大明街13號","121.458853333333","25.002505","6500100","板橋區"
"220012","280-UM","2017/06/12 15:17:36","新北市板橋區漢生東路193巷25號","121.471078333333","25.0122366666667","6500100","板橋區"
"220019","283-VK","2017/06/12 15:17:30","新北市板橋區廣權路123號","121.46542","24.9931716666667","6500100","板橋區"
"220040","285-UM","2017/06/12 15:17:19","新北市板橋區懷德街174巷19號","121.47852","25.02926","6500100","板橋區"
"220031","286-VK","2017/06/12 15:17:25","新北市板橋區僑中二街92巷7號","121.445883333333","25.0089616666667","6500100","板橋區"
"220029","287-VK","2017/06/12 15:17:22","新北市板橋區僑中一街102巷7弄2號","121.446841666667","25.0129016666667","6500100","板橋區"
"220009","293-UM","2017/06/12 15:17:42","新北市板橋區四川路一段284號","121.458668333333","25.0008416666667","6500100","板橋區"
"220023","297-UM","2017/06/12 15:17:36","新北市板橋區金華街10巷50號","121.457005","25.0201683333333","6500100","板橋區"
"220046","299-UM","2017/06/12 15:17:32","新北市板橋區公館街25號","121.460955","25.015085","6500100","板橋區"
"220041","307-R5","2017/06/12 15:17:28","新北市板橋區文化路一段137號","121.46207","25.0155116666667","6500100","板橋區"
"220038","487-VK","2017/06/12 15:17:32","新北市板橋區互助街71號","121.460288333333","25.0262116666667","6500100","板橋區"
"220037","491-VK","2017/06/12 15:17:15","新北市板橋區民治街92號","121.479256666667","25.0317983333333","6500100","板橋區"
"220052","561-BX","2017/06/12 15:17:35","新北市板橋區陽明街265號","121.462315","25.0257766666667","6500100","板橋區"
"220011","609-BX","2017/06/12 15:17:28","新北市板橋區三民路一段107號","121.479391666667","25.0213683333333","6500100","板橋區"
"220025","687-BX","2017/06/12 15:17:28","新北市板橋區大觀路一段31號","121.449926666667","25.0084766666667","6500100","板橋區"
"220042","689-BX","2017/06/12 15:17:39","新北市板橋區長江路二段210號","121.467743333333","25.03221","6500100","板橋區"
"220051","830-TW","2017/06/12 15:17:24","新北市板橋區漢生東路83巷1號","121.466418333333","25.01587","6500100","板橋區"
"220022","895-R6","2017/06/12 15:17:22","新北市板橋區南門街85號","121.456828333333","25.00773","6500100","板橋區"
"220018","AAC-253","2017/06/12 15:17:26","新北市板橋區四川路二段2號","121.456638333333","24.996525","6500100","板橋區"
