"lineid","car","time","location","longitude","latitude","cityid","cityname"
"249005","172-UM","2017/06/12 16:49:23","新北市八里區大堀湖1-5號","121.422955","25.15483","6502300","八里區"
"249001","173-UM","2017/06/12 16:49:25","新北市八里區挖子尾街10號","121.415423333333","25.1642416666667","6502300","八里區"
"249004","303-UY","2017/06/12 16:49:24","新北市八里區博物館路29號","121.413625","25.16253","6502300","八里區"
"249002","305-UY","2017/06/12 16:49:26","新北市八里區牛寮埔33號","121.42998","25.14555","6502300","八里區"
"249003","593-UM","2017/06/12 16:49:33","新北市八里區中山路二段267號","121.402098333333","25.148815","6502300","八里區"
"248015","026-BX","2017/06/12 14:57:16","新北市五股區中興路二段63巷17號","121.460193333333","25.0754166666667","6501500","五股區"
"244007","080-UY","2017/06/12 16:46:18","新北市林口區粉寮路二段46-1號","121.403586666667","25.0871116666667","6501700","林口區"
"244019","403-UM","2017/06/12 16:49:01","新北市林口區粉寮69號","121.405106666667","25.090845","6501700","林口區"
"244009","656-BX","2017/06/12 16:49:19","新北市林口區粉寮69號","121.405","25.0909416666667","6501700","林口區"
"244025","837-TS","2017/06/12 16:48:51","新北市林口區粉寮路二段160巷28號","121.405183333333","25.0908166666667","6501700","林口區"
"243009","297-R6","2017/06/12 15:49:34","新北市泰山區黎明路25號","121.422031666667","25.0609516666667","6501600","泰山區"
"243012","646-TV","2017/06/12 15:44:23","新北市泰山區黎明路25號","121.4219","25.0606466666667","6501600","泰山區"
"243016","680-BX","2017/06/12 15:56:48","新北市泰山區犁頭窠3-1號","121.421993333333","25.0605433333333","6501600","泰山區"
"231046","278-BY","2017/06/12 16:49:28","新北市新店區灣潭路15-6號","121.542006666667","24.9411683333333","6500600","新店區"
"241011","013-R5","2017/06/12 16:49:36","新北市三重區仁愛街53巷135號","121.499311666667","25.0725616666667","6500200","三重區"
"241008","059-VK","2017/06/12 16:49:27","新北市三重區永安北路一段11巷16弄4號","121.476898333333","25.0751033333333","6500200","三重區"
"241009","060-VK","2017/06/12 16:49:21","新北市三重區溪尾街196巷31號","121.487178333333","25.0807366666667","6500200","三重區"
"241031","061-VK","2017/06/12 16:49:20","新北市三重區新北大道一段15巷2號","121.487856666667","25.06064","6500200","三重區"
"241015","062-VK","2017/06/12 16:49:19","新北市三重區文化北路43巷13號","121.49937","25.0655016666667","6500200","三重區"
"241017","063-VK","2017/06/12 16:49:32","新北市三重區國隆路8巷29號","121.492763333333","25.0634766666667","6500200","三重區"
"241024","065-VK","2017/06/12 16:49:21","新北市三重區中正北路317巷16號","121.474981666667","25.07289","6500200","三重區"
"241026","066-VK","2017/06/12 16:49:37","新北市三重區文化南路8-4號","121.500231666667","25.0621216666667","6500200","三重區"
"241002","090-VK","2017/06/12 16:49:21","新北市三重區仁義街241巷52號","121.497443333333","25.083345","6500200","三重區"
"241003","091-VK","2017/06/12 16:49:20","新北市三重區五華街83號","121.492103333333","25.0831783333333","6500200","三重區"
"241005","262-UM","2017/06/12 16:49:20","新北市三重區仁安街51號","121.484276666667","25.0839916666667","6500200","三重區"
"241028","265-UM","2017/06/12 16:49:37","新北市三重區光興街79號","121.49774","25.0600183333333","6500200","三重區"
"241016","266-UM","2017/06/12 16:49:33","新北市三重區大同北路95巷3號","121.494861666667","25.0640416666667","6500200","三重區"
"241022","267-UM","2017/06/12 16:49:19","新北市三重區貴陽街20號","121.484203333333","25.0621733333333","6500200","三重區"
"241018","268-UM","2017/06/12 16:49:16","新北市三重區正義北路302巷35號","121.494216666667","25.069575","6500200","三重區"
"241032","269-UM","2017/06/12 16:49:33","新北市三重區三光街18號","121.4849","25.0603266666667","6500200","三重區"
"241013","270-UM","2017/06/12 16:49:21","新北市三重區仁壽街72號","121.498126666667","25.07383","6500200","三重區"
"241025","271-UM","2017/06/12 16:49:26","新北市三重區中正北路530巷8號","121.472018333333","25.071005","6500200","三重區"
"241007","398-BY","2017/06/12 16:49:33","新北市三重區三和路四段225號","121.481375","25.079705","6500200","三重區"
"241020","412-TH","2017/06/12 16:49:37","新北市三重區忠孝路二段35號","121.485866666667","25.0712066666667","6500200","三重區"
"241004","475-VK","2017/06/12 16:49:35","新北市三重區仁愛街423-1號","121.490338333333","25.08148","6500200","三重區"
"241019","478-VK","2017/06/12 16:49:26","新北市三重區力行路一段179巷5號","121.484788333333","25.06974","6500200","三重區"
"241030","480-VK","2017/06/12 16:49:27","新北市三重區中正南路271號","121.492698333333","25.0526433333333","6500200","三重區"
"241014","543-UM","2017/06/12 16:49:18","新北市三重區龍濱路64號","121.502456666667","25.0692033333333","6500200","三重區"
"241023","545-UM","2017/06/12 16:49:22","新北市三重區中華路76巷37-1號","121.48201","25.062635","6500200","三重區"
"241001","547-UM","2017/06/12 16:49:38","新北市三重區仁政街76巷7號","121.492186666667","25.0773083333333","6500200","三重區"
"241006","AAD-863","2017/06/12 16:49:30","新北市三重區力行路二段158號","121.48269","25.0763683333333","6500200","三重區"
"241012","887-TS","2017/06/12 16:49:17","新北市三重區三和路三段101巷187號","121.499881666667","25.0739716666667","6500200","三重區"
"241029","942-UM","2017/06/12 16:49:31","新北市三重區集美街207巷16號","121.492223333333","25.0542116666667","6500200","三重區"
"241033","AAC-255","2017/06/12 16:49:28","新北市三重區新北大道二段139巷32號","121.466483333333","25.0604016666667","6500200","三重區"
"235026","800-TS","2017/06/12 16:49:29","新北市中和區連城路263-2號","121.491518333333","24.9964716666667","6500300","中和區"
"247006","341-TH","2017/06/12 16:49:23","新北市蘆洲區永安南路二段132-1號","121.462553333333","25.078565","6501400","蘆洲區"
"247008","339-TH","2017/06/12 16:49:18","新北市蘆洲區中山二路45巷30號","121.474341666667","25.0812016666667","6501400","蘆洲區"
"247024","337-TH","2017/06/12 16:49:16","新北市蘆洲區長興路255號","121.460506666667","25.0875616666667","6501400","蘆洲區"
"247014","057-VK","2017/06/12 16:49:22","新北市蘆洲區三民路89號","121.474273333333","25.0846016666667","6501400","蘆洲區"
"247004","056-VK","2017/06/12 16:49:32","新北市蘆洲區長榮路106號","121.461785","25.084125","6501400","蘆洲區"
"247022","002-UY","2017/06/12 16:49:36","新北市蘆洲區三民路128巷166-1號","121.46837","25.0925366666667","6501400","蘆洲區"
"247016","001-UY","2017/06/12 16:49:29","新北市蘆洲區正和街3號","121.470413333333","25.082825","6501400","蘆洲區"
"228003","097-TW","2017/06/12 16:49:25","新北市貢寮區貢寮里朝陽街1-2號","121.912371666667","25.021295","6502600","貢寮區"
"228002","585-TW","2017/06/12 16:49:23","新北市貢寮區貢寮里長泰路24-2號","121.902723333333","25.0240083333333","6502600","貢寮區"
"228001","670-TC","2017/06/12 16:49:25","新北市貢寮區貢寮里朝陽街1-2號","121.912291666667","25.021275","6502600","貢寮區"
"224010","AGQ-8101","2017/06/12 09:23:15","新北市瑞芳區明燈路二段46號","121.809428333333","25.1081533333333","6501200","瑞芳區"
"224006","676-BX","2017/06/12 16:49:28","新北市瑞芳區大寮路356-1號","121.784485","25.1032016666667","6501200","瑞芳區"
"224009","285-BY","2017/06/12 16:49:23","新北市瑞芳區中山路44號","121.80353","25.1062966666667","6501200","瑞芳區"
"224008","275-VK","2017/06/12 16:49:25","新北市瑞芳區逢甲路15號","121.809745","25.1084716666667","6501200","瑞芳區"
"224007","273-VK","2017/06/12 16:49:32","新北市瑞芳區中央路48巷162號","121.759301666667","25.1034033333333","6501200","瑞芳區"
"224005","271-BY","2017/06/12 16:49:22","新北市瑞芳區洞頂路157號","121.861318333333","25.1228633333333","6501200","瑞芳區"
"227001","642-TC","2017/06/12 16:49:26","新北市雙溪區外柑里外柑腳71號","121.807116666667","25.0176066666667","6502500","雙溪區"
"227008","400-TW","2017/06/12 16:49:27","新北市雙溪區牡丹里聖南1-1號","121.860896666667","25.0500783333333","6502500","雙溪區"
"251009","008-UM","2017/06/12 16:49:25","新北市淡水區中正路二段31號","121.419385","25.181745","6501000","淡水區"
"251004","009-UM","2017/06/12 16:49:31","新北市淡水區中正路二段31號","121.419448333333","25.1815066666667","6501000","淡水區"
"251007","179-VK","2017/06/12 16:49:28","新北市淡水區中正路一段130-5號","121.422221666667","25.1790366666667","6501000","淡水區"
"251013","182-VK","2017/06/12 16:49:31","新北市淡水區大溪9號","121.496091666667","25.1901366666667","6501000","淡水區"
"251012","441-VK","2017/06/12 16:49:38","新北市淡水區中正路二段31號","121.419663333333","25.181535","6501000","淡水區"
"251015","442-VK","2017/06/12 16:49:32","新北市淡水區忠愛街5-2號","121.460625","25.1716566666667","6501000","淡水區"
"251006","561-UM","2017/06/12 16:49:29","新北市淡水區中正路二段18號","121.419668333333","25.1811416666667","6501000","淡水區"
"251011","650-BX","2017/06/12 16:49:30","新北市淡水區中正路二段38號","121.419478333333","25.1823416666667","6501000","淡水區"
"252002","178-VK","2017/06/12 16:49:31","新北市三芝區埔坪里埔頭坑80號","121.510646666667","25.2544866666667","6502100","三芝區"
"252001","292-VK","2017/06/12 16:49:17","新北市三芝區埔坪里埔頭坑51號","121.507658333333","25.2655683333333","6502100","三芝區"
"242027","612-BX","2017/06/12 11:02:49","新北市新莊區新泰路357巷3弄57號","121.442081666667","25.0392466666667","6500500","新莊區"
"242044","172-VK","2017/06/12 11:03:24","新北市新莊區三和路12-21號","121.44206","25.0388133333333","6500500","新莊區"
"242013","175-VK","2017/06/12 16:49:34","新北市新莊區三和路12-21號","121.442133333333","25.038615","6500500","新莊區"
"242031","346-TH","2017/06/12 16:49:29","新北市新莊區三和路12-17號","121.441923333333","25.0375033333333","6500500","新莊區"
"242002","347-TH","2017/06/12 16:49:26","新北市新莊區三和路12-16號","121.442103333333","25.0374383333333","6500500","新莊區"
"242017","348-TH","2017/06/12 16:49:23","新北市新莊區新泰路357巷3弄57號","121.441943333333","25.03972","6500500","新莊區"
"242009","351-TH","2017/06/12 16:49:35","新北市新莊區新泰路357巷3弄57號","121.441921666667","25.0393783333333","6500500","新莊區"
"238010","601-UM","2017/06/12 16:49:27","新北市樹林區中山路三段166號","121.389161666667","24.9702383333333","6500700","樹林區"
"238006","599-UM","2017/06/12 16:49:29","新北市樹林區八德街862-1號","121.391688333333","24.968495","6500700","樹林區"
"238012","303-VK","2017/06/12 16:16:18","新北市樹林區中正路22-1號","121.427848333333","24.9994233333333","6500700","樹林區"
"238004","283-BY","2017/06/12 16:49:20","新北市樹林區中正路433-2號","121.414663333333","25.0083333333333","6500700","樹林區"
"238001","282-BY","2017/06/12 16:49:23","新北市樹林區中正路22-1號","121.427818333333","24.9995866666667","6500700","樹林區"
"239007","AAC-297","2017/06/12 16:49:24","新北市鶯歌區二甲路13-16號","121.34542","24.935165","6500800","鶯歌區"
"239005","526-UM","2017/06/12 16:49:21","新北市鶯歌區二甲路12-2號","121.345495","24.9351433333333","6500800","鶯歌區"
"239001","417-VK","2017/06/12 16:49:24","新北市鶯歌區二甲路12-2號","121.346068333333","24.934885","6500800","鶯歌區"
"239003","360-BY","2017/06/12 16:49:26","新北市鶯歌區二甲路12-2號","121.345625","24.9350166666667","6500800","鶯歌區"
"239002","359-BY","2017/06/12 01:33:05","新北市鶯歌區二甲路13號","121.344093333333","24.93523","6500800","鶯歌區"
"221010","269-BY","2017/06/12 15:23:18","新北市汐止區汐萬路一段256巷3號","121.652171666667","25.07488","6501100","汐止區"
"220088","145-RM","2017/06/12 02:21:48","新北市板橋區溪城路90-2號","121.429076666667","24.9801366666667","6500100","板橋區"
"220022","895-R6","2017/06/12 16:49:21","新北市板橋區大觀路一段29巷131弄125號","121.451835","25.0054233333333","6500100","板橋區"
