"lineid","car","time","location","longitude","latitude","cityid","cityname"
"234026","9371-KE","2017/06/12 17:39:19","新北市永和區中正路637號","121.515343333333","25.0100983333333","6500400","永和區"
"249005","172-UM","2017/06/12 17:39:23","新北市八里區荖阡坑路41-6號","121.402105","25.132565","6502300","八里區"
"249001","173-UM","2017/06/12 17:39:25","新北市八里區龍米路二段150號","121.435886666667","25.1567283333333","6502300","八里區"
"249004","303-UY","2017/06/12 17:39:24","新北市八里區賢三街98號","121.416941666667","25.157825","6502300","八里區"
"249002","305-UY","2017/06/12 17:39:26","新北市八里區頂寮二街121巷22號","121.44651","25.128085","6502300","八里區"
"249003","593-UM","2017/06/12 17:39:33","新北市八里區中山路二段233號","121.403278333333","25.1491833333333","6502300","八里區"
"232011","375-UM","2017/06/12 17:39:20","新北市坪林區魚堀55-1號","121.708175","24.92917","6502000","坪林區"
"244013","069-UM","2017/06/12 17:39:27","新北市林口區中正路559號","121.381026666667","25.0769416666667","6501700","林口區"
"244007","080-UY","2017/06/12 17:39:18","新北市林口區中華路283號","121.38366","25.0909716666667","6501700","林口區"
"244019","403-UM","2017/06/12 17:39:30","新北市林口區公園路122號","121.370675","25.07129","6501700","林口區"
"244023","483-VK","2017/06/12 17:39:32","新北市林口區東明一街115巷5號","121.390586666667","25.07052","6501700","林口區"
"244009","656-BX","2017/06/12 17:39:19","新北市林口區文化一路二段285-1號","121.385046666667","25.0846533333333","6501700","林口區"
"244011","701-TV","2017/06/12 17:39:27","新北市林口區佳林路154號","121.384191666667","25.0771","6501700","林口區"
"244025","837-TS","2017/06/12 17:39:30","新北市林口區文化三路一段359-1號","121.364553333333","25.072895","6501700","林口區"
"244021","838-TS","2017/06/12 17:39:19","新北市林口區東林街32號","121.39523","25.0793816666667","6501700","林口區"
"243009","297-R6","2017/06/12 15:49:34","新北市泰山區黎明路25號","121.422031666667","25.0609516666667","6501600","泰山區"
"243016","680-BX","2017/06/12 15:56:48","新北市泰山區犁頭窠3-1號","121.421993333333","25.0605433333333","6501600","泰山區"
"231046","278-BY","2017/06/12 17:39:35","新北市新店區直潭路92號","121.530881666667","24.9376366666667","6500600","新店區"
"241011","013-R5","2017/06/12 17:39:16","新北市三重區河邊北街122-1號","121.503598333333","25.071395","6500200","三重區"
"241017","063-VK","2017/06/12 17:39:32","新北市三重區大同北路34巷17號","121.494511666667","25.062405","6500200","三重區"
"241024","065-VK","2017/06/12 17:39:23","新北市三重區大勇街82巷15弄3號","121.479888333333","25.0717816666667","6500200","三重區"
"241005","262-UM","2017/06/12 17:39:20","新北市三重區永安北路二段5巷36號","121.482903333333","25.0812966666667","6500200","三重區"
"241016","266-UM","2017/06/12 17:39:33","新北市三重區正義北路62號","121.497235","25.064035","6500200","三重區"
"241018","268-UM","2017/06/12 17:39:36","新北市三重區中正北路105號","121.489431666667","25.0631633333333","6500200","三重區"
"241007","398-BY","2017/06/12 17:39:33","新北市三重區三和路四段145巷223號","121.488891666667","25.0796083333333","6500200","三重區"
"241014","543-UM","2017/06/12 17:39:18","新北市三重區長壽街137號","121.503711666667","25.0689","6500200","三重區"
"241023","545-UM","2017/06/12 17:39:22","新北市三重區忠孝路三段50巷98號","121.483511666667","25.0642266666667","6500200","三重區"
"241012","887-TS","2017/06/12 17:39:17","新北市三重區仁興街41號","121.499018333333","25.0757866666667","6500200","三重區"
"241033","AAC-255","2017/06/12 17:39:28","新北市三重區光復路一段47號","121.47226","25.04877","6500200","三重區"
"235061","378-QA","2017/06/12 17:18:13","新北市中和區員山路36巷16-2號","121.485293333333","24.991685","6500300","中和區"
"235071","783-BX","2017/06/12 17:39:29","新北市中和區員山路36巷16-2號","121.48529","24.99117","6500300","中和區"
"235062","800-TS","2017/06/12 17:39:32","新北市中和區員山路36巷16-3號","121.48516","24.9914266666667","6500300","中和區"
"247020","893-R6","2017/06/12 17:39:29","新北市蘆洲區民族路331號","121.473761666667","25.0917566666667","6501400","蘆洲區"
"247010","546-UM","2017/06/12 17:39:20","新北市蘆洲區集賢路412號","121.479671666667","25.0814133333333","6501400","蘆洲區"
"247018","500-BY","2017/06/12 17:39:22","新北市蘆洲區民權路61巷10號","121.473296666667","25.0877483333333","6501400","蘆洲區"
"247006","341-TH","2017/06/12 17:39:23","新北市蘆洲區長安街68巷10號","121.463105","25.0804533333333","6501400","蘆洲區"
"247008","339-TH","2017/06/12 17:39:38","新北市蘆洲區民生街109號","121.473365","25.0786616666667","6501400","蘆洲區"
"247024","337-TH","2017/06/12 17:39:16","新北市蘆洲區光榮路97巷19號","121.462673333333","25.0892383333333","6501400","蘆洲區"
"247002","336-TH","2017/06/12 17:39:21","新北市蘆洲區永平街34號","121.458491666667","25.0909933333333","6501400","蘆洲區"
"247014","057-VK","2017/06/12 17:39:22","新北市蘆洲區中山二路146巷8號","121.471271666667","25.0817916666667","6501400","蘆洲區"
"247004","056-VK","2017/06/12 17:39:33","新北市蘆洲區長安街172巷10號","121.459545","25.08345","6501400","蘆洲區"
"247012","007-UY","2017/06/12 17:39:35","新北市蘆洲區民權路3巷14弄11號","121.475463333333","25.08576","6501400","蘆洲區"
"247022","002-UY","2017/06/12 17:39:36","新北市蘆洲區民族路463號","121.466975","25.088475","6501400","蘆洲區"
"247016","001-UY","2017/06/12 17:39:29","新北市蘆洲區中正路185巷23弄24號","121.46752","25.0840533333333","6501400","蘆洲區"
"228003","097-TW","2017/06/12 17:39:25","新北市貢寮區仁理村仁和路214號","121.923703333333","25.0530716666667","6502600","貢寮區"
"228002","585-TW","2017/06/12 17:39:23","新北市貢寮區福隆里龜壽谷街26號","121.952856666667","25.0080383333333","6502600","貢寮區"
"228001","670-TC","2017/06/12 17:39:25","新北市貢寮區真理里新港街26巷28-6號","121.927771666667","25.05545","6502600","貢寮區"
"224010","AGQ-8101","2017/06/12 09:23:15","新北市瑞芳區明燈路二段46號","121.809428333333","25.1081533333333","6501200","瑞芳區"
"224006","676-BX","2017/06/12 17:39:28","新北市瑞芳區傑魚坑路36號","121.794046666667","25.1105566666667","6501200","瑞芳區"
"224002","639-TC","2017/06/12 16:03:21","新北市瑞芳區明燈路二段46號","121.809495","25.1081766666667","6501200","瑞芳區"
"224009","285-BY","2017/06/12 17:39:23","新北市瑞芳區崙頂路3號","121.846638333333","25.1067216666667","6501200","瑞芳區"
"224008","275-VK","2017/06/12 17:39:25","新北市瑞芳區明燈路一段15號","121.823978333333","25.1070516666667","6501200","瑞芳區"
"224007","273-VK","2017/06/12 17:39:32","新北市平溪區新寮里五分寮10-2號","121.799995","25.0740533333333","6501200","瑞芳區"
"224005","271-BY","2017/06/12 17:39:22","新北市瑞芳區海濱路8-6號","121.831773333333","25.126095","6501200","瑞芳區"
"208001","742-BX","2017/06/12 17:39:27","新北市金山區磺清路129號","121.639415","25.22789","6502700","金山區"
"208003","665-BX","2017/06/12 17:39:26","新北市金山區磺清路135號","121.639451666667","25.2277783333333","6502700","金山區"
"251009","008-UM","2017/06/12 17:26:25","新北市淡水區重建街1巷7號","121.439673333333","25.17369","6501000","淡水區"
"251004","009-UM","2017/06/12 17:39:30","新北市淡水區民權路42號","121.459621666667","25.1370233333333","6501000","淡水區"
"251007","179-VK","2017/06/12 17:39:28","新北市淡水區民生路89號","121.46375","25.1383616666667","6501000","淡水區"
"251008","181-VK","2017/06/12 17:39:33","新北市淡水區八勢路50巷21弄7號","121.46228","25.1499216666667","6501000","淡水區"
"251013","182-VK","2017/06/12 17:39:30","新北市淡水區演戲埔腳6號","121.471538333333","25.19401","6501000","淡水區"
"251010","413-VK","2017/06/12 17:39:35","新北市淡水區淡海路280巷97號","121.419961666667","25.18887","6501000","淡水區"
"251012","441-VK","2017/06/12 17:39:18","新北市淡水區北新路200巷8號","121.451728333333","25.17965","6501000","淡水區"
"251015","442-VK","2017/06/12 17:39:32","新北市淡水區樹興里25號","121.486876666667","25.1699216666667","6501000","淡水區"
"251005","443-VK","2017/06/12 17:39:30","新北市淡水區鄧公路35巷1號","121.451643333333","25.17136","6501000","淡水區"
"251001","559-UM","2017/06/12 17:39:32","新北市淡水區中正東路二段17號","121.458473333333","25.1572683333333","6501000","淡水區"
"251006","561-UM","2017/06/12 17:39:29","新北市淡水區大信街1巷25號","121.440196666667","25.1767466666667","6501000","淡水區"
"251011","650-BX","2017/06/12 17:39:29","新北市淡水區小坪頂15號","121.486028333333","25.156035","6501000","淡水區"
"251002","672-BX","2017/06/12 17:39:22","新北市淡水區清水街250號","121.44039","25.1722533333333","6501000","淡水區"
"251003","766-UM","2017/06/12 17:39:29","新北市淡水區大忠街5巷1號","121.443146666667","25.1764383333333","6501000","淡水區"
"207003","550-UM","2017/06/12 17:39:30","新北市萬里區野柳里東澳路20號","121.69151","25.19938","6502800","萬里區"
"207004","225-TW","2017/06/12 17:39:34","新北市萬里區中幅里中福路8-1號","121.685866666667","25.1649533333333","6502800","萬里區"
"252002","178-VK","2017/06/12 17:39:31","新北市三芝區智成街85號","121.50513","25.25565","6502100","三芝區"
"252001","292-VK","2017/06/12 17:39:37","新北市三芝區淡金路一段32號","121.500255","25.2591866666667","6502100","三芝區"
"237013","252-BX","2017/06/12 17:39:35","新北市三峽區愛國路33-9號","121.374795","24.933055","6500900","三峽區"
"237008","302-VK","2017/06/12 17:39:28","新北市三峽區中山路459巷92號","121.354463333333","24.9359683333333","6500900","三峽區"
"237006","5529-G3","2017/06/12 17:39:31","新北市三峽區介壽路一段552巷3號","121.387415","24.9333033333333","6500900","三峽區"
"237011","572-TV","2017/06/12 17:39:23","新北市三峽區中山路108號","121.365911666667","24.935655","6500900","三峽區"
"237015","649-BX","2017/06/12 17:39:34","新北市三峽區民權街199號","121.367675","24.92881","6500900","三峽區"
"237010","706-TV","2017/06/12 17:39:35","新北市三峽區中山路121號","121.3655","24.9359233333333","6500900","三峽區"
"236042","107-UM","2017/06/12 17:39:36","新北市土城區城林路6巷80號","121.438553333333","24.9797283333333","6501300","土城區"
"236078","166-UM","2017/06/12 17:39:26","新北市土城區城林路6巷80號","121.438165","24.9795683333333","6501300","土城區"
"236014","270-VK","2017/06/12 17:39:24","新北市土城區城林路6巷80號","121.4385","24.979815","6501300","土城區"
"242021","AAC-296","2017/06/12 17:39:29","新北市新莊區中華路一段80號","121.452041666667","25.039215","6500500","新莊區"
"242029","986-R7","2017/06/12 17:39:23","新北市新莊區復興路一段165號","121.45107","25.0433433333333","6500500","新莊區"
"242048","751-BX","2017/06/12 17:39:29","新北市新莊區萬安街125號","121.420736666667","25.0223683333333","6500500","新莊區"
"242058","705-TV","2017/06/12 17:39:22","新北市新莊區中正路618號","121.423706666667","25.0293533333333","6500500","新莊區"
"242025","615-BX","2017/06/12 17:39:34","新北市新莊區思源路108號","121.46007","25.0465566666667","6500500","新莊區"
"242023","613-BX","2017/06/12 17:39:36","新北市新莊區民樂街53號","121.4579","25.0414533333333","6500500","新莊區"
"242027","612-BX","2017/06/12 17:39:17","新北市新莊區福壽街79號","121.458195","25.04988","6500500","新莊區"
"242036","566-BX","2017/06/12 17:39:34","新北市新莊區建福路69巷45號","121.42878","25.0276716666667","6500500","新莊區"
"242042","497-BY","2017/06/12 17:39:32","新北市新莊區中正路514巷17號","121.43304","25.03296","6500500","新莊區"
"242004","442-UM","2017/06/12 17:39:29","新北市新莊區自立街198號","121.456635","25.0456066666667","6500500","新莊區"
"242046","441-UM","2017/06/12 17:39:28","新北市新莊區福營路35巷3號","121.437125","25.0322383333333","6500500","新莊區"
"242050","440-UM","2017/06/12 17:39:33","新北市新莊區西盛街195號","121.428146666667","25.0172516666667","6500500","新莊區"
"242034","413-TV","2017/06/12 17:39:20","新北市新莊區新莊路637號","121.445266666667","25.03285","6500500","新莊區"
"242039","400-BY","2017/06/12 17:39:31","新北市新莊區民安東路45號","121.42926","25.020875","6500500","新莊區"
"242060","362-BY","2017/06/12 17:39:37","新北市新莊區瓊林南路118-11號","121.434558333333","25.0088583333333","6500500","新莊區"
"242011","132-UY","2017/06/12 17:39:17","新北市新莊區中港路599號","121.451463333333","25.0529233333333","6500500","新莊區"
"242019","135-UY","2017/06/12 17:39:24","新北市新莊區中港路208號","121.454668333333","25.0425316666667","6500500","新莊區"
"242044","172-VK","2017/06/12 17:39:36","新北市新莊區富國路65巷3號","121.419776666667","25.0264166666667","6500500","新莊區"
"242007","173-VK","2017/06/12 17:39:23","新北市新莊區福樂街69號","121.457068333333","25.0477716666667","6500500","新莊區"
"242013","175-VK","2017/06/12 17:39:34","新北市新莊區中誠街96號","121.449981666667","25.04776","6500500","新莊區"
"242056","176-VK","2017/06/12 17:39:24","新北市新莊區泰豐街30巷20號","121.449006666667","25.031955","6500500","新莊區"
"242031","346-TH","2017/06/12 17:39:29","新北市新莊區新泰路336號","121.444843333333","25.042045","6500500","新莊區"
"242002","347-TH","2017/06/12 17:39:26","新北市新莊區新莊路280號","121.451595","25.0338483333333","6500500","新莊區"
"242017","348-TH","2017/06/12 17:39:23","新北市新莊區復興路一段149巷21弄23號","121.448936666667","25.0438816666667","6500500","新莊區"
"242053","349-TH","2017/06/12 17:39:25","新北市新莊區新樹路699巷9號","121.43257","25.001845","6500500","新莊區"
"242015","350-TH","2017/06/12 17:39:32","新北市新莊區新泰路305巷1號","121.44537","25.0409666666667","6500500","新莊區"
"242009","351-TH","2017/06/12 17:39:35","新北市新莊區昌明街14巷7弄16號","121.456758333333","25.053495","6500500","新莊區"
"238015","755-BX","2017/06/12 17:39:21","新北市樹林區啟智街16號","121.421078333333","24.9938633333333","6500700","樹林區"
"238023","601-UM","2017/06/12 17:39:27","新北市樹林區三福街114號","121.406456666667","25.0163616666667","6500700","樹林區"
"238019","599-UM","2017/06/12 17:39:29","新北市樹林區太平路127巷10號","121.419726666667","24.980655","6500700","樹林區"
"238018","571-TV","2017/06/12 17:39:32","新北市樹林區鎮前街143號","121.424218333333","24.9888983333333","6500700","樹林區"
"238024","5061-A6","2017/06/12 17:39:12","新北市樹林區忠孝街67巷40號","121.425181666667","24.9818966666667","6500700","樹林區"
"238022","312-TH","2017/06/12 17:39:30","新北市樹林區和平街2巷18號","121.42106","24.9810316666667","6500700","樹林區"
"238021","311-TH","2017/06/12 17:20:32","新北市樹林區西圳街一段165巷2號","121.395361666667","24.9620333333333","6500700","樹林區"
"238025","303-VK","2017/06/12 17:39:18","新北市樹林區保安街二段48號","121.41535","25.00205","6500700","樹林區"
"238017","283-BY","2017/06/12 17:39:19","新北市樹林區三俊街74巷47號","121.414303333333","25.0130966666667","6500700","樹林區"
"238014","282-BY","2017/06/12 17:39:23","新北市樹林區保安街一段243號","121.419771666667","24.996315","6500700","樹林區"
"238020","268-VK","2017/06/12 17:39:33","新北市樹林區俊英街116巷41弄3號","121.428561666667","25.0060866666667","6500700","樹林區"
"238026","172-UY","2017/06/12 17:39:25","新北市樹林區新興街17號","121.400115","24.9727533333333","6500700","樹林區"
"238016","169-UY","2017/06/12 17:39:32","新北市樹林區育英街61號","121.42066","24.98923","6500700","樹林區"
"239007","AAC-297","2017/06/12 17:39:24","新北市鶯歌區鶯桃路182巷12號","121.337201666667","24.9558366666667","6500800","鶯歌區"
"239006","891-R6","2017/06/12 17:39:33","新北市鶯歌區鶯桃路501號","121.33158","24.9665483333333","6500800","鶯歌區"
"239008","527-UM","2017/06/12 17:39:33","桃園市龜山區宏德司法新村4號","121.331215","24.9793633333333","6500800","鶯歌區"
"239005","526-UM","2017/06/12 17:39:21","新北市鶯歌區福隆二街15號","121.3252","24.9719016666667","6500800","鶯歌區"
"239001","417-VK","2017/06/12 17:39:24","新北市鶯歌區中正三路228號","121.33125","24.93743","6500800","鶯歌區"
"239003","360-BY","2017/06/12 17:39:26","新北市鶯歌區鶯桃路206巷16號","121.33762","24.959485","6500800","鶯歌區"
"239002","359-BY","2017/06/12 17:39:21","新北市鶯歌區育智路22號","121.344901666667","24.9551833333333","6500800","鶯歌區"
"239004","193-VK","2017/06/12 17:39:35","新北市鶯歌區三鶯路80號","121.35801","24.9429116666667","6500800","鶯歌區"
"221010","269-BY","2017/06/12 17:39:25","新北市汐止區汐萬路一段418巷1弄1號","121.650593333333","25.0781683333333","6501100","汐止區"
"221023","279-VK","2017/06/12 02:59:25","新北市汐止區汐萬路一段256巷1號","121.651721666667","25.0748716666667","6501100","汐止區"
"221033","647-BX","2017/06/12 17:39:28","新北市汐止區中興路60號","121.635668333333","25.0614966666667","6501100","汐止區"
"221018","753-BX","2017/06/12 17:39:20","新北市汐止區大同路二段341-1號","121.656088333333","25.0672183333333","6501100","汐止區"
"220088","145-RM","2017/06/12 02:21:48","新北市板橋區溪城路90-2號","121.429076666667","24.9801366666667","6500100","板橋區"
