"lineid","car","time","location","longitude","latitude","cityid","cityname"
"234046","148-BY","2017/06/12 19:29:25","新北市永和區永元路33號","121.522141666667","25.0010016666667","6500400","永和區"
"234013","149-BY","2017/06/12 19:29:34","新北市永和區中山路一段207號","121.50886","25.0085033333333","6500400","永和區"
"234007","207-UY","2017/06/12 19:29:20","新北市永和區永和路一段116號","121.513761666667","25.0076016666667","6500400","永和區"
"234081","298-R6","2017/06/12 19:29:17","新北市永和區林森路10巷35號","121.525808333333","25.0063383333333","6500400","永和區"
"234038","336-UY","2017/06/12 19:29:22","新北市永和區成功路二段1巷12號","121.527515","25.0013566666667","6500400","永和區"
"234064","337-UY","2017/06/12 19:29:26","新北市永和區中正路368巷1弄88號","121.52056","25.0007616666667","6500400","永和區"
"234086","338-UY","2017/06/12 19:29:24","新北市永和區林森路39巷2-1號","121.525236666667","25.0046766666667","6500400","永和區"
"234070","552-UM","2017/06/12 19:29:30","新北市永和區竹林路89號","121.519651666667","25.01218","6500400","永和區"
"234054","553-UM","2017/06/12 19:29:22","新北市永和區復興街21號","121.516146666667","25.0130683333333","6500400","永和區"
"234017","745-BX","2017/06/12 19:29:15","新北市永和區環河西路一段61號","121.513441666667","25.018185","6500400","永和區"
"234030","746-BX","2017/06/12 19:29:33","新北市永和區民權路1巷38號","121.522078333333","24.998185","6500400","永和區"
"234061","AAD-866","2017/06/12 19:29:28","新北市永和區中正路514號","121.51728","25.004715","6500400","永和區"
"234042","862-TW","2017/06/12 19:29:21","新北市永和區中和路591號","121.512193333333","25.0040066666667","6500400","永和區"
"234050","863-TW","2017/06/12 19:29:30","新北市永和區仁愛路88號","121.512493333333","25.0133","6500400","永和區"
"234026","9371-KE","2017/06/12 19:29:19","新北市永和區安樂路144巷6號","121.514608333333","25.00008","6500400","永和區"
"234011","9373-KE","2017/06/12 19:29:25","新北市永和區保福路二段163巷14號","121.508735","25.01465","6500400","永和區"
"249003","593-UM","2017/06/12 19:29:31","新北市八里區商港六路55號","121.396236666667","25.1492183333333","6502300","八里區"
"248014","025-BX","2017/06/12 19:29:34","新北市五股區民義路一段163-2號","121.432065","25.0878283333333","6501500","五股區"
"248008","095-VK","2017/06/12 19:29:15","新北市五股區中興路一段103號","121.46649","25.0730716666667","6501500","五股區"
"248018","225-UY","2017/06/12 19:29:18","新北市五股區民義路二段17號","121.420888333333","25.0964316666667","6501500","五股區"
"248012","247-BX","2017/06/12 19:19:54","新北市五股區中興路四段48巷19號","121.438556666667","25.08378","6501500","五股區"
"248016","261-SL","2017/06/12 19:29:32","新北市五股區成洲五路12號","121.452416666667","25.1015933333333","6501500","五股區"
"248010","272-BY","2017/06/12 19:29:24","新北市五股區自強路90巷72號","121.430825","25.071385","6501500","五股區"
"248004","677-BX","2017/06/12 19:29:31","新北市五股區五福路39號","121.433405","25.0894966666667","6501500","五股區"
"248002","678-BX","2017/06/12 19:29:32","新北市五股區凌雲路一段158巷26號","121.44784","25.1036516666667","6501500","五股區"
"234023","9380-KE","2017/06/12 19:29:27","新北市永和區竹林路91巷47弄1號","121.521216666667","25.01282","6500400","永和區"
"234077","969-R7","2017/06/12 19:29:29","新北市永和區民治街39號","121.519195","24.9977366666667","6500400","永和區"
"234074","AAC-211","2017/06/12 19:29:31","新北市永和區環河東路一段120號","121.520433333333","25.01575","6500400","永和區"
"234067","AAC-212","2017/06/12 19:29:35","新北市永和區永貞路378巷27號","121.510346666667","25.0078533333333","6500400","永和區"
"234003","AAC-295","2017/06/12 19:27:20","新北市永和區永和路一段204號","121.514365","25.0093083333333","6500400","永和區"
"244013","069-UM","2017/06/12 19:29:26","新北市林口區麗園一街9巷1號","121.376571666667","25.0712583333333","6501700","林口區"
"244019","403-UM","2017/06/12 19:29:21","新北市林口區麗園二街3巷2-3號","121.378355","25.0695133333333","6501700","林口區"
"244023","483-VK","2017/06/12 19:29:32","新北市林口區文化北路二段376號","121.374703333333","25.0880316666667","6501700","林口區"
"244025","837-TS","2017/06/12 19:27:10","新北市林口區寶斗厝坑67-5號","121.338511666667","25.111375","6501700","林口區"
"243013","AAD-798","2017/06/12 19:29:26","新北市泰山區明志路三段145巷36弄1號","121.426653333333","25.0393066666667","6501600","泰山區"
"243009","297-R6","2017/06/12 19:29:19","新北市五股區成泰路一段7巷56號","121.431996666667","25.0673283333333","6501600","泰山區"
"243015","380-SR","2017/06/12 19:29:25","新北市泰山區明志路二段81號","121.428913333333","25.052225","6501600","泰山區"
"243014","421-VK","2017/06/12 19:29:19","新北市泰山區泰林路二段33-8號","121.435126666667","25.0564","6501600","泰山區"
"243010","548-UM","2017/06/12 19:29:25","新北市泰山區民生路17巷62號","121.429141666667","25.0510183333333","6501600","泰山區"
"243011","549-UM","2017/06/12 19:29:31","新北市泰山區中山路二段567號","121.429671666667","25.0401666666667","6501600","泰山區"
"243012","646-TV","2017/06/12 19:29:21","新北市泰山區明志路一段501巷17號","121.43133","25.054615","6501600","泰山區"
"243016","680-BX","2017/06/12 19:29:22","新北市泰山區明志路三段196巷21弄33號","121.422331666667","25.0379416666667","6501600","泰山區"
"222003","436-BY","2017/06/12 19:29:28","新北市深坑區深南路150號","121.623533333333","25.0148666666667","6501800","深坑區"
"222002","659-BX","2017/06/12 19:29:19","新北市深坑區北深路一段177號","121.632513333333","25.0109016666667","6501800","深坑區"
"222001","696-SL","2017/06/12 19:29:31","新北市深坑區深坑街10號","121.61586","25.00285","6501800","深坑區"
"231041","002-UM","2017/06/12 19:29:36","新北市新店區中正路682號","121.534195","24.9899533333333","6500600","新店區"
"231059","046-UY","2017/06/12 19:29:19","新北市新店區安和路三段83號","121.517916666667","24.9838533333333","6500600","新店區"
"231060","106-UY","2017/06/12 19:29:26","新北市新店區安和路一段2-2號","121.517056666667","24.9645566666667","6500600","新店區"
"231051","107-UY","2017/06/12 19:29:30","新北市新店區中央五街22-1號","121.5292","24.974465","6500600","新店區"
"231047","108-UY","2017/06/12 19:29:29","新北市新店區中興路一段282-4號","121.546355","24.9683216666667","6500600","新店區"
"231052","187-VK","2017/06/12 19:29:30","新北市新店區屈尺路36號","121.54827","24.9226216666667","6500600","新店區"
"231057","256-BX","2017/06/12 19:29:31","新北市新店區花園一路二段15號","121.550783333333","24.9334516666667","6500600","新店區"
"231063","268-BY","2017/06/12 19:29:30","新北市新店區達觀路16號","121.503321666667","24.9409433333333","6500600","新店區"
"231046","278-BY","2017/06/12 19:29:35","新北市新店區環河路29巷1號","121.536978333333","24.9613133333333","6500600","新店區"
"231050","AAD-862","2017/06/12 19:29:02","新北市新店區秀水路31號","121.554925","24.9551683333333","6500600","新店區"
"231058","3712-VJ","2017/06/12 19:29:18","新北市新店區北新路二段228巷13號","121.543483333333","24.9772","6500600","新店區"
"231067","4772-VM","2017/06/12 19:25:57","新北市新店區安康路二段320巷6號","121.505248333333","24.9600583333333","6500600","新店區"
"231065","512-UM","2017/06/12 19:29:20","新北市新店區安祥路109巷1弄27號","121.476593333333","24.960015","6500600","新店區"
"231054","513-UM","2017/06/12 19:29:28","新北市新店區文中路40-6號","121.53981","24.95656","6500600","新店區"
"231064","515-UM","2017/06/12 19:29:29","新北市新店區安忠路57巷11弄1號","121.513593333333","24.9580433333333","6500600","新店區"
"231061","618-UM","2017/06/12 19:29:31","新北市新店區安康路一段133號","121.527971666667","24.9618616666667","6500600","新店區"
"231040","619-UM","2017/06/12 19:29:29","新北市新店區中華路12-1號","121.540761666667","24.9674216666667","6500600","新店區"
"231042","641-BX","2017/06/12 19:29:23","新北市新店區中興路一段88號","121.539886666667","24.960345","6500600","新店區"
"231049","719-UM","2017/06/12 19:29:25","新北市新店區北新路三段95巷12號","121.540738333333","24.9818533333333","6500600","新店區"
"231062","720-UM","2017/06/12 19:29:18","新北市新店區莒光路4號","121.527501666667","24.9615733333333","6500600","新店區"
"231044","897-TW","2017/06/12 19:29:32","新北市新店區中興路三段226號","121.543553333333","24.9831316666667","6500600","新店區"
"231045","898-TW","2017/06/12 19:29:24","新北市新店區北宜路二段209號","121.55318","24.9533116666667","6500600","新店區"
"231043","899-TW","2017/06/12 19:29:30","新北市新店區北新路二段183號","121.542725","24.9773733333333","6500600","新店區"
"231066","AKT-0513","2017/06/12 19:29:28","新北市新店區安康路三段207巷24號","121.4883","24.9506916666667","6500600","新店區"
"241008","059-VK","2017/06/12 19:29:27","新北市三重區永福街135巷32弄7號","121.47699","25.0771566666667","6500200","三重區"
"241009","060-VK","2017/06/12 19:29:20","新北市三重區溪尾街242巷72號","121.486065","25.0813833333333","6500200","三重區"
"241031","061-VK","2017/06/12 19:29:19","新北市三重區集美街100號","121.48854","25.0541116666667","6500200","三重區"
"241017","063-VK","2017/06/12 19:29:32","新北市三重區大仁街59號","121.493653333333","25.066","6500200","三重區"
"241026","066-VK","2017/06/12 19:29:17","新北市三重區文化南路47巷30號","121.499221666667","25.061075","6500200","三重區"
"241028","265-UM","2017/06/12 19:29:33","新北市三重區中寮街71號","121.493383333333","25.0578483333333","6500200","三重區"
"241022","267-UM","2017/06/12 19:29:19","新北市三重區三民街151號","121.484195","25.0641733333333","6500200","三重區"
"241013","270-UM","2017/06/12 19:29:22","新北市三重區仁愛街101號","121.49569","25.0739216666667","6500200","三重區"
"241025","271-UM","2017/06/12 19:29:29","新北市三重區頂崁街210巷28弄3號","121.475853333333","25.0676766666667","6500200","三重區"
"241007","398-BY","2017/06/12 19:29:32","新北市三重區溪尾街154號","121.488923333333","25.080005","6500200","三重區"
"241020","412-TH","2017/06/12 19:29:33","新北市三重區三和路四段32巷81號","121.488955","25.07374","6500200","三重區"
"241030","480-VK","2017/06/12 19:29:27","新北市三重區成功路41巷22號","121.490476666667","25.0518783333333","6500200","三重區"
"241023","545-UM","2017/06/12 19:29:22","新北市三重區頂崁街99號","121.47802","25.0638266666667","6500200","三重區"
"241006","AAD-863","2017/06/12 19:29:29","新北市三重區聯華街140號","121.484448333333","25.0748566666667","6500200","三重區"
"241035","743-BX","2017/06/12 19:29:18","新北市三重區信義西街1號","121.498183333333","25.0647983333333","6500200","三重區"
"241029","942-UM","2017/06/12 19:27:27","新北市三重區中正南路260-1號","121.493203333333","25.05307","6500200","三重區"
"235066","003-UY","2017/06/12 19:29:29","新北市中和區中和路110號","121.502886666667","24.9995666666667","6500300","中和區"
"235064","005-UY","2017/06/12 19:29:20","新北市中和區泰和街2號","121.499926666667","25.0013716666667","6500300","中和區"
"235063","006-UY","2017/06/12 19:29:29","新北市中和區連勝街121巷8號","121.494886666667","24.9947616666667","6500300","中和區"
"235056","096-UM","2017/06/12 19:29:33","新北市中和區民富街54號","121.476655","25.0072266666667","6500300","中和區"
"235039","097-UM","2017/06/12 19:29:33","新北市中和區景平路4號","121.524441666667","24.99052","6500300","中和區"
"235065","098-UM","2017/06/12 19:29:16","新北市中和區中山路二段64巷3號","121.503658333333","25.0049166666667","6500300","中和區"
"235040","150-BY","2017/06/12 19:29:21","新北市中和區景安路79巷50號","121.50779","24.99576","6500300","中和區"
"235058","151-BY","2017/06/12 19:29:19","新北市中和區連城路523巷13弄12號","121.481961666667","24.9938133333333","6500300","中和區"
"235055","183-VK","2017/06/12 19:29:22","新北市中和區德光路12號","121.471371666667","25.0045483333333","6500300","中和區"
"235038","185-VK","2017/06/12 19:29:32","新北市中和區大仁街20巷36號","121.519448333333","24.9931983333333","6500300","中和區"
"235049","186-VK","2017/06/12 19:29:36","新北市中和區景新街264號","121.509921666667","24.9931","6500300","中和區"
"235067","255-BX","2017/06/12 19:29:27","新北市中和區中正路752號","121.485326666667","24.9988866666667","6500300","中和區"
"235044","293-VK","2017/06/12 19:29:17","新北市中和區中興街266巷2號","121.498533333333","24.9874666666667","6500300","中和區"
"235072","301-VK","2017/06/12 19:29:24","新北市中和區連城路263巷4弄6號","121.491703333333","24.9956933333333","6500300","中和區"
"235043","352-BY","2017/06/12 19:29:26","新北市中和區景平路476號","121.50533","24.99349","6500300","中和區"
"235051","376-QA","2017/06/12 19:29:20","新北市中和區景平路235號","121.510198333333","24.9928083333333","6500300","中和區"
"235068","377-QA","2017/06/12 19:27:29","新北市中和區連勝街42號","121.497973333333","24.9975716666667","6500300","中和區"
"235061","378-QA","2017/06/12 19:29:17","新北市中和區連城路456巷9號","121.478693333333","24.99525","6500300","中和區"
"235050","4979-A6","2017/06/12 19:29:23","新北市中和區中正路436號","121.491138333333","24.99372","6500300","中和區"
"235042","551-UM","2017/06/12 19:29:29","新北市中和區安樂路217巷35弄7號","121.513916666667","24.9978433333333","6500300","中和區"
"235070","558-UM","2017/06/12 19:26:00","新北市中和區枋寮街75號","121.50083","25.0011066666667","6500300","中和區"
"235045","565-BX","2017/06/12 19:29:33","新北市中和區景新街423巷33弄1號","121.513841666667","24.9898266666667","6500300","中和區"
"235054","640-BX","2017/06/12 19:29:17","新北市中和區國光街107巷2弄24號","121.46963","24.9994766666667","6500300","中和區"
"235060","647-TV","2017/06/12 19:29:19","新北市中和區員山路467號","121.48036","25.0045","6500300","中和區"
"235047","732-UM","2017/06/12 19:08:11","新北市中和區興南路二段34巷75號","121.505115","24.9849516666667","6500300","中和區"
"235046","733-UM","2017/06/12 19:29:34","新北市中和區忠孝街37巷30號","121.510848333333","24.984235","6500300","中和區"
"235071","783-BX","2017/06/12 19:29:29","新北市中和區連城路467-4號","121.483736666667","24.9961116666667","6500300","中和區"
"235057","801-TS","2017/06/12 19:29:33","新北市中和區員山路389號","121.48122","25.0027633333333","6500300","中和區"
"235052","805-TS","2017/06/12 19:29:21","新北市中和區華新街143巷57號","121.506386666667","24.9798783333333","6500300","中和區"
"235048","896-TW","2017/06/12 19:29:29","新北市中和區景新街487號","121.513658333333","24.9873916666667","6500300","中和區"
"235053","900-TW","2017/06/12 19:29:17","新北市中和區華安街17巷43號","121.46797","24.9984366666667","6500300","中和區"
"235041","157-BY","2017/06/12 19:29:23","新北市中和區中和路248號","121.507255","24.9995883333333","6500300","中和區"
"235037","AAC-213","2017/06/12 19:29:35","新北市中和區秀朗路三段128巷38弄1號","121.52475","24.9941016666667","6500300","中和區"
"235059","AAC-215","2017/06/12 19:29:30","新北市中和區圓通路252巷6-2號","121.492831666667","24.9918916666667","6500300","中和區"
"220068","013-TV","2017/06/12 19:29:36","新北市板橋區萬安街96號","121.483846666667","25.0241033333333","6500100","板橋區"
"220065","072-UY","2017/06/12 19:29:22","新北市板橋區民族路170巷3號","121.46748","25.00749","6500100","板橋區"
"220086","073-UY","2017/06/12 19:29:35","新北市板橋區幸福路70巷1號","121.460653333333","25.0199683333333","6500100","板橋區"
"220106","075-UY","2017/06/12 19:29:34","新北市板橋區長江路三段58號","121.473533333333","25.0339366666667","6500100","板橋區"
"220096","120-SR","2017/06/12 19:29:22","新北市板橋區大同街55號","121.478661666667","25.027495","6500100","板橋區"
"247006","341-TH","2017/06/12 19:29:26","新北市五股區中興路三段163號","121.449255","25.0809","6501400","蘆洲區"
"247002","336-TH","2017/06/12 19:29:21","新北市五股區中興路三段163號","121.449225","25.0809283333333","6501400","蘆洲區"
"247014","057-VK","2017/06/12 19:29:34","新北市蘆洲區復興路11號","121.472053333333","25.085335","6501400","蘆洲區"
"247004","056-VK","2017/06/12 19:29:36","新北市蘆洲區長安街216號","121.458443333333","25.0842616666667","6501400","蘆洲區"
"247022","002-UY","2017/06/12 18:44:29","新北市五股區中興路三段163號","121.449315","25.08063","6501400","蘆洲區"
"226004","312-R5","2017/06/12 19:29:22","新北市平溪區靜安路三段388號","121.781695","25.0483016666667","6502400","平溪區"
"228003","097-TW","2017/06/12 19:29:25","新北市貢寮區和美里和美街22-1號","121.912776666667","25.082645","6502600","貢寮區"
"228002","585-TW","2017/06/12 19:29:23","新北市貢寮區龍門里龍門街78號","121.931018333333","25.0266266666667","6502600","貢寮區"
"228001","670-TC","2017/06/12 19:29:25","新北市貢寮區真理里大澳街60號","121.925496666667","25.05679","6502600","貢寮區"
"224006","676-BX","2017/06/12 19:29:28","新北市瑞芳區三爪子坑路106巷1-11號","121.80821","25.1051433333333","6501200","瑞芳區"
"224011","420-VK","2017/06/12 19:29:29","新北市瑞芳區崙頂路1-6號","121.84716","25.1047833333333","6501200","瑞芳區"
"224008","275-VK","2017/06/12 19:29:25","新北市瑞芳區一坑路205號","121.801563333333","25.1090833333333","6501200","瑞芳區"
"224005","271-BY","2017/06/12 19:29:22","新北市瑞芳區蛇子形路5號","121.825175","25.1043633333333","6501200","瑞芳區"
"227001","642-TC","2017/06/12 19:29:33","新北市雙溪區雙溪里光復街18號","121.86515","25.0354166666667","6502500","雙溪區"
"227008","400-TW","2017/06/12 19:29:31","新北市雙溪區新基里新基北街43號","121.868205","25.0397133333333","6502500","雙溪區"
"253006","032-BX","2017/06/12 19:29:33","新北市石門區楓林23-10號","121.538706666667","25.2911316666667","6502200","石門區"
"253005","295-VK","2017/06/12 19:29:17","新北市石門區小坑12-8號","121.595398333333","25.2850083333333","6502200","石門區"
"208001","742-BX","2017/06/12 19:29:27","新北市金山區中正路73號","121.633835","25.2217683333333","6502700","金山區"
"208003","665-BX","2017/06/12 19:29:25","新北市金山區中山路263巷10號","121.636326666667","25.2216","6502700","金山區"
"251009","008-UM","2017/06/12 19:16:25","新北市淡水區中山路129巷23號","121.441598333333","25.1703466666667","6501000","淡水區"
"251007","179-VK","2017/06/12 19:29:33","新北市淡水區中正東路一段111巷27-1號","121.455515","25.160735","6501000","淡水區"
"251008","181-VK","2017/06/12 19:29:33","新北市淡水區中正路二段31號","121.419176666667","25.181905","6501000","淡水區"
"251013","182-VK","2017/06/12 19:29:30","新北市淡水區店子後9號","121.459993333333","25.2184766666667","6501000","淡水區"
"251010","413-VK","2017/06/12 19:29:35","新北市淡水區中正路二段138-6號","121.42184","25.18744","6501000","淡水區"
"251015","442-VK","2017/06/12 19:29:31","新北市淡水區北新路三段38巷7號","121.484518333333","25.187005","6501000","淡水區"
"251005","443-VK","2017/06/12 19:29:30","新北市淡水區水源街一段47巷22號","121.44399","25.1730633333333","6501000","淡水區"
"251001","559-UM","2017/06/12 19:29:32","新北市淡水區中正東路二段87-3號","121.459463333333","25.152815","6501000","淡水區"
"251006","561-UM","2017/06/12 19:29:28","新北市淡水區大義街36號","121.442236666667","25.17835","6501000","淡水區"
"251011","650-BX","2017/06/12 19:29:29","新北市淡水區中正東路二段143巷2弄1號","121.460676666667","25.1471083333333","6501000","淡水區"
"251003","766-UM","2017/06/12 19:29:29","新北市淡水區中山北路三段116號","121.443761666667","25.193505","6501000","淡水區"
"207003","550-UM","2017/06/12 19:29:30","新北市萬里區大鵬里萬里加投209號","121.644248333333","25.215485","6502800","萬里區"
"207004","225-TW","2017/06/12 19:29:14","新北市萬里區萬里里瑪鋉路85-2號","121.688666666667","25.1771883333333","6502800","萬里區"
"252002","178-VK","2017/06/12 19:29:31","新北市三芝區淡金路二段18-1號","121.502696666667","25.2595116666667","6502100","三芝區"
"252001","292-VK","2017/06/12 19:29:16","新北市三芝區長勤街37巷14號","121.501036666667","25.2551616666667","6502100","三芝區"
"208002","170-UY","2017/06/12 19:29:29","新北市金山區仁愛路57號","121.63541","25.220805","6502700","金山區"
"237004","078-UY","2017/06/12 19:29:31","新北市三峽區有木108-2號","121.433295","24.8619633333333","6500900","三峽區"
"237007","153-BY","2017/06/12 19:29:24","新北市三峽區二鬮路178號","121.359101666667","24.9068716666667","6500900","三峽區"
"237009","210-TH","2017/06/12 19:29:17","新北市三峽區中山路22號","121.369286666667","24.9343733333333","6500900","三峽區"
"237013","252-BX","2017/06/12 19:29:34","新北市三峽區介壽路一段276巷88弄7號","121.37943","24.9286566666667","6500900","三峽區"
"237012","275-BY","2017/06/12 19:29:30","新北市三峽區三樹路98巷171號","121.384608333333","24.9398183333333","6500900","三峽區"
"237008","302-VK","2017/06/12 19:29:28","新北市三峽區大同路154號","121.373131666667","24.9268233333333","6500900","三峽區"
"237014","433-BY","2017/06/12 19:29:18","新北市三峽區中山路63巷8號","121.36693","24.934335","6500900","三峽區"
"237006","5529-G3","2017/06/12 19:29:31","新北市三峽區大同路90號","121.375701666667","24.9276466666667","6500900","三峽區"
"237011","572-TV","2017/06/12 19:29:23","新北市三峽區中正路一段290-1號","121.371598333333","24.9259033333333","6500900","三峽區"
"237015","649-BX","2017/06/12 19:29:34","新北市三峽區成福路294號","121.42869","24.92336","6500900","三峽區"
"237010","706-TV","2017/06/12 19:29:15","新北市三峽區復興路36-4號","121.373953333333","24.936505","6500900","三峽區"
"237005","AKY-6261","2017/06/12 19:29:28","新北市三峽區復興路367巷1弄19號","121.364165","24.9379633333333","6500900","三峽區"
"236069","105-UM","2017/06/12 19:29:19","新北市土城區學府路一段129巷2號","121.454221666667","24.9862283333333","6501300","土城區"
"236042","107-UM","2017/06/12 19:29:16","新北市土城區學府路一段276號","121.45002","24.982965","6501300","土城區"
"236078","166-UM","2017/06/12 19:29:27","新北市土城區中州路3巷11弄4號","121.414005","24.9568633333333","6501300","土城區"
"236026","269-VK","2017/06/12 19:29:30","新北市土城區中央路二段61巷22號","121.443205","24.97878","6501300","土城區"
"236014","270-VK","2017/06/12 19:29:33","新北市土城區廣福街123號","121.45627","24.99282","6501300","土城區"
"236020","401-BY","2017/06/12 19:29:27","新北市土城區峰廷街3號","121.469205","24.9873383333333","6501300","土城區"
"236058","912-UM","2017/06/12 19:29:24","新北市土城區中央路二段252號","121.441775","24.974625","6501300","土城區"
"236048","913-UM","2017/06/12 19:29:30","新北市土城區清水路175號","121.459456666667","24.981495","6501300","土城區"
"242034","413-TV","2017/06/12 19:29:29","新北市新莊區中環路一段287號","121.442018333333","25.0319583333333","6500500","新莊區"
"242031","346-TH","2017/06/12 19:29:17","新北市新莊區新泰路225巷9號","121.445953333333","25.039105","6500500","新莊區"
"238015","755-BX","2017/06/12 19:29:25","新北市樹林區復興路382號","121.415118333333","24.9854266666667","6500700","樹林區"
"238023","601-UM","2017/06/12 19:29:33","新北市樹林區三興路68號","121.393571666667","25.01452","6500700","樹林區"
"238019","599-UM","2017/06/12 19:29:29","新北市樹林區大同街15號","121.418371666667","24.9826666666667","6500700","樹林區"
"238018","571-TV","2017/06/12 19:29:31","新北市樹林區中華路213號","121.419651666667","24.9813783333333","6500700","樹林區"
"238022","312-TH","2017/06/12 19:29:25","新北市樹林區國凱街70號","121.420803333333","24.9790966666667","6500700","樹林區"
"238021","311-TH","2017/06/12 19:29:32","新北市樹林區柑園街二段386巷1號","121.367596666667","24.948985","6500700","樹林區"
"238025","303-VK","2017/06/12 19:29:18","新北市樹林區中山路二段209號","121.403536666667","24.9768683333333","6500700","樹林區"
"238017","283-BY","2017/06/12 19:29:27","新北市樹林區光興街155巷8號","121.407493333333","25.0035183333333","6500700","樹林區"
"238014","282-BY","2017/06/12 19:29:28","新北市樹林區保安二街12號","121.425053333333","24.9939","6500700","樹林區"
"238020","268-VK","2017/06/12 19:29:33","新北市樹林區俊英街133巷34號","121.423018333333","25.0109883333333","6500700","樹林區"
"238026","172-UY","2017/06/12 19:29:32","新北市樹林區佳園路二段138號","121.38934","24.9560966666667","6500700","樹林區"
"238016","169-UY","2017/06/12 19:29:32","新北市樹林區復興路420號","121.414201666667","24.9846116666667","6500700","樹林區"
"239006","891-R6","2017/06/12 19:29:33","新北市鶯歌區鶯桃路91巷42弄2號","121.336873333333","24.9520833333333","6500800","鶯歌區"
"239008","527-UM","2017/06/12 19:29:32","新北市鶯歌區大湖路530巷2-1號","121.337523333333","24.972885","6500800","鶯歌區"
"239005","526-UM","2017/06/12 19:29:24","新北市鶯歌區中湖街301巷1號","121.34812","24.9771483333333","6500800","鶯歌區"
"239001","417-VK","2017/06/12 19:29:24","新北市鶯歌區鶯桃路95巷76號","121.337176666667","24.952845","6500800","鶯歌區"
"239003","360-BY","2017/06/12 19:29:25","新北市鶯歌區建國路278號","121.346751666667","24.9533783333333","6500800","鶯歌區"
"239007","292-BY","2017/06/12 19:29:32","新北市鶯歌區中山路138巷19號","121.351581666667","24.960125","6500800","鶯歌區"
"239004","193-VK","2017/06/12 19:29:35","新北市鶯歌區鶯華新村2號","121.329915","24.9349683333333","6500800","鶯歌區"
"221036","130-UY","2017/06/12 19:29:23","新北市汐止區康寧街901號","121.651745","25.0749433333333","6501100","汐止區"
"221015","131-UY","2017/06/12 19:29:19","新北市汐止區康寧街901號","121.651593333333","25.07498","6501100","汐止區"
"221010","269-BY","2017/06/12 19:29:24","新北市汐止區康寧街901號","121.651286666667","25.0750516666667","6501100","汐止區"
"221012","278-VK","2017/06/12 19:29:24","新北市汐止區大同路三段279號","121.674808333333","25.0758333333333","6501100","汐止區"
"221023","279-VK","2017/06/12 19:29:16","新北市汐止區康寧街582號","121.635258333333","25.0697683333333","6501100","汐止區"
"221027","281-BY","2017/06/12 19:29:31","新北市汐止區汐萬路一段37號","121.655648333333","25.0680983333333","6501100","汐止區"
"221029","298-VK","2017/06/12 19:29:25","新北市汐止區康寧街901號","121.651483333333","25.0749616666667","6501100","汐止區"
"221021","299-VK","2017/06/12 19:14:55","新北市汐止區康寧街901號","121.651028333333","25.0750233333333","6501100","汐止區"
"221025","623-UM","2017/06/12 19:29:25","新北市汐止區新台五路二段2號","121.660091666667","25.0649416666667","6501100","汐止區"
"221033","647-BX","2017/06/12 19:29:28","新北市汐止區南勢街1巷1號","121.627083333333","25.0375","6501100","汐止區"
"221002","707-TV","2017/06/12 19:29:26","新北市汐止區大同路一段337巷17弄1號","121.637351666667","25.0598633333333","6501100","汐止區"
"221018","753-BX","2017/06/12 19:29:20","新北市汐止區康寧街901號","121.651455","25.0749916666667","6501100","汐止區"
"220079","145-BY","2017/06/12 19:29:27","新北市板橋區民權路202巷15弄26號","121.459753333333","25.01616","6500100","板橋區"
"220088","145-RM","2017/06/12 02:21:48","新北市板橋區溪城路90-2號","121.429076666667","24.9801366666667","6500100","板橋區"
"220082","610-BX","2017/06/12 19:29:26","新北市板橋區篤行路三段99號","121.42626","24.9846283333333","6500100","板橋區"
"220101","245-BX","2017/06/12 19:29:31","新北市板橋區雙十路一段1號","121.478261666667","25.0239016666667","6500100","板橋區"
"220069","258-TC","2017/06/12 19:29:19","新北市板橋區華興街29號","121.458391666667","25.004495","6500100","板橋區"
"220094","267-BY","2017/06/12 19:29:25","新北市板橋區吳鳳路17巷9號","121.467686666667","25.029925","6500100","板橋區"
"220072","277-BY","2017/06/12 19:29:15","新北市板橋區金門街337巷7弄1號","121.430216666667","24.9848583333333","6500100","板橋區"
"220064","280-UM","2017/06/12 19:29:30","新北市板橋區館前東路1號","121.459456666667","25.007145","6500100","板橋區"
"220071","283-VK","2017/06/12 19:29:25","新北市板橋區重慶路269巷49號","121.464785","24.9989016666667","6500100","板橋區"
"220091","285-UM","2017/06/12 19:29:20","新北市板橋區文聖街70號","121.47728","25.030355","6500100","板橋區"
"220053","285-VK","2017/06/12 19:29:28","新北市板橋區永豐街96-2號","121.475801666667","25.0204466666667","6500100","板橋區"
"220083","286-VK","2017/06/12 19:29:26","新北市板橋區大觀路二段174巷166弄8號","121.44216","25.0031366666667","6500100","板橋區"
"220081","287-VK","2017/06/12 19:29:37","新北市板橋區南雅西路一段62號","121.45371","25.0050783333333","6500100","板橋區"
"220090","288-VK","2017/06/12 19:29:23","新北市板橋區長江路一段106巷20弄11號","121.460133333333","25.028205","6500100","板橋區"
"220061","293-UM","2017/06/12 19:29:23","新北市板橋區中山路二段257號","121.477276666667","25.0177766666667","6500100","板橋區"
"220084","296-UM","2017/06/12 19:29:19","新北市板橋區滿平街136巷8弄11號","121.427378333333","24.987575","6500100","板橋區"
"220075","297-UM","2017/06/12 19:29:24","新北市板橋區南雅西路一段61號","121.453491666667","25.0054233333333","6500100","板橋區"
"220097","299-UM","2017/06/12 19:29:33","新北市板橋區陽明街239號","121.463146666667","25.0245116666667","6500100","板橋區"
"220056","303-R5","2017/06/12 19:29:24","新北市板橋區干城路157號","121.460571666667","24.992285","6500100","板橋區"
"220062","305-R5","2017/06/12 19:28:16","新北市板橋區三民路二段153巷30弄6號","121.48069","25.0148366666667","6500100","板橋區"
"220092","307-R5","2017/06/12 19:29:22","新北市板橋區文化路二段225巷29號","121.469523333333","25.0279866666667","6500100","板橋區"
"220098","317-R6","2017/06/12 19:29:28","新北市板橋區民有街114號","121.464403333333","25.028485","6500100","板橋區"
"220080","461-BY","2017/06/12 19:29:27","新北市板橋區大觀路二段3巷67號","121.449643333333","25.0034116666667","6500100","板橋區"
"220089","487-VK","2017/06/12 19:29:36","新北市板橋區文化路一段102號","121.46456","25.0180966666667","6500100","板橋區"
"220088","491-VK","2017/06/12 19:28:52","新北市板橋區雙十路二段149號","121.474721666667","25.028105","6500100","板橋區"
"220035","560-BX","2017/06/12 19:29:28","新北市板橋區中正路399巷13弄2號","121.45313","25.02262","6500100","板橋區"
"220103","561-BX","2017/06/12 19:29:28","新北市板橋區文化路一段268號","121.467256666667","25.020645","6500100","板橋區"
"220063","609-BX","2017/06/12 19:29:20","新北市板橋區三民路一段31巷39-1號","121.480561666667","25.0231866666667","6500100","板橋區"
"220057","686-BX","2017/06/12 19:29:35","新北市中和區壽德街26號","121.466515","24.994295","6500100","板橋區"
"220077","687-BX","2017/06/12 19:29:31","新北市板橋區僑中二街106巷1號","121.445983333333","25.007525","6500100","板橋區"
"220093","689-BX","2017/06/12 19:29:18","新北市板橋區新海路3號","121.462715","25.020435","6500100","板橋區"
"220054","741-BX","2017/06/12 19:29:29","新北市板橋區校前街38號","121.461028333333","25.0031883333333","6500100","板橋區"
"220055","827-TW","2017/06/12 19:29:24","新北市板橋區重慶路290巷22弄16號","121.462303333333","24.9995133333333","6500100","板橋區"
"220067","829-TW","2017/06/12 19:29:29","新北市板橋區漢生東路299巷26號","121.472561666667","25.0087316666667","6500100","板橋區"
"220102","830-TW","2017/06/12 19:29:18","新北市板橋區松柏街22巷9-2號","121.474751666667","25.0294333333333","6500100","板橋區"
"220074","895-R6","2017/06/12 19:29:23","新北市板橋區中正路自強新村45-1號","121.454823333333","25.0139733333333","6500100","板橋區"
"220073","985-R7","2017/06/12 19:29:31","新北市板橋區新生街32號","121.456346666667","25.0211533333333","6500100","板橋區"
"220070","AAC-253","2017/06/12 19:29:34","新北市板橋區忠孝路136號","121.463586666667","25.0023516666667","6500100","板橋區"
