"lineid","car","time","location","longitude","latitude","cityid","cityname"
"234046","148-BY","2017/06/12 19:49:25","新北市永和區永元路122號","121.522741666667","25.0027816666667","6500400","永和區"
"234013","149-BY","2017/06/12 19:49:34","新北市永和區永平路286-1號","121.50764","25.0120566666667","6500400","永和區"
"234007","207-UY","2017/06/12 19:49:20","新北市中和區南工路20號","121.505408333333","25.0004933333333","6500400","永和區"
"234081","298-R6","2017/06/12 19:49:17","新北市永和區林森路20巷28號","121.525585","25.0061216666667","6500400","永和區"
"234038","336-UY","2017/06/12 19:49:22","新北市永和區民樂街59巷7號","121.527975","24.9983266666667","6500400","永和區"
"234064","337-UY","2017/06/12 19:49:26","新北市永和區中正路368巷2號","121.517951666667","25.0007733333333","6500400","永和區"
"234086","338-UY","2017/06/12 19:49:17","新北市永和區中正路560號","121.517221666667","25.0059433333333","6500400","永和區"
"234070","552-UM","2017/06/12 19:49:30","新北市永和區福和路172號","121.520891666667","25.0079716666667","6500400","永和區"
"234054","553-UM","2017/06/12 19:49:22","新北市永和區中興街133巷10號","121.518683333333","25.012885","6500400","永和區"
"234017","745-BX","2017/06/12 19:49:35","新北市永和區永和路二段299號","121.516026666667","25.0160983333333","6500400","永和區"
"234030","746-BX","2017/06/12 19:49:26","新北市永和區民生路47巷36號","121.524676666667","24.9977066666667","6500400","永和區"
"234061","AAD-866","2017/06/12 19:49:28","新北市永和區中正路102號","121.514311666667","24.9957683333333","6500400","永和區"
"234042","862-TW","2017/06/12 19:49:21","新北市永和區中和路305巷20弄1號","121.50774","25.0019883333333","6500400","永和區"
"234050","863-TW","2017/06/12 19:49:31","新北市永和區保安路144號","121.508516666667","25.0149566666667","6500400","永和區"
"234026","9371-KE","2017/06/12 19:49:19","新北市永和區雙和街7巷2號","121.509578333333","25.0015866666667","6500400","永和區"
"234011","9373-KE","2017/06/12 19:49:17","新北市永和區仁愛路352巷112弄24號","121.50172","25.008645","6500400","永和區"
"249001","173-UM","2017/06/12 19:49:34","新北市八里區中華路二段252號","121.405361666667","25.1496366666667","6502300","八里區"
"249004","303-UY","2017/06/12 19:49:18","新北市八里區忠孝路488-1號","121.414293333333","25.1615566666667","6502300","八里區"
"249002","305-UY","2017/06/12 19:49:22","新北市八里區頂寮五街20號","121.451361666667","25.12624","6502300","八里區"
"249003","593-UM","2017/06/12 19:49:31","新北市八里區華峰三街35號","121.398441666667","25.145445","6502300","八里區"
"248014","025-BX","2017/06/12 19:49:34","新北市五股區五福路42巷37號","121.434976666667","25.0900816666667","6501500","五股區"
"248008","095-VK","2017/06/12 19:49:15","新北市五股區四維路173號","121.46787","25.0750716666667","6501500","五股區"
"248018","225-UY","2017/06/12 19:36:38","新北市五股區壟路16號","121.415348333333","25.0856","6501500","五股區"
"248012","247-BX","2017/06/12 19:19:54","新北市五股區中興路四段48巷19號","121.438556666667","25.08378","6501500","五股區"
"248016","261-SL","2017/06/12 19:49:32","新北市五股區成泰路四段16號","121.453543333333","25.1066316666667","6501500","五股區"
"248010","272-BY","2017/06/12 19:49:24","新北市五股區登林路76-6號","121.430511666667","25.069495","6501500","五股區"
"248004","677-BX","2017/06/12 19:49:31","新北市五股區成泰路一段152-1號","121.435078333333","25.07632","6501500","五股區"
"248002","678-BX","2017/06/12 19:49:32","新北市五股區成泰路三段613號","121.452648333333","25.1036233333333","6501500","五股區"
"234077","969-R7","2017/06/12 19:49:34","新北市永和區民權路33號","121.519996666667","24.997755","6500400","永和區"
"234074","AAC-211","2017/06/12 19:49:31","新北市永和區竹林路179巷40號","121.522186666667","25.010225","6500400","永和區"
"234067","AAC-212","2017/06/12 19:49:30","新北市永和區中山路一段201號","121.509003333333","25.0086816666667","6500400","永和區"
"234003","AAC-295","2017/06/12 19:47:20","新北市永和區福和路326號","121.515563333333","25.0072733333333","6500400","永和區"
"243013","AAD-798","2017/06/12 19:49:26","新北市泰山區應化街7號","121.423868333333","25.043725","6501600","泰山區"
"243009","297-R6","2017/06/12 19:49:19","新北市泰山區美寧街60號","121.430933333333","25.0646266666667","6501600","泰山區"
"243015","380-SR","2017/06/12 19:49:25","新北市泰山區明志路二段237巷18號","121.42783","25.0479316666667","6501600","泰山區"
"243014","421-VK","2017/06/12 19:49:19","新北市泰山區泰林路二段33-7號","121.435203333333","25.0564466666667","6501600","泰山區"
"243010","548-UM","2017/06/12 19:49:25","新北市泰山區民生路33號","121.430616666667","25.0522083333333","6501600","泰山區"
"243011","549-UM","2017/06/12 19:49:31","新北市泰山區明志路三段196巷21弄2號","121.423151666667","25.039275","6501600","泰山區"
"243012","646-TV","2017/06/12 19:49:21","新北市泰山區全興路13號","121.432381666667","25.0589566666667","6501600","泰山區"
"243016","680-BX","2017/06/12 19:49:22","新北市泰山區新北大道七段15巷2號","121.420306666667","25.03182","6501600","泰山區"
"222003","436-BY","2017/06/12 19:49:28","新北市深坑區深南路51-1號","121.621155","25.01","6501800","深坑區"
"222002","659-BX","2017/06/12 19:49:19","新北市深坑區北深路二段2巷1號","121.62122","25.0045466666667","6501800","深坑區"
"222001","696-SL","2017/06/12 19:49:31","新北市深坑區北深路三段70-1號","121.607616666667","25.0014683333333","6501800","深坑區"
"231041","002-UM","2017/06/12 19:49:17","新北市新店區中央路224號","121.529686666667","24.9729166666667","6500600","新店區"
"231059","046-UY","2017/06/12 19:49:19","新北市新店區安和路一段47號","121.517543333333","24.9657333333333","6500600","新店區"
"231060","106-UY","2017/06/12 19:49:26","新北市新店區安康路二段161號","121.510186666667","24.959275","6500600","新店區"
"231051","107-UY","2017/06/12 19:49:30","新北市新店區中央二街64號","121.526563333333","24.9746116666667","6500600","新店區"
"231047","108-UY","2017/06/12 19:49:29","新北市新店區寶興路65巷2號","121.550831666667","24.971615","6500600","新店區"
"231052","187-VK","2017/06/12 19:49:30","新北市新店區新烏路二段445號","121.552103333333","24.9088033333333","6500600","新店區"
"231057","256-BX","2017/06/12 19:49:31","新北市新店區花園二路三段21-3號","121.557093333333","24.9313733333333","6500600","新店區"
"231063","268-BY","2017/06/12 19:49:30","新北市新店區黎明路3號","121.503615","24.9524616666667","6500600","新店區"
"231046","278-BY","2017/06/12 19:49:35","新北市新店區福園街10巷1號","121.532725","24.9728466666667","6500600","新店區"
"231050","AAD-862","2017/06/12 19:47:42","新北市新店區北宜路二段579巷2號","121.565436666667","24.95414","6500600","新店區"
"231055","3713-VJ","2017/06/12 19:49:17","新北市新店區力行路76號","121.538675","24.9663466666667","6500600","新店區"
"231067","4772-VM","2017/06/12 19:49:16","新北市新店區太平路44號","121.53291","24.9592733333333","6500600","新店區"
"231065","512-UM","2017/06/12 19:49:20","新北市新店區安祥路109巷151弄10號","121.478211666667","24.9588916666667","6500600","新店區"
"231054","513-UM","2017/06/12 19:49:28","新北市新店區光明街138巷20號","121.540103333333","24.9611066666667","6500600","新店區"
"231064","515-UM","2017/06/12 19:49:29","新北市新店區安和路二段77號","121.518438333333","24.968865","6500600","新店區"
"231061","618-UM","2017/06/12 19:49:31","新北市新店區安民街148巷2號","121.516756666667","24.9696816666667","6500600","新店區"
"231040","619-UM","2017/06/12 19:49:29","新北市新店區北新路一段96巷23號","121.54299","24.9687816666667","6500600","新店區"
"231042","641-BX","2017/06/12 19:49:25","新北市新店區中興路一段279號","121.545238333333","24.96822","6500600","新店區"
"231049","719-UM","2017/06/12 19:49:25","新北市新店區民權路115號","121.536366666667","24.9827933333333","6500600","新店區"
"231062","720-UM","2017/06/12 19:49:18","新北市新店區永業路66號","121.531716666667","24.9523233333333","6500600","新店區"
"231044","897-TW","2017/06/12 19:49:32","新北市新店區復興路40-1號","121.538733333333","24.9866766666667","6500600","新店區"
"231045","898-TW","2017/06/12 19:49:24","新北市新店區中生路61號","121.564663333333","24.9522233333333","6500600","新店區"
"231043","899-TW","2017/06/12 19:49:30","新北市新店區北新路二段24號","121.542971666667","24.9714183333333","6500600","新店區"
"231066","AKT-0513","2017/06/12 19:49:28","新北市新店區薏仁坑路自強巷1號","121.497768333333","24.9577216666667","6500600","新店區"
"241011","013-R5","2017/06/12 19:49:36","新北市三重區介壽路43號","121.498776666667","25.0700983333333","6500200","三重區"
"241008","059-VK","2017/06/12 19:49:27","新北市三重區永福街76號","121.478886666667","25.076595","6500200","三重區"
"241009","060-VK","2017/06/12 19:49:20","新北市三重區三和路四段396巷22號","121.480323333333","25.07882","6500200","三重區"
"241031","061-VK","2017/06/12 19:49:19","新北市三重區重新路四段250-1號","121.485991666667","25.05348","6500200","三重區"
"241015","062-VK","2017/06/12 19:49:15","新北市三重區三和路一段3號","121.50402","25.0643766666667","6500200","三重區"
"241017","063-VK","2017/06/12 19:49:32","新北市三重區重陽路三段5巷6號","121.489383333333","25.0661533333333","6500200","三重區"
"241024","065-VK","2017/06/12 19:49:30","新北市三重區國道路一段58巷20號","121.481073333333","25.07208","6500200","三重區"
"241026","066-VK","2017/06/12 19:49:37","新北市三重區光興街1號","121.500293333333","25.060245","6500200","三重區"
"241003","091-VK","2017/06/12 19:49:34","新北市三重區五華街93巷89號","121.493911666667","25.0849816666667","6500200","三重區"
"241028","265-UM","2017/06/12 19:49:33","新北市三重區中正南路163號","121.493715","25.0560666666667","6500200","三重區"
"241016","266-UM","2017/06/12 19:49:21","新北市三重區正德街41巷9號","121.49623","25.0627566666667","6500200","三重區"
"241022","267-UM","2017/06/12 19:49:19","新北市三重區新北大道一段7號","121.489746666667","25.06163","6500200","三重區"
"241018","268-UM","2017/06/12 19:49:23","新北市三重區雙園街57巷23-3號","121.49468","25.0682","6500200","三重區"
"241013","270-UM","2017/06/12 19:49:23","新北市三重區仁愛街141巷25號","121.497138333333","25.0759816666667","6500200","三重區"
"241025","271-UM","2017/06/12 19:49:29","新北市三重區頂崁街210巷16號","121.476478333333","25.0677633333333","6500200","三重區"
"241007","398-BY","2017/06/12 19:49:32","新北市三重區三和路四段123號","121.484798333333","25.0778","6500200","三重區"
"241020","412-TH","2017/06/12 19:49:36","新北市三重區自強路三段99號","121.487685","25.07529","6500200","三重區"
"241004","475-VK","2017/06/12 19:49:15","新北市三重區五華街74號","121.493381666667","25.0820833333333","6500200","三重區"
"241019","478-VK","2017/06/12 19:49:26","新北市三重區自強路二段67巷17號","121.489425","25.070225","6500200","三重區"
"241030","480-VK","2017/06/12 19:49:27","新北市三重區昌隆街72號","121.490968333333","25.0507066666667","6500200","三重區"
"241023","545-UM","2017/06/12 19:49:22","新北市三重區頂崁街172號","121.477611666667","25.06592","6500200","三重區"
"241001","547-UM","2017/06/12 19:49:26","新北市三重區仁愛街327巷1號","121.492526666667","25.0796633333333","6500200","三重區"
"241006","AAD-863","2017/06/12 19:49:38","新北市三重區力行路二段82號","121.481623333333","25.0738516666667","6500200","三重區"
"241035","743-BX","2017/06/12 19:49:18","新北市三重區文化北路31-1號","121.499393333333","25.064045","6500200","三重區"
"241012","887-TS","2017/06/12 19:49:37","新北市三重區仁興街28巷36號","121.498436666667","25.0751516666667","6500200","三重區"
"241029","942-UM","2017/06/12 19:27:27","新北市三重區中正南路260-1號","121.493203333333","25.05307","6500200","三重區"
"235066","003-UY","2017/06/12 19:49:17","新北市中和區南工路26號","121.505618333333","25.0008333333333","6500300","中和區"
"235064","005-UY","2017/06/12 19:49:20","新北市中和區南山路123號","121.502286666667","24.9971633333333","6500300","中和區"
"235063","006-UY","2017/06/12 19:49:17","新北市中和區連城路139巷66號","121.496726666667","24.9968016666667","6500300","中和區"
"235056","096-UM","2017/06/12 19:49:33","新北市中和區中山路三段114巷46號","121.475805","25.007315","6500300","中和區"
"235039","097-UM","2017/06/12 19:49:33","新北市中和區秀峰街103巷6弄2號","121.520346666667","24.98982","6500300","中和區"
"235065","098-UM","2017/06/12 19:49:35","新北市中和區福美路269號","121.498158333333","25.0050516666667","6500300","中和區"
"235040","150-BY","2017/06/12 19:46:36","新北市中和區中和路281-1號","121.50593","24.999765","6500300","中和區"
"235058","151-BY","2017/06/12 19:49:19","新北市中和區連城路525-2號","121.481495","24.995035","6500300","中和區"
"235055","183-VK","2017/06/12 19:49:22","新北市中和區中山路三段181巷26號","121.473036666667","25.0051483333333","6500300","中和區"
"235038","185-VK","2017/06/12 19:49:20","新北市中和區自立路15巷8號","121.522893333333","24.99588","6500300","中和區"
"235049","186-VK","2017/06/12 19:49:16","新北市中和區景平路546號","121.502355","24.99473","6500300","中和區"
"235067","255-BX","2017/06/12 19:49:27","新北市中和區新生街287號","121.483861666667","24.9974383333333","6500300","中和區"
"235044","293-VK","2017/06/12 19:49:17","新北市中和區捷運路113號","121.507833333333","24.9902183333333","6500300","中和區"
"235072","301-VK","2017/06/12 19:49:24","新北市中和區永和路103巷15弄4號","121.495063333333","25.0072883333333","6500300","中和區"
"235043","352-BY","2017/06/12 19:49:27","新北市中和區興南路二段159巷1-1號","121.505043333333","24.983495","6500300","中和區"
"235051","376-QA","2017/06/12 19:49:20","新北市中和區中興街132巷12號","121.499043333333","24.9921266666667","6500300","中和區"
"235068","377-QA","2017/06/12 19:49:26","新北市中和區景平路493-6號","121.499891666667","24.9979533333333","6500300","中和區"
"235061","378-QA","2017/06/12 19:49:17","新北市中和區員山路226巷22弄2號","121.481951666667","25.0002683333333","6500300","中和區"
"235050","4979-A6","2017/06/12 19:49:23","新北市中和區中正路161巷2號","121.498413333333","24.99372","6500300","中和區"
"235069","4980-A6","2017/06/12 19:49:25","新北市中和區中正路395號","121.489591666667","24.993545","6500300","中和區"
"235042","551-UM","2017/06/12 19:49:29","新北市中和區景安路79巷37弄24號","121.507701666667","24.9963433333333","6500300","中和區"
"235070","558-UM","2017/06/12 19:46:21","新北市中和區圓通路50號","121.50066","24.9976533333333","6500300","中和區"
"235045","565-BX","2017/06/12 19:49:33","新北市中和區景新街357號","121.512016666667","24.9908116666667","6500300","中和區"
"235054","640-BX","2017/06/12 19:49:37","新北市中和區國光街107巷4弄24號","121.47006","24.9990366666667","6500300","中和區"
"235060","647-TV","2017/06/12 19:49:19","新北市中和區中山路二段523巷2號","121.481611666667","25.004915","6500300","中和區"
"235047","732-UM","2017/06/12 19:08:11","新北市中和區興南路二段34巷75號","121.505115","24.9849516666667","6500300","中和區"
"235046","733-UM","2017/06/12 19:49:34","新北市中和區景新街496巷24號","121.513226666667","24.98644","6500300","中和區"
"235071","783-BX","2017/06/12 19:49:29","新北市中和區永和路333巷1-6號","121.484993333333","25.0111316666667","6500300","中和區"
"235057","801-TS","2017/06/12 19:49:18","新北市中和區員山路419號","121.481073333333","25.003345","6500300","中和區"
"235052","805-TS","2017/06/12 19:49:21","新北市中和區華新街192巷8-1號","121.506611666667","24.9826783333333","6500300","中和區"
"235048","896-TW","2017/06/12 19:49:29","新北市中和區興南路二段49號","121.50736","24.9853116666667","6500300","中和區"
"235053","900-TW","2017/06/12 19:49:17","新北市中和區國光街184巷6號","121.467096666667","25.0019533333333","6500300","中和區"
"235041","157-BY","2017/06/12 19:49:23","新北市中和區中和路350巷12號","121.510831666667","25.0003533333333","6500300","中和區"
"235037","AAC-213","2017/06/12 19:49:15","新北市中和區秀朗路三段10巷14弄108號","121.523","24.9966766666667","6500300","中和區"
"235059","AAC-215","2017/06/12 19:49:30","新北市中和區圓通路305巷15弄2號","121.494295","24.9894016666667","6500300","中和區"
"220068","013-TV","2017/06/12 19:49:34","新北市板橋區中山路二段412巷29弄8-6號","121.48455","25.0198016666667","6500100","板橋區"
"220065","072-UY","2017/06/12 19:49:22","新北市板橋區國泰街111巷1號","121.465805","25.0062766666667","6500100","板橋區"
"220086","073-UY","2017/06/12 19:49:35","新北市板橋區中正路216巷2弄11號","121.456516666667","25.0180583333333","6500100","板橋區"
"220106","075-UY","2017/06/12 19:49:34","新北市板橋區文化路二段608巷56號","121.479696666667","25.034425","6500100","板橋區"
"220096","120-SR","2017/06/12 19:49:22","新北市板橋區民生路二段234巷26弄9號","121.470573333333","25.0221","6500100","板橋區"
"247006","341-TH","2017/06/12 19:49:25","新北市蘆洲區永安南路二段32號","121.467128333333","25.07725","6501400","蘆洲區"
"247008","339-TH","2017/06/12 19:49:21","新北市蘆洲區信義路113巷1弄6號","121.478108333333","25.0804416666667","6501400","蘆洲區"
"247002","336-TH","2017/06/12 19:49:21","新北市蘆洲區永平街30號","121.458815","25.09088","6501400","蘆洲區"
"247014","057-VK","2017/06/12 19:49:34","新北市蘆洲區保和街50-5號","121.469768333333","25.0863066666667","6501400","蘆洲區"
"247004","056-VK","2017/06/12 19:49:16","新北市蘆洲區中原路32號","121.460001666667","25.0827233333333","6501400","蘆洲區"
"247022","002-UY","2017/06/12 19:49:20","新北市蘆洲區中正路285號","121.466808333333","25.0879566666667","6501400","蘆洲區"
"226004","312-R5","2017/06/12 19:49:22","新北市平溪區望古里灰3-1號","121.756468333333","25.029315","6502400","平溪區"
"228003","097-TW","2017/06/12 19:49:25","新北市貢寮區真理里美艷山街3-1號","121.92571","25.0596016666667","6502600","貢寮區"
"228001","670-TC","2017/06/12 19:49:25","新北市貢寮區真理里新港街93號","121.926861666667","25.05668","6502600","貢寮區"
"224010","AGQ-8101","2017/06/12 19:49:19","新北市瑞芳區豎崎路1號","121.843478333333","25.1087266666667","6501200","瑞芳區"
"224002","639-TC","2017/06/12 19:49:33","新北市瑞芳區員山子路員山巷19-1號","121.816756666667","25.1038716666667","6501200","瑞芳區"
"224011","420-VK","2017/06/12 19:38:09","新北市瑞芳區崙頂路1-6號","121.847093333333","25.1047516666667","6501200","瑞芳區"
"227001","642-TC","2017/06/12 19:49:33","新北市雙溪區雙溪里內挖路47號","121.863238333333","25.0368133333333","6502500","雙溪區"
"227008","400-TW","2017/06/12 19:49:31","新北市雙溪區新基里朝陽街2號","121.86646","25.0388083333333","6502500","雙溪區"
"208001","742-BX","2017/06/12 19:49:27","新北市金山區重和里林口28-3號","121.59663","25.2092816666667","6502700","金山區"
"208003","665-BX","2017/06/12 19:49:25","新北市金山區三界壇路1-12號","121.629281666667","25.22616","6502700","金山區"
"251009","008-UM","2017/06/12 19:16:25","新北市淡水區中山路129巷23號","121.441598333333","25.1703466666667","6501000","淡水區"
"251004","009-UM","2017/06/12 19:49:30","新北市淡水區民權路183巷22號","121.460366666667","25.134075","6501000","淡水區"
"251008","181-VK","2017/06/12 19:49:33","新北市淡水區中正路一段24巷11號","121.426733333333","25.177075","6501000","淡水區"
"251013","182-VK","2017/06/12 19:49:30","新北市淡水區淡金路三段329號","121.448988333333","25.206255","6501000","淡水區"
"251012","441-VK","2017/06/12 19:49:30","新北市淡水區淡金路三段66號","121.448228333333","25.1999333333333","6501000","淡水區"
"251015","442-VK","2017/06/12 19:49:35","新北市淡水區泉洲厝25-5號","121.48431","25.1897916666667","6501000","淡水區"
"251005","443-VK","2017/06/12 19:49:30","新北市淡水區原德路16號","121.442316666667","25.1715733333333","6501000","淡水區"
"251001","559-UM","2017/06/12 19:49:32","新北市淡水區淡金路二段30號","121.452335","25.18126","6501000","淡水區"
"251006","561-UM","2017/06/12 19:49:28","新北市淡水區水碓街15號","121.443473333333","25.1769716666667","6501000","淡水區"
"251011","650-BX","2017/06/12 19:49:29","新北市淡水區水源街二段177巷32弄20號","121.455486666667","25.178015","6501000","淡水區"
"207003","550-UM","2017/06/12 19:49:29","新北市萬里區大鵬里萬里加投68號","121.642346666667","25.2147666666667","6502800","萬里區"
"207004","225-TW","2017/06/12 19:49:34","新北市萬里區萬里里瑪鋉路122號","121.690605","25.179035","6502800","萬里區"
"252002","178-VK","2017/06/12 19:49:31","新北市三芝區三民街31號","121.50461","25.25849","6502100","三芝區"
"252001","292-VK","2017/06/12 19:49:16","新北市三芝區公正街9號","121.499715","25.2575233333333","6502100","三芝區"
"208002","170-UY","2017/06/12 19:49:30","新北市金山區八德街10號","121.634985","25.2236833333333","6502700","金山區"
"237004","078-UY","2017/06/12 19:49:31","新北市三峽區添福141-2號","121.374326666667","24.900815","6500900","三峽區"
"237007","153-BY","2017/06/12 19:49:24","新北市三峽區二鬮路110巷8號","121.359203333333","24.909305","6500900","三峽區"
"237009","210-TH","2017/06/12 19:49:17","新北市三峽區清水街414號","121.368825","24.926695","6500900","三峽區"
"237013","252-BX","2017/06/12 19:49:34","新北市三峽區介壽路三段1號","121.395345","24.9361233333333","6500900","三峽區"
"237012","275-BY","2017/06/12 19:49:30","新北市三峽區中華路40-1號","121.373163333333","24.9316266666667","6500900","三峽區"
"237008","302-VK","2017/06/12 19:49:28","新北市三峽區永安街167巷5號","121.373608333333","24.9273366666667","6500900","三峽區"
"237014","433-BY","2017/06/12 19:49:18","新北市三峽區添福14-39號","121.371873333333","24.9003416666667","6500900","三峽區"
"237006","5529-G3","2017/06/12 19:49:31","新北市三峽區中正路一段328-7號","121.370763333333","24.9247166666667","6500900","三峽區"
"237015","649-BX","2017/06/12 19:49:33","新北市三峽區溪東路218巷32號","121.406936666667","24.930445","6500900","三峽區"
"237005","AKY-6261","2017/06/12 19:49:28","新北市三峽區文化路135號","121.369726666667","24.9357266666667","6500900","三峽區"
"236069","105-UM","2017/06/12 19:49:19","新北市土城區中央路二段208號","121.442008333333","24.9757033333333","6501300","土城區"
"236042","107-UM","2017/06/12 19:49:16","新北市土城區裕民路288號","121.45561","24.9818366666667","6501300","土城區"
"236078","166-UM","2017/06/12 19:49:26","新北市土城區溪頭路37號","121.412168333333","24.9551383333333","6501300","土城區"
"236030","253-BX","2017/06/12 19:49:28","新北市土城區中央路一段290號","121.443298333333","24.98241","6501300","土城區"
"236026","269-VK","2017/06/12 19:49:30","新北市土城區中央路二段61巷22號","121.443246666667","24.9787916666667","6501300","土城區"
"236036","271-VK","2017/06/12 19:49:30","新北市土城區國際路63號","121.466821666667","24.9765733333333","6501300","土城區"
"236020","401-BY","2017/06/12 19:49:27","新北市土城區峰廷街3號","121.46923","24.9873016666667","6501300","土城區"
"236058","912-UM","2017/06/12 19:49:24","新北市土城區中央路二段20-2號","121.442813333333","24.9803516666667","6501300","土城區"
"236048","913-UM","2017/06/12 19:49:30","新北市土城區青雲路305號","121.459043333333","24.97929","6501300","土城區"
"236062","915-UM","2017/06/12 19:49:32","新北市土城區延平街33巷1號","121.467838333333","24.9917083333333","6501300","土城區"
"236053","AAC-216","2017/06/12 19:49:36","新北市土城區立德路22號","121.462815","24.9878066666667","6501300","土城區"
"242029","986-R7","2017/06/12 19:49:23","新北市新莊區新泰路498號","121.442641666667","25.04599","6500500","新莊區"
"242048","751-BX","2017/06/12 19:49:29","新北市新莊區建安街76巷1弄15號","121.426006666667","25.0241616666667","6500500","新莊區"
"242058","705-TV","2017/06/12 19:49:22","新北市新莊區八德街60號","121.424936666667","25.0224316666667","6500500","新莊區"
"242023","613-BX","2017/06/12 19:49:18","新北市新莊區化成路154號","121.465318333333","25.0451583333333","6500500","新莊區"
"242027","612-BX","2017/06/12 19:49:19","新北市新莊區幸福路904號","121.443018333333","25.0489666666667","6500500","新莊區"
"242036","566-BX","2017/06/12 19:49:31","新北市新莊區建安街46號","121.427441666667","25.0248566666667","6500500","新莊區"
"242042","497-BY","2017/06/12 19:49:32","新北市新莊區新北大道七段556號","121.4123","25.0289816666667","6500500","新莊區"
"242004","442-UM","2017/06/12 19:49:30","新北市新莊區化成路63巷24弄13號","121.462721666667","25.045945","6500500","新莊區"
"242034","413-TV","2017/06/12 19:49:29","新北市新莊區公園一路95號","121.444056666667","25.0380216666667","6500500","新莊區"
"242039","400-BY","2017/06/12 19:49:17","新北市新莊區民安路299巷55弄1號","121.429408333333","25.0238566666667","6500500","新莊區"
"242060","362-BY","2017/06/12 19:49:30","新北市新莊區中環路一段299號","121.441971666667","25.032175","6500500","新莊區"
"242007","173-VK","2017/06/12 19:49:23","新北市新莊區福壽街336號","121.45766","25.0585733333333","6500500","新莊區"
"242013","175-VK","2017/06/12 19:49:29","新北市新莊區中泰街36號","121.450856666667","25.0469983333333","6500500","新莊區"
"242031","346-TH","2017/06/12 19:49:17","新北市新莊區忠孝街90號","121.443945","25.03692","6500500","新莊區"
"242002","347-TH","2017/06/12 19:49:26","新北市新莊區新泰路65號","121.449388333333","25.03421","6500500","新莊區"
"242017","348-TH","2017/06/12 19:49:22","新北市新莊區中華路一段226號","121.452633333333","25.0429666666667","6500500","新莊區"
"238015","755-BX","2017/06/12 19:49:25","新北市樹林區日新街70巷7號","121.421378333333","24.9908733333333","6500700","樹林區"
"238023","601-UM","2017/06/12 19:49:28","新北市樹林區三福街123巷2號","121.405348333333","25.0159733333333","6500700","樹林區"
"238018","571-TV","2017/06/12 19:48:52","新北市樹林區中山路三段210-2號","121.380555","24.9679033333333","6500700","樹林區"
"238022","312-TH","2017/06/12 19:49:32","新北市樹林區名園街51巷6弄25號","121.42092","24.9781183333333","6500700","樹林區"
"238021","311-TH","2017/06/12 19:49:32","新北市三峽區大義路386號","121.377191666667","24.9486216666667","6500700","樹林區"
"238025","303-VK","2017/06/12 19:49:18","新北市樹林區中山路一段149號","121.42219","24.98933","6500700","樹林區"
"238017","283-BY","2017/06/12 19:49:19","新北市樹林區保安街二段107巷1弄5號","121.415175","25.000845","6500700","樹林區"
"238014","282-BY","2017/06/12 19:49:23","新北市樹林區千歲街34號","121.42572","24.9965066666667","6500700","樹林區"
"238020","268-VK","2017/06/12 19:49:33","新北市樹林區俊英街83巷1號","121.425808333333","25.0079766666667","6500700","樹林區"
"238016","169-UY","2017/06/12 19:49:32","新北市樹林區中山路三段208號","121.382785","24.966245","6500700","樹林區"
"239006","891-R6","2017/06/12 19:49:33","新北市鶯歌區尖山埔路144號","121.343491666667","24.94977","6500800","鶯歌區"
"239001","417-VK","2017/06/12 19:49:24","新北市鶯歌區尖山埔路243號","121.344423333333","24.9500966666667","6500800","鶯歌區"
"239007","292-BY","2017/06/12 19:49:32","新北市鶯歌區大湖路326巷18號","121.346178333333","24.9700366666667","6500800","鶯歌區"
"239004","193-VK","2017/06/12 19:49:34","新北市鶯歌區二甲路83-20號","121.340576666667","24.9316416666667","6500800","鶯歌區"
"221036","130-UY","2017/06/12 19:49:23","新北市汐止區汐萬路一段37號","121.655635","25.06807","6501100","汐止區"
"221015","131-UY","2017/06/12 19:49:19","新北市汐止區中正路311號","121.655945","25.06768","6501100","汐止區"
"221010","269-BY","2017/06/12 19:49:24","新北市汐止區汐萬路二段9號","121.649406666667","25.0805333333333","6501100","汐止區"
"221012","278-VK","2017/06/12 19:49:23","新北市汐止區保長路267號","121.680951666667","25.0743733333333","6501100","汐止區"
"221023","279-VK","2017/06/12 19:49:16","新北市汐止區民族六街5巷4號","121.630021666667","25.06983","6501100","汐止區"
"221032","280-BY","2017/06/12 19:49:20","新北市汐止區橫科路119號","121.620068333333","25.0503483333333","6501100","汐止區"
"221027","281-BY","2017/06/12 19:49:31","新北市汐止區秀峰路6巷10號","121.659126666667","25.0662683333333","6501100","汐止區"
"221038","297-VK","2017/06/12 19:49:32","新北市汐止區忠孝東路245號","121.662748333333","25.0675483333333","6501100","汐止區"
"221029","298-VK","2017/06/12 19:49:25","新北市汐止區康寧街901號","121.65142","25.0749483333333","6501100","汐止區"
"221021","299-VK","2017/06/12 19:48:55","新北市汐止區莊敬街29巷5號","121.656981666667","25.0609683333333","6501100","汐止區"
"221035","622-UM","2017/06/12 19:49:19","新北市汐止區汐萬路一段160號","121.652588333333","25.07153","6501100","汐止區"
"221025","623-UM","2017/06/12 19:49:18","新北市汐止區秀峰路81巷26號","121.661041666667","25.0644933333333","6501100","汐止區"
"221033","647-BX","2017/06/12 19:49:28","新北市汐止區東勢街76巷99號","121.636753333333","25.0390916666667","6501100","汐止區"
"221002","707-TV","2017/06/12 19:49:26","新北市汐止區福德二路77-2號","121.6333","25.0659616666667","6501100","汐止區"
"221018","753-BX","2017/06/12 19:49:20","新北市汐止區汐萬路一段39-3號","121.654835","25.069765","6501100","汐止區"
"220079","145-BY","2017/06/12 19:49:27","新北市板橋區國光路8-1號","121.45694","25.0168866666667","6500100","板橋區"
"220088","145-RM","2017/06/12 02:21:48","新北市板橋區溪城路90-2號","121.429076666667","24.9801366666667","6500100","板橋區"
"220082","610-BX","2017/06/12 19:49:26","新北市板橋區沙崙街2-5號","121.43089","24.994415","6500100","板橋區"
"220101","245-BX","2017/06/12 19:49:31","新北市板橋區莊敬路263巷15號","121.473196666667","25.02173","6500100","板橋區"
"220069","258-TC","2017/06/12 19:49:25","新北市板橋區縣民大道一段64巷32號","121.455756666667","25.0034216666667","6500100","板橋區"
"220094","267-BY","2017/06/12 19:49:20","新北市板橋區吳鳳路82號","121.466883333333","25.0314733333333","6500100","板橋區"
"220072","277-BY","2017/06/12 19:49:15","新北市板橋區金門街253巷17弄1號","121.433163333333","24.988765","6500100","板橋區"
"220064","280-UM","2017/06/12 19:49:30","新北市板橋區館前東路110號","121.463321666667","25.0075316666667","6500100","板橋區"
"220071","283-VK","2017/06/12 19:49:25","新北市板橋區忠孝路6號","121.459545","25.0014433333333","6500100","板橋區"
"220091","285-UM","2017/06/12 19:49:20","新北市板橋區懷德街127巷38-3號","121.480105","25.03151","6500100","板橋區"
"220053","285-VK","2017/06/12 19:49:20","新北市板橋區中山路二段60巷1弄14號","121.474788333333","25.0155716666667","6500100","板橋區"
"220083","286-VK","2017/06/12 19:49:18","新北市板橋區龍興街65巷16號","121.44324","25.001555","6500100","板橋區"
"220081","287-VK","2017/06/12 19:49:17","新北市板橋區大觀路一段29巷137弄1號","121.450133333333","25.0054533333333","6500100","板橋區"
"220090","288-VK","2017/06/12 19:49:23","新北市板橋區龍泉街54巷8弄12號","121.457376666667","25.026925","6500100","板橋區"
"220061","293-UM","2017/06/12 19:49:21","新北市板橋區板新路200巷4號","121.469131666667","25.0160966666667","6500100","板橋區"
"220084","296-UM","2017/06/12 19:49:30","新北市板橋區滿平二街2巷1弄32號","121.424723333333","24.9872166666667","6500100","板橋區"
"220075","297-UM","2017/06/12 19:49:24","新北市板橋區大勇街54-1號","121.452715","25.016565","6500100","板橋區"
"220097","299-UM","2017/06/12 19:49:33","新北市板橋區文化路一段285巷26號","121.463796666667","25.0194233333333","6500100","板橋區"
"220056","303-R5","2017/06/12 19:49:24","新北市板橋區四川路二段99巷4弄2號","121.45282","24.9941566666667","6500100","板橋區"
"220062","305-R5","2017/06/12 19:49:33","新北市板橋區三民路二段35巷7-2號","121.480101666667","25.017725","6500100","板橋區"
"220092","307-R5","2017/06/12 19:49:22","新北市板橋區四維路103巷33號","121.46436","25.02378","6500100","板橋區"
"220098","317-R6","2017/06/12 19:49:28","新北市板橋區裕民街75巷2弄16號","121.46045","25.0277783333333","6500100","板橋區"
"220080","461-BY","2017/06/12 19:49:27","新北市板橋區大觀路二段37巷48號","121.44896","25.0026066666667","6500100","板橋區"
"220089","487-VK","2017/06/12 19:49:21","新北市板橋區雨農路60號","121.460633333333","25.0241716666667","6500100","板橋區"
"220088","491-VK","2017/06/12 19:49:12","新北市板橋區仁化街103號","121.476551666667","25.0322333333333","6500100","板橋區"
"220035","560-BX","2017/06/12 19:49:17","新北市板橋區金華街84號","121.457948333333","25.0206733333333","6500100","板橋區"
"220103","561-BX","2017/06/12 19:49:27","新北市板橋區陽明街46-2號","121.465635","25.0219466666667","6500100","板橋區"
"220063","609-BX","2017/06/12 19:49:33","新北市板橋區三民路一段89號","121.479421666667","25.02156","6500100","板橋區"
"220057","686-BX","2017/06/12 19:49:15","新北市板橋區和平路安樂巷1弄1-1號","121.4614","24.9940216666667","6500100","板橋區"
"220077","687-BX","2017/06/12 19:49:31","新北市板橋區僑中一街102巷1弄16號","121.445953333333","25.01221","6500100","板橋區"
"220093","689-BX","2017/06/12 19:49:33","新北市板橋區長江路一段143號","121.46075","25.0303233333333","6500100","板橋區"
"220054","741-BX","2017/06/12 19:49:29","新北市板橋區忠孝路239巷13號","121.466225","25.0032116666667","6500100","板橋區"
"220055","827-TW","2017/06/12 19:49:23","新北市板橋區國慶路159號","121.461776666667","24.996085","6500100","板橋區"
"220067","829-TW","2017/06/12 19:49:17","新北市板橋區漢生東路193巷56號","121.472835","25.0117933333333","6500100","板橋區"
"220102","830-TW","2017/06/12 19:49:27","新北市板橋區松柏街33巷24-4號","121.475011666667","25.0306916666667","6500100","板橋區"
"220074","895-R6","2017/06/12 19:49:23","新北市板橋區北門街12號","121.457676666667","25.0105466666667","6500100","板橋區"
"220073","985-R7","2017/06/12 19:49:19","新北市板橋區國光路49巷11號","121.45859","25.0187083333333","6500100","板橋區"
"220070","AAC-253","2017/06/12 19:49:34","新北市板橋區民族路224號","121.468641666667","25.007385","6500100","板橋區"
