"lineid","car","time","location","longitude","latitude","cityid","cityname"
"234046","148-BY","2017/06/12 19:59:25","新北市永和區永利路143號","121.524298333333","25.0035866666667","6500400","永和區"
"234013","149-BY","2017/06/12 19:59:34","新北市永和區保生路55號","121.5047","25.0106016666667","6500400","永和區"
"234007","207-UY","2017/06/12 19:59:20","新北市永和區保生路22巷15號","121.507085","25.008065","6500400","永和區"
"234081","298-R6","2017/06/12 19:59:17","新北市永和區永亨路98號","121.523073333333","25.0048466666667","6500400","永和區"
"234038","336-UY","2017/06/12 19:59:22","新北市永和區成功路二段152-2號","121.526496666667","24.9966716666667","6500400","永和區"
"234064","337-UY","2017/06/12 19:59:26","新北市永和區中正路412巷20弄21號","121.519006666667","25.0013966666667","6500400","永和區"
"234086","338-UY","2017/06/12 19:59:17","新北市永和區竹林路222-1號","121.520633333333","25.007855","6500400","永和區"
"234070","552-UM","2017/06/12 19:59:30","新北市永和區大新街78號","121.517383333333","25.0081666666667","6500400","永和區"
"234054","553-UM","2017/06/12 19:59:22","新北市永和區博愛街47巷2號","121.519505","25.0159333333333","6500400","永和區"
"234017","745-BX","2017/06/12 19:59:35","新北市永和區文化路69號","121.514023333333","25.0150683333333","6500400","永和區"
"234030","746-BX","2017/06/12 19:59:36","新北市永和區民權路49巷5弄15號","121.520721666667","24.997625","6500400","永和區"
"234061","AAD-866","2017/06/12 19:59:28","新北市永和區中正路283巷12號","121.517251666667","25.0010366666667","6500400","永和區"
"234042","862-TW","2017/06/12 19:59:21","新北市永和區中和路305巷2弄28號","121.507451666667","24.9999866666667","6500400","永和區"
"234050","863-TW","2017/06/12 19:59:30","新北市永和區保安路230號","121.507033333333","25.0134266666667","6500400","永和區"
"234026","9371-KE","2017/06/12 19:59:19","新北市永和區雙和街52巷2號","121.50904","25.0031333333333","6500400","永和區"
"234011","9373-KE","2017/06/12 19:59:17","新北市永和區仁愛路352巷122弄3號","121.500458333333","25.0087016666667","6500400","永和區"
"249005","172-UM","2017/06/12 19:59:23","新北市八里區長坑口41號","121.387891666667","25.130535","6502300","八里區"
"249001","173-UM","2017/06/12 19:59:34","新北市八里區中華路二段249-1號","121.404136666667","25.14826","6502300","八里區"
"249004","303-UY","2017/06/12 19:59:17","新北市八里區中山路一段217巷38號","121.411556666667","25.1557283333333","6502300","八里區"
"249002","305-UY","2017/06/12 19:59:22","新北市八里區頂寮一街26號","121.451641666667","25.1241433333333","6502300","八里區"
"249003","593-UM","2017/06/12 19:59:31","新北市八里區中華路二段568號","121.398578333333","25.1447233333333","6502300","八里區"
"248014","025-BX","2017/06/12 19:59:34","新北市五股區五福路50號","121.433673333333","25.0895333333333","6501500","五股區"
"248008","095-VK","2017/06/12 19:59:24","新北市五股區四維路30巷36弄1號","121.469083333333","25.0715","6501500","五股區"
"248018","225-UY","2017/06/12 19:59:18","新北市五股區登林路81-40號","121.426018333333","25.070365","6501500","五股區"
"248012","247-BX","2017/06/12 19:19:54","新北市五股區中興路四段48巷19號","121.438556666667","25.08378","6501500","五股區"
"248016","261-SL","2017/06/12 19:59:32","新北市五股區成泰路三段577巷80弄7號","121.449468333333","25.1042466666667","6501500","五股區"
"248010","272-BY","2017/06/12 19:59:24","新北市五股區登林路76-10號","121.429416666667","25.0693866666667","6501500","五股區"
"248004","677-BX","2017/06/12 19:59:31","新北市五股區成泰路一段32巷62號","121.435138333333","25.067065","6501500","五股區"
"248002","678-BX","2017/06/12 19:59:32","新北市五股區成泰路三段358號","121.450635","25.09815","6501500","五股區"
"234023","9380-KE","2017/06/12 19:59:27","新北市永和區中正路702巷18號","121.516463333333","25.0105083333333","6500400","永和區"
"234077","969-R7","2017/06/12 19:59:29","新北市永和區民有街23巷37號","121.517465","24.9970266666667","6500400","永和區"
"234074","AAC-211","2017/06/12 19:59:31","新北市永和區豫溪街201號","121.523556666667","25.00989","6500400","永和區"
"234067","AAC-212","2017/06/12 19:59:31","新北市永和區永平路173巷6號","121.510335","25.0087033333333","6500400","永和區"
"234003","AAC-295","2017/06/12 19:57:00","新北市永和區永和路二段8號","121.514508333333","25.0102633333333","6500400","永和區"
"243013","AAD-798","2017/06/12 19:59:26","新北市泰山區應化街7號","121.423865","25.04373","6501600","泰山區"
"243009","297-R6","2017/06/12 19:59:19","新北市泰山區楓江路18巷2號","121.434046666667","25.0619066666667","6501600","泰山區"
"243015","380-SR","2017/06/12 19:59:25","新北市泰山區明志路二段246巷18弄17號","121.426721666667","25.0486533333333","6501600","泰山區"
"243014","421-VK","2017/06/12 19:59:31","新北市泰山區泰林路二段171號","121.433661666667","25.0606516666667","6501600","泰山區"
"243010","548-UM","2017/06/12 19:59:25","新北市泰山區中華街9號","121.427828333333","25.0524783333333","6501600","泰山區"
"243011","549-UM","2017/06/12 19:59:31","新北市泰山區明志路三段182巷24號","121.423458333333","25.0393166666667","6501600","泰山區"
"243012","646-TV","2017/06/12 19:59:25","新北市泰山區全興路87號","121.433231666667","25.05753","6501600","泰山區"
"243016","680-BX","2017/06/12 19:59:22","新北市泰山區新北大道六段235號","121.425236666667","25.0351466666667","6501600","泰山區"
"222003","436-BY","2017/06/12 19:59:28","新北市深坑區埔新街14號","121.620713333333","25.0039483333333","6501800","深坑區"
"222002","659-BX","2017/06/12 19:59:19","新北市深坑區北深路二段81巷8弄3號","121.618231666667","25.0030283333333","6501800","深坑區"
"222001","696-SL","2017/06/12 19:59:31","新北市深坑區北深路三段172號","121.602211666667","25.003485","6501800","深坑區"
"231041","002-UM","2017/06/12 19:59:36","新北市新店區自由街2-1號","121.535658333333","24.97554","6500600","新店區"
"231056","0291-UT","2017/06/12 19:59:23","新北市新店區安民街121巷12號","121.515463333333","24.9691416666667","6500600","新店區"
"231059","046-UY","2017/06/12 19:59:19","新北市新店區安成街6號","121.51087","24.9603716666667","6500600","新店區"
"231060","106-UY","2017/06/12 19:59:26","新北市新店區安康路二段335號","121.498131666667","24.9558366666667","6500600","新店區"
"231051","107-UY","2017/06/12 19:59:30","新北市新店區中央路216號","121.529936666667","24.9733","6500600","新店區"
"231047","108-UY","2017/06/12 19:59:29","新北市新店區寶宏路38號","121.549386666667","24.9755816666667","6500600","新店區"
"231052","187-VK","2017/06/12 19:59:30","新北市新店區新烏路三段266號","121.55013","24.899745","6500600","新店區"
"231057","256-BX","2017/06/12 19:59:31","新北市新店區花園二路一段11號","121.555501666667","24.93252","6500600","新店區"
"231063","268-BY","2017/06/12 19:59:30","新北市新店區黎明路3號","121.503201666667","24.9521566666667","6500600","新店區"
"231050","AAD-862","2017/06/12 19:59:22","新北市新店區中生路61號","121.564725","24.9522366666667","6500600","新店區"
"231055","3713-VJ","2017/06/12 19:59:17","新北市新店區力行路14巷8號","121.53936","24.96498","6500600","新店區"
"231067","4772-VM","2017/06/12 19:59:16","新北市新店區精忠路10-1號","121.532651666667","24.9590783333333","6500600","新店區"
"231065","512-UM","2017/06/12 19:59:20","新北市新店區安祥路106巷12號","121.47844","24.9625066666667","6500600","新店區"
"231054","513-UM","2017/06/12 19:59:28","新北市新店區光明街137號","121.539513333333","24.9619933333333","6500600","新店區"
"231064","515-UM","2017/06/12 19:59:29","新北市新店區安民街123號","121.516243333333","24.968605","6500600","新店區"
"231061","618-UM","2017/06/12 19:59:31","新北市新店區安民街263號","121.517318333333","24.9727916666667","6500600","新店區"
"231040","619-UM","2017/06/12 19:59:29","新北市新店區中正路62號","121.544296666667","24.970105","6500600","新店區"
"231042","641-BX","2017/06/12 19:59:23","新北市新店區中正路7號","121.545856666667","24.9691766666667","6500600","新店區"
"231068","718-UY","2017/06/12 19:59:20","新北市新店區安康路一段355-3號","121.519831666667","24.962675","6500600","新店區"
"231049","719-UM","2017/06/12 19:59:25","新北市新店區民族路21號","121.541188333333","24.9787483333333","6500600","新店區"
"231062","720-UM","2017/06/12 19:59:18","新北市新店區華城路36巷1-3號","121.527528333333","24.9554333333333","6500600","新店區"
"231044","897-TW","2017/06/12 19:59:32","新北市新店區復興路44-2號","121.538545","24.9867383333333","6500600","新店區"
"231045","898-TW","2017/06/12 19:59:31","新北市新店區北宜路二段168號","121.55812","24.954035","6500600","新店區"
"231043","899-TW","2017/06/12 19:59:30","新北市新店區中正路241號","121.539233333333","24.973275","6500600","新店區"
"231066","AKT-0513","2017/06/12 19:59:28","新北市新店區安康路二段341巷4號","121.496855","24.9550016666667","6500600","新店區"
"241011","013-R5","2017/06/12 19:59:16","新北市三重區三和路二段153號","121.49818","25.0694733333333","6500200","三重區"
"241008","059-VK","2017/06/12 19:59:27","新北市三重區永福街181號","121.478988333333","25.0749916666667","6500200","三重區"
"241009","060-VK","2017/06/12 19:59:20","新北市三重區三和路四段390巷6號","121.481771666667","25.0788266666667","6500200","三重區"
"241031","061-VK","2017/06/12 19:59:20","新北市三重區重新路四段184巷16號","121.487081666667","25.055035","6500200","三重區"
"241015","062-VK","2017/06/12 19:59:35","新北市三重區三和路二段23號","121.501131666667","25.0669783333333","6500200","三重區"
"241017","063-VK","2017/06/12 19:59:32","新北市三重區重陽路三段192-4號","121.490446666667","25.0686733333333","6500200","三重區"
"241024","065-VK","2017/06/12 19:59:30","新北市三重區力行路一段277號","121.482226666667","25.0714416666667","6500200","三重區"
"241026","066-VK","2017/06/12 19:59:37","新北市三重區仁慈街5號","121.501673333333","25.063065","6500200","三重區"
"241003","091-VK","2017/06/12 19:59:34","新北市三重區五華街93巷3號","121.492063333333","25.083745","6500200","三重區"
"241005","262-UM","2017/06/12 19:59:20","新北市三重區溪尾街325巷11號","121.488538333333","25.0837516666667","6500200","三重區"
"241028","265-UM","2017/06/12 19:59:33","新北市三重區中正南路40號","121.493795","25.0601433333333","6500200","三重區"
"241016","266-UM","2017/06/12 19:59:21","新北市三重區正義北路32-1號","121.497465","25.0634316666667","6500200","三重區"
"241022","267-UM","2017/06/12 19:59:19","新北市三重區過圳街31巷2號","121.489105","25.0606266666667","6500200","三重區"
"241018","268-UM","2017/06/12 19:59:23","新北市三重區正義北路244巷63號","121.494173333333","25.0677566666667","6500200","三重區"
"241013","270-UM","2017/06/12 19:59:22","新北市三重區三和路三段125巷3號","121.493146666667","25.07345","6500200","三重區"
"241025","271-UM","2017/06/12 19:59:29","新北市三重區頂崁街210巷18號","121.476295","25.0678033333333","6500200","三重區"
"241007","398-BY","2017/06/12 19:59:32","新北市三重區溪尾街154號","121.488741666667","25.0799383333333","6500200","三重區"
"241020","412-TH","2017/06/12 19:59:16","新北市三重區三和路三段155號","121.492093333333","25.0736766666667","6500200","三重區"
"241004","475-VK","2017/06/12 19:59:15","新北市三重區五華街74號","121.493331666667","25.0820233333333","6500200","三重區"
"241019","478-VK","2017/06/12 19:59:26","新北市三重區重陽路四段14號","121.490615","25.0691783333333","6500200","三重區"
"241030","480-VK","2017/06/12 19:59:27","新北市三重區成功路112-1號","121.486631666667","25.052105","6500200","三重區"
"241023","545-UM","2017/06/12 19:59:22","新北市三重區頂崁街172號","121.477625","25.0659283333333","6500200","三重區"
"241001","547-UM","2017/06/12 19:59:26","新北市三重區仁愛街269巷56號","121.49455","25.079685","6500200","三重區"
"241006","AAD-863","2017/06/12 19:59:18","新北市三重區力行路二段138號","121.48253","25.075885","6500200","三重區"
"241035","743-BX","2017/06/12 19:59:18","新北市三重區大榮街11號","121.49815","25.063265","6500200","三重區"
"241012","887-TS","2017/06/12 19:59:17","新北市三重區河邊北街284號","121.50137","25.0770033333333","6500200","三重區"
"241029","942-UM","2017/06/12 19:27:27","新北市三重區中正南路260-1號","121.493203333333","25.05307","6500200","三重區"
"235066","003-UY","2017/06/12 19:59:36","新北市中和區光華街32號","121.504865","25.004045","6500300","中和區"
"235064","005-UY","2017/06/12 19:59:20","新北市中和區南山路60-1號","121.502041666667","24.9970833333333","6500300","中和區"
"235063","006-UY","2017/06/12 19:59:17","新北市中和區連城路263巷17號","121.492533333333","24.9951033333333","6500300","中和區"
"235056","096-UM","2017/06/12 19:59:32","新北市中和區中山路三段170巷4弄1號","121.472783333333","25.006985","6500300","中和區"
"235039","097-UM","2017/06/12 19:59:33","新北市中和區大勇街25巷2號","121.517193333333","24.9932633333333","6500300","中和區"
"235065","098-UM","2017/06/12 19:59:16","新北市中和區中山路二段187號","121.50028","25.0027383333333","6500300","中和區"
"235040","150-BY","2017/06/12 19:59:27","新北市中和區保健路10巷3弄1號","121.507798333333","24.9977166666667","6500300","中和區"
"235058","151-BY","2017/06/12 19:59:30","新北市中和區員山路159號","121.481128333333","24.99654","6500300","中和區"
"235055","183-VK","2017/06/12 19:59:22","新北市中和區德光路27巷11號","121.471006666667","25.003555","6500300","中和區"
"235038","185-VK","2017/06/12 19:59:20","新北市中和區大智街55巷30弄32號","121.521621666667","24.9932183333333","6500300","中和區"
"235049","186-VK","2017/06/12 19:59:16","新北市中和區景平路385巷47號","121.501773333333","24.994345","6500300","中和區"
"235067","255-BX","2017/06/12 19:59:27","新北市中和區中正路751巷3弄5號","121.484393333333","24.99946","6500300","中和區"
"235044","293-VK","2017/06/12 19:59:37","新北市中和區南山路417號","121.507318333333","24.98953","6500300","中和區"
"235072","301-VK","2017/06/12 19:59:23","新北市五股區新城三路61號","121.44909","25.09371","6500300","中和區"
"235043","352-BY","2017/06/12 19:59:26","新北市中和區興南路二段159巷7號","121.505255","24.983085","6500300","中和區"
"235051","376-QA","2017/06/12 19:59:20","新北市中和區中興街161巷2弄10號","121.500133333333","24.9907133333333","6500300","中和區"
"235068","377-QA","2017/06/12 19:59:36","新北市中和區永和路8巷21號","121.500926666667","25.00352","6500300","中和區"
"235061","378-QA","2017/06/12 19:59:17","新北市中和區員山路271-1號","121.481358333333","24.999345","6500300","中和區"
"235050","4979-A6","2017/06/12 19:59:23","新北市中和區景平路241巷87號","121.507336666667","24.9919466666667","6500300","中和區"
"235069","4980-A6","2017/06/12 19:59:25","新北市中和區圓通路76號","121.500093333333","24.997145","6500300","中和區"
"235070","558-UM","2017/06/12 19:54:40","新北市中和區景平路634-20號","121.49811","25.0002566666667","6500300","中和區"
"235054","640-BX","2017/06/12 19:59:17","新北市中和區莒光路63-1號","121.47232","25.0040916666667","6500300","中和區"
"235060","647-TV","2017/06/12 19:59:32","新北市中和區新生街30巷23號","121.482265","25.00372","6500300","中和區"
"235047","732-UM","2017/06/12 19:08:11","新北市中和區興南路二段34巷75號","121.505115","24.9849516666667","6500300","中和區"
"235046","733-UM","2017/06/12 19:59:34","新北市中和區興南路一段61號","121.51039","24.989665","6500300","中和區"
"235057","801-TS","2017/06/12 19:59:18","新北市中和區員山路150-24號","121.48136","24.9980483333333","6500300","中和區"
"235052","805-TS","2017/06/12 19:59:21","新北市中和區華新街87號","121.508443333333","24.983465","6500300","中和區"
"235048","896-TW","2017/06/12 19:59:29","新北市中和區興南路一段53號","121.510855","24.99022","6500300","中和區"
"235053","900-TW","2017/06/12 19:59:37","新北市中和區國光街189巷24號","121.467721666667","25.0008833333333","6500300","中和區"
"235041","157-BY","2017/06/12 19:59:23","新北市中和區永貞路249巷12號","121.512513333333","25.0036716666667","6500300","中和區"
"235037","AAC-213","2017/06/12 19:59:15","新北市永和區成功路二段217巷3號","121.526621666667","24.9956433333333","6500300","中和區"
"235059","AAC-215","2017/06/12 19:59:30","新北市中和區圓通路335巷13號","121.493491666667","24.9896","6500300","中和區"
"220068","013-TV","2017/06/12 19:59:34","新北市板橋區光復街177號","121.485","25.0208716666667","6500100","板橋區"
"220065","072-UY","2017/06/12 19:59:22","新北市板橋區國泰街21號","121.469218333333","25.0067216666667","6500100","板橋區"
"220086","073-UY","2017/06/12 19:59:35","新北市板橋區中正路236巷120號","121.45951","25.0196383333333","6500100","板橋區"
"220106","075-UY","2017/06/12 19:59:34","新北市板橋區民治街96巷12號","121.47873","25.0320183333333","6500100","板橋區"
"220096","120-SR","2017/06/12 19:59:22","新北市板橋區文化路一段370-1號","121.469815","25.0235683333333","6500100","板橋區"
"247020","893-R6","2017/06/12 19:59:27","新北市蘆洲區民義街59號","121.472896666667","25.089835","6501400","蘆洲區"
"247018","500-BY","2017/06/12 19:59:20","新北市蘆洲區民族路300號","121.477608333333","25.0898833333333","6501400","蘆洲區"
"247006","341-TH","2017/06/12 19:59:26","新北市蘆洲區九芎街115號","121.465525","25.0795416666667","6501400","蘆洲區"
"247008","339-TH","2017/06/12 19:59:21","新北市蘆洲區中山一路97巷30號","121.475833333333","25.0809416666667","6501400","蘆洲區"
"247024","337-TH","2017/06/12 19:59:22","新北市蘆洲區光榮路120巷8弄21號","121.46522","25.0882933333333","6501400","蘆洲區"
"247002","336-TH","2017/06/12 19:59:21","新北市蘆洲區永樂街31巷1號","121.458203333333","25.0876616666667","6501400","蘆洲區"
"247014","057-VK","2017/06/12 19:59:34","新北市蘆洲區成功路129號","121.472425","25.0821933333333","6501400","蘆洲區"
"247004","056-VK","2017/06/12 19:59:36","新北市蘆洲區環堤大道92號","121.45545","25.0851183333333","6501400","蘆洲區"
"247012","007-UY","2017/06/12 19:59:26","新北市蘆洲區民族路161號","121.47929","25.0881466666667","6501400","蘆洲區"
"247022","002-UY","2017/06/12 19:59:20","新北市蘆洲區中正路285號","121.466861666667","25.0879516666667","6501400","蘆洲區"
"247016","001-UY","2017/06/12 19:59:28","新北市蘆洲區光華路83號","121.467776666667","25.082545","6501400","蘆洲區"
"228003","097-TW","2017/06/12 19:59:25","新北市貢寮區仁理村仁和路220號","121.923906666667","25.0534816666667","6502600","貢寮區"
"224011","420-VK","2017/06/12 19:41:09","新北市瑞芳區崙頂路1-6號","121.84713","25.1047633333333","6501200","瑞芳區"
"227001","642-TC","2017/06/12 19:59:33","新北市雙溪區雙溪里長安街16號","121.864986666667","25.034685","6502500","雙溪區"
"227008","400-TW","2017/06/12 19:59:31","新北市雙溪區新基里朝陽街18號","121.865945","25.0386716666667","6502500","雙溪區"
"208001","742-BX","2017/06/12 19:59:35","新北市金山區南勢52號","121.627781666667","25.22054","6502700","金山區"
"208003","665-BX","2017/06/12 19:59:25","新北市金山區香園15號","121.634203333333","25.2531083333333","6502700","金山區"
"251009","008-UM","2017/06/12 19:51:45","新北市淡水區中山路34號","121.444425","25.169835","6501000","淡水區"
"251004","009-UM","2017/06/12 19:59:30","新北市淡水區民族路56號","121.461751666667","25.1360566666667","6501000","淡水區"
"251008","181-VK","2017/06/12 19:59:33","新北市淡水區中正路一段156巷57號","121.422211666667","25.1811983333333","6501000","淡水區"
"251013","182-VK","2017/06/12 19:59:30","新北市淡水區下圭柔山63-7號","121.4518","25.206185","6501000","淡水區"
"251010","413-VK","2017/06/12 19:59:35","新北市淡水區後洲路一段62號","121.429398333333","25.2017033333333","6501000","淡水區"
"251012","441-VK","2017/06/12 19:59:18","新北市淡水區下圭柔山96號","121.438586666667","25.2114283333333","6501000","淡水區"
"251015","442-VK","2017/06/12 19:59:31","新北市淡水區埤島80-7號","121.448591666667","25.1890383333333","6501000","淡水區"
"251005","443-VK","2017/06/12 19:59:30","新北市淡水區學府路136巷14號","121.451046666667","25.1728233333333","6501000","淡水區"
"251001","559-UM","2017/06/12 19:59:31","新北市淡水區新市二路四段265號","121.445711666667","25.1924966666667","6501000","淡水區"
"251006","561-UM","2017/06/12 19:59:28","新北市淡水區北新路8號","121.444456666667","25.17736","6501000","淡水區"
"251011","650-BX","2017/06/12 19:59:29","新北市淡水區崁頂55-3號","121.442258333333","25.19664","6501000","淡水區"
"207003","550-UM","2017/06/12 19:59:29","新北市萬里區大鵬里萬里加投64號","121.64128","25.2128933333333","6502800","萬里區"
"207004","225-TW","2017/06/12 19:59:34","新北市萬里區北基里忠二街39號","121.686018333333","25.1759783333333","6502800","萬里區"
"252002","178-VK","2017/06/12 19:59:31","新北市三芝區忠孝街116-3號","121.505518333333","25.2574633333333","6502100","三芝區"
"252001","292-VK","2017/06/12 19:59:16","新北市三芝區公正街9號","121.49973","25.25751","6502100","三芝區"
"208002","170-UY","2017/06/12 19:59:30","新北市金山區中正路134-1號","121.631905","25.220805","6502700","金山區"
"237004","078-UY","2017/06/12 19:59:31","新北市三峽區嘉添191號","121.369471666667","24.9114983333333","6500900","三峽區"
"237007","153-BY","2017/06/12 19:59:24","新北市三峽區二鬮路136巷20弄79號","121.358015","24.909255","6500900","三峽區"
"237009","210-TH","2017/06/12 19:59:37","新北市三峽區民權街183號","121.367853333333","24.929615","6500900","三峽區"
"237013","252-BX","2017/06/12 19:59:34","新北市三峽區溪北街44號","121.396946666667","24.9360483333333","6500900","三峽區"
"237012","275-BY","2017/06/12 19:59:30","新北市三峽區中華路3巷6-1號","121.374983333333","24.9313183333333","6500900","三峽區"
"237008","302-VK","2017/06/12 19:59:28","新北市三峽區中正路一段292巷23號","121.370498333333","24.9259416666667","6500900","三峽區"
"237014","433-BY","2017/06/12 19:59:18","新北市三峽區添福13-7號","121.372603333333","24.906955","6500900","三峽區"
"237006","5529-G3","2017/06/12 19:59:31","新北市三峽區中正路二段220號","121.364458333333","24.9137183333333","6500900","三峽區"
"237015","649-BX","2017/06/12 19:59:34","新北市三峽區橫溪路99巷24號","121.40009","24.9363966666667","6500900","三峽區"
"237005","AKY-6261","2017/06/12 19:59:28","新北市三峽區長泰街79-2號","121.375775","24.9330716666667","6500900","三峽區"
"236069","105-UM","2017/06/12 19:59:19","新北市土城區忠義路45巷2號","121.440981666667","24.9695066666667","6501300","土城區"
"236042","107-UM","2017/06/12 19:59:16","新北市土城區學府路一段143巷5號","121.453851666667","24.98593","6501300","土城區"
"236078","166-UM","2017/06/12 19:59:30","新北市土城區福安街104號","121.41739","24.9640583333333","6501300","土城區"
"236030","253-BX","2017/06/12 19:59:28","新北市土城區中央路一段250巷15號","121.443686666667","24.9848","6501300","土城區"
"236026","269-VK","2017/06/12 19:59:30","新北市土城區員林街71巷6號","121.44464","24.9772733333333","6501300","土城區"
"236014","270-VK","2017/06/12 19:59:24","新北市土城區廣福街123號","121.456263333333","24.9929166666667","6501300","土城區"
"236036","271-VK","2017/06/12 19:59:30","新北市土城區國際路139巷50號","121.468411666667","24.9774616666667","6501300","土城區"
"236020","401-BY","2017/06/12 19:59:27","新北市土城區峰廷街35號","121.469655","24.9863166666667","6501300","土城區"
"236058","912-UM","2017/06/12 19:59:24","新北市土城區中央路一段148號","121.446138333333","24.9874266666667","6501300","土城區"
"236048","913-UM","2017/06/12 19:59:30","新北市土城區金城路三段186號","121.468216666667","24.9879616666667","6501300","土城區"
"236062","915-UM","2017/06/12 19:59:32","新北市土城區金城路三段149巷4弄8號","121.468755","24.989065","6501300","土城區"
"236053","AAC-216","2017/06/12 19:59:18","新北市土城區延和路221號","121.469981666667","24.989565","6501300","土城區"
"242021","AAC-296","2017/06/12 19:59:26","新北市新莊區建中街16巷12號","121.44958","25.0381883333333","6500500","新莊區"
"242029","986-R7","2017/06/12 19:59:23","新北市新莊區中平路375號","121.444648333333","25.0523316666667","6500500","新莊區"
"242048","751-BX","2017/06/12 19:59:29","新北市新莊區四維路10號","121.423848333333","25.025165","6500500","新莊區"
"242058","705-TV","2017/06/12 19:59:22","新北市新莊區八德街120號","121.42402","25.0208583333333","6500500","新莊區"
"242025","615-BX","2017/06/12 19:59:21","新北市新莊區五工二路86巷35號","121.460526666667","25.0673566666667","6500500","新莊區"
"242023","613-BX","2017/06/12 19:59:18","新北市新莊區化成路374號","121.465836666667","25.0498033333333","6500500","新莊區"
"242027","612-BX","2017/06/12 19:59:19","新北市新莊區立信三街25-3號","121.442891666667","25.0502333333333","6500500","新莊區"
"242036","566-BX","2017/06/12 19:59:34","新北市新莊區建安街41巷3號","121.429098333333","25.0254333333333","6500500","新莊區"
"242042","497-BY","2017/06/12 19:59:32","新北市新莊區青山路一段30號","121.410783333333","25.027705","6500500","新莊區"
"242004","442-UM","2017/06/12 19:59:28","新北市新莊區化成路314巷4號","121.466433333333","25.0482433333333","6500500","新莊區"
"242050","440-UM","2017/06/12 19:59:33","新北市新莊區西盛街137號","121.428338333333","25.018555","6500500","新莊區"
"242034","413-TV","2017/06/12 19:59:29","新北市新莊區建中街84號","121.447218333333","25.03673","6500500","新莊區"
"242039","400-BY","2017/06/12 19:59:17","新北市新莊區民安路274號","121.42764","25.0214116666667","6500500","新莊區"
"242060","362-BY","2017/06/12 19:59:30","新北市新莊區瓊泰路1號","121.44508","25.0286","6500500","新莊區"
"242011","132-UY","2017/06/12 19:59:17","新北市新莊區中港路531巷90號","121.450036666667","25.0518166666667","6500500","新莊區"
"242019","135-UY","2017/06/12 19:59:35","新北市新莊區民生街24號","121.456046666667","25.0421666666667","6500500","新莊區"
"242044","172-VK","2017/06/12 19:59:20","新北市新莊區中正路746巷47號","121.411553333333","25.025395","6500500","新莊區"
"242007","173-VK","2017/06/12 19:59:23","新北市新莊區思源路585號","121.459765","25.0594233333333","6500500","新莊區"
"242013","175-VK","2017/06/12 19:59:34","新北市新莊區幸福路672號","121.45093","25.04951","6500500","新莊區"
"242056","176-VK","2017/06/12 19:59:23","新北市新莊區中正路347巷17弄4號","121.44734","25.0343666666667","6500500","新莊區"
"242031","346-TH","2017/06/12 19:59:37","新北市新莊區公園一路41號","121.443246666667","25.0356416666667","6500500","新莊區"
"242002","347-TH","2017/06/12 19:59:26","新北市新莊區中正路136號","121.45249","25.03617","6500500","新莊區"
"242017","348-TH","2017/06/12 19:59:22","新北市新莊區中華路二段45巷2號","121.453003333333","25.046575","6500500","新莊區"
"242015","350-TH","2017/06/12 19:59:30","新北市新莊區復興路一段33巷1號","121.446421666667","25.0420283333333","6500500","新莊區"
"238015","755-BX","2017/06/12 19:59:25","新北市樹林區大安路593號","121.411791666667","24.9829666666667","6500700","樹林區"
"238023","601-UM","2017/06/12 19:59:26","新北市樹林區三俊街2號","121.410616666667","25.01519","6500700","樹林區"
"238021","311-TH","2017/06/12 19:59:32","新北市樹林區佳園路三段181巷53號","121.388585","24.947225","6500700","樹林區"
"238025","303-VK","2017/06/12 19:59:18","新北市樹林區中山路二段168號","121.412146666667","24.982675","6500700","樹林區"
"238016","169-UY","2017/06/12 19:59:32","新北市樹林區中山路三段210-2號","121.38159","24.9655366666667","6500700","樹林區"
"239006","891-R6","2017/06/12 19:59:33","新北市鶯歌區中正二路8號","121.351705","24.95198","6500800","鶯歌區"
"239007","292-BY","2017/06/12 19:59:32","新北市鶯歌區大湖路338巷2號","121.34632","24.970835","6500800","鶯歌區"
"221036","130-UY","2017/06/12 19:59:27","新北市汐止區忠孝東路258巷11弄1號","121.663798333333","25.0672983333333","6501100","汐止區"
"221015","131-UY","2017/06/12 19:59:19","新北市汐止區橋東街11號","121.666671666667","25.0758266666667","6501100","汐止區"
"221010","269-BY","2017/06/12 19:59:24","新北市汐止區汐萬路一段333巷1號","121.64991","25.0762166666667","6501100","汐止區"
"221012","278-VK","2017/06/12 19:59:23","新北市汐止區大同路三段381-1號","121.675871666667","25.0724616666667","6501100","汐止區"
"221023","279-VK","2017/06/12 19:59:36","新北市汐止區明峰街190號","121.62807","25.06971","6501100","汐止區"
"221032","280-BY","2017/06/12 19:59:20","新北市汐止區力行街59巷7號","121.617241666667","25.0496116666667","6501100","汐止區"
"221027","281-BY","2017/06/12 19:59:31","新北市汐止區中正路68號","121.661741666667","25.06992","6501100","汐止區"
"221038","297-VK","2017/06/12 19:59:32","新北市汐止區忠孝東路325號","121.664905","25.06952","6501100","汐止區"
"221029","298-VK","2017/06/12 19:59:25","新北市汐止區樟樹一路137巷26號","121.640995","25.0661","6501100","汐止區"
"221021","299-VK","2017/06/12 19:58:55","新北市汐止區復興路58巷11弄2號","121.656061666667","25.0620316666667","6501100","汐止區"
"221035","622-UM","2017/06/12 19:59:25","新北市汐止區長江街13巷12弄21號","121.655096666667","25.0721916666667","6501100","汐止區"
"221025","623-UM","2017/06/12 19:59:18","新北市汐止區秀峰路109巷5號","121.660468333333","25.0634616666667","6501100","汐止區"
"221033","647-BX","2017/06/12 19:59:28","新北市汐止區東勢街102號","121.633835","25.0415966666667","6501100","汐止區"
"221002","707-TV","2017/06/12 19:59:26","新北市汐止區福德二路77-2號","121.633235","25.0659616666667","6501100","汐止區"
"221018","753-BX","2017/06/12 19:59:20","新北市汐止區茄苳路254號","121.671686666667","25.06831","6501100","汐止區"
"220079","145-BY","2017/06/12 19:59:27","新北市板橋區南雅西路二段145巷4號","121.451766666667","25.0117516666667","6500100","板橋區"
"220088","145-RM","2017/06/12 02:21:48","新北市板橋區溪城路90-2號","121.429076666667","24.9801366666667","6500100","板橋區"
"220082","610-BX","2017/06/12 19:59:26","新北市板橋區溪崑二街22巷2號","121.4287","24.991415","6500100","板橋區"
"220101","245-BX","2017/06/12 19:59:31","新北市板橋區縣民大道三段103巷10號","121.475936666667","25.022805","6500100","板橋區"
"220069","258-TC","2017/06/12 19:59:38","新北市板橋區南雅南路二段18號","121.454453333333","25.003415","6500100","板橋區"
"220094","267-BY","2017/06/12 19:59:20","新北市板橋區陽明街281號","121.462146666667","25.026325","6500100","板橋區"
"220072","277-BY","2017/06/12 19:59:35","新北市板橋區金門街215巷79號","121.434076666667","24.9893733333333","6500100","板橋區"
"220064","280-UM","2017/06/12 19:59:30","新北市板橋區區運路22號","121.465285","25.009415","6500100","板橋區"
"220071","283-VK","2017/06/12 19:59:25","新北市板橋區信義路279巷11號","121.462003333333","24.9894433333333","6500100","板橋區"
"220091","285-UM","2017/06/12 19:59:28","新北市板橋區懷德街174巷18弄4號","121.478833333333","25.0298266666667","6500100","板橋區"
"220053","285-VK","2017/06/12 19:59:20","新北市板橋區永豐街38-1號","121.47441","25.0174983333333","6500100","板橋區"
"220083","286-VK","2017/06/12 19:59:18","新北市板橋區僑中二街108巷1號","121.445801666667","25.0070783333333","6500100","板橋區"
"220081","287-VK","2017/06/12 19:59:37","新北市板橋區大觀路一段35巷7弄12號","121.450326666667","25.0070766666667","6500100","板橋區"
"220090","288-VK","2017/06/12 19:59:23","新北市板橋區綠堤街29號","121.455766666667","25.026455","6500100","板橋區"
"220061","293-UM","2017/06/12 19:59:37","新北市板橋區板新路136號","121.470811666667","25.0155433333333","6500100","板橋區"
"220084","296-UM","2017/06/12 19:59:31","新北市板橋區溪崑二街103巷2號","121.426826666667","24.988925","6500100","板橋區"
"220075","297-UM","2017/06/12 19:59:24","新北市板橋區中正路218號","121.455865","25.0184183333333","6500100","板橋區"
"220097","299-UM","2017/06/12 19:59:37","新北市板橋區建國街118號","121.460918333333","25.01751","6500100","板橋區"
"220062","305-R5","2017/06/12 19:59:33","新北市板橋區中山路二段416巷53號","121.483121666667","25.0192233333333","6500100","板橋區"
"220092","307-R5","2017/06/12 19:59:22","新北市板橋區四維路259巷48號","121.461155","25.0270933333333","6500100","板橋區"
"220098","317-R6","2017/06/12 19:59:28","新北市板橋區裕民街149號","121.458645","25.0270883333333","6500100","板橋區"
"220080","461-BY","2017/06/12 19:59:27","新北市板橋區大觀路二段163巷21號","121.44649","25.0001316666667","6500100","板橋區"
"220089","487-VK","2017/06/12 19:59:21","新北市板橋區龍泉街96-4號","121.456658333333","25.0250433333333","6500100","板橋區"
"220088","491-VK","2017/06/12 19:58:32","新北市板橋區大同街69號","121.479375","25.02794","6500100","板橋區"
"220035","560-BX","2017/06/12 19:59:36","新北市板橋區新生街29巷2弄7號","121.456888333333","25.0215416666667","6500100","板橋區"
"220103","561-BX","2017/06/12 19:59:35","新北市板橋區陽明街29巷1弄9號","121.464746666667","25.0214733333333","6500100","板橋區"
"220063","609-BX","2017/06/12 19:59:35","新北市板橋區中山路二段84-2號","121.474783333333","25.0161366666667","6500100","板橋區"
"220057","686-BX","2017/06/12 19:59:35","新北市板橋區信義路233-5號","121.459876666667","24.99124","6500100","板橋區"
"220093","689-BX","2017/06/12 19:59:20","新北市板橋區長江路二段269號","121.469638333333","25.0329533333333","6500100","板橋區"
"220054","741-BX","2017/06/12 19:59:29","新北市板橋區實踐路93巷38號","121.465545","25.0050983333333","6500100","板橋區"
"220055","827-TW","2017/06/12 19:59:32","新北市板橋區仁愛路62巷17弄1號","121.46003","24.9983","6500100","板橋區"
"220067","829-TW","2017/06/12 19:59:16","新北市板橋區中山路一段273號","121.469058333333","25.01346","6500100","板橋區"
"220102","830-TW","2017/06/12 19:59:33","新北市板橋區文聖街40巷4號","121.476223333333","25.0312083333333","6500100","板橋區"
"220074","895-R6","2017/06/12 19:59:23","新北市板橋區福德街37號","121.456091666667","25.008645","6500100","板橋區"
"220073","985-R7","2017/06/12 19:59:19","新北市板橋區大仁街91號","121.453356666667","25.015975","6500100","板橋區"
"220070","AAC-253","2017/06/12 19:59:21","新北市板橋區民族路83-1號","121.4658","25.008525","6500100","板橋區"
