"lineid","car","time","location","longitude","latitude","cityid","cityname"
"234046","148-BY","2017/06/12 20:09:25","新北市永和區林森路62號","121.523993333333","25.0040733333333","6500400","永和區"
"234013","149-BY","2017/06/12 20:09:14","新北市永和區永貞路415號","121.507366666667","25.0093283333333","6500400","永和區"
"234007","207-UY","2017/06/12 20:09:20","新北市永和區保生路24號","121.506651666667","25.007695","6500400","永和區"
"234081","298-R6","2017/06/12 20:09:27","新北市永和區永利路77號","121.521345","25.0037216666667","6500400","永和區"
"234038","336-UY","2017/06/12 20:09:22","新北市永和區成功路一段108號","121.526688333333","25.0026716666667","6500400","永和區"
"234064","337-UY","2017/06/12 20:09:26","新北市永和區永利路130號","121.521801666667","25.00304","6500400","永和區"
"234086","338-UY","2017/06/12 20:09:24","新北市永和區福和路191號","121.519683333333","25.0075966666667","6500400","永和區"
"234070","552-UM","2017/06/12 20:09:30","新北市永和區永亨路31號","121.519716666667","25.0062266666667","6500400","永和區"
"234054","553-UM","2017/06/12 20:09:22","新北市永和區博愛街9號","121.516951666667","25.015835","6500400","永和區"
"234017","745-BX","2017/06/12 20:09:15","新北市永和區文化路123號","121.512263333333","25.015335","6500400","永和區"
"234030","746-BX","2017/06/12 20:09:26","新北市永和區民族街67巷8號","121.518876666667","24.997115","6500400","永和區"
"234061","AAD-866","2017/06/12 20:09:28","新北市永和區中正路151巷14號","121.51563","24.9988483333333","6500400","永和區"
"234042","862-TW","2017/06/12 20:09:21","新北市永和區雙和街64巷22弄5-1號","121.509833333333","25.0029166666667","6500400","永和區"
"234050","863-TW","2017/06/12 20:09:30","新北市永和區新生路273巷1-1號","121.504938333333","25.0125816666667","6500400","永和區"
"234026","9371-KE","2017/06/12 20:09:19","新北市永和區水源街21巷14弄3號","121.511348333333","25.003755","6500400","永和區"
"234011","9373-KE","2017/06/12 20:09:17","新北市永和區仁愛路352巷136號","121.499935","25.00879","6500400","永和區"
"249005","172-UM","2017/06/12 20:09:23","新北市八里區下罟子59-1號","121.386226666667","25.136585","6502300","八里區"
"249001","173-UM","2017/06/12 20:09:34","新北市八里區中華路二段305-7號","121.403478333333","25.147925","6502300","八里區"
"249004","303-UY","2017/06/12 20:09:17","新北市八里區中山路一段217巷76號","121.41215","25.15767","6502300","八里區"
"249002","305-UY","2017/06/12 20:09:22","新北市八里區龍米路一段2-1號","121.458458333333","25.1140533333333","6502300","八里區"
"249003","593-UM","2017/06/12 20:09:31","新北市八里區中山路二段540巷26號","121.39718","25.1469683333333","6502300","八里區"
"248014","025-BX","2017/06/12 20:09:34","新北市五股區五福路6巷7號","121.434923333333","25.08845","6501500","五股區"
"248008","095-VK","2017/06/12 20:09:35","新北市五股區中興路一段1巷12弄23號","121.469393333333","25.07057","6501500","五股區"
"248018","225-UY","2017/06/12 20:09:18","新北市五股區登林路91-1號","121.421721666667","25.0716033333333","6501500","五股區"
"248012","247-BX","2017/06/12 19:19:54","新北市五股區中興路四段48巷19號","121.438556666667","25.08378","6501500","五股區"
"248016","261-SL","2017/06/12 20:09:32","新北市五股區成泰路三段577巷80弄72號","121.448906666667","25.104815","6501500","五股區"
"248010","272-BY","2017/06/12 20:09:24","新北市五股區成泰路一段7巷66號","121.43255","25.06789","6501500","五股區"
"248004","677-BX","2017/06/12 20:09:31","新北市五股區成泰路一段149號","121.435431666667","25.0732383333333","6501500","五股區"
"248002","678-BX","2017/06/12 20:09:32","新北市五股區成泰路三段280號","121.447318333333","25.0940833333333","6501500","五股區"
"234023","9380-KE","2017/06/12 20:09:27","新北市永和區永和路二段131號","121.515033333333","25.0121766666667","6500400","永和區"
"234077","969-R7","2017/06/12 20:09:29","新北市永和區中正路164號","121.515123333333","24.9967683333333","6500400","永和區"
"234074","AAC-211","2017/06/12 20:09:31","新北市永和區竹林路201巷24弄1號","121.52227","25.00973","6500400","永和區"
"234067","AAC-212","2017/06/12 20:09:30","新北市永和區保平路236巷24弄1號","121.508098333333","25.0068816666667","6500400","永和區"
"234003","AAC-295","2017/06/12 20:07:20","新北市永和區中正路605號","121.516321666667","25.009615","6500400","永和區"
"243013","AAD-798","2017/06/12 20:09:26","新北市泰山區明志路三段74巷25弄2號","121.423538333333","25.0416466666667","6501600","泰山區"
"243009","297-R6","2017/06/12 20:09:34","新北市泰山區泰林路二段116巷4弄1號","121.435153333333","25.0595183333333","6501600","泰山區"
"243015","380-SR","2017/06/12 20:09:25","新北市泰山區明志路一段432號","121.430483333333","25.0563133333333","6501600","泰山區"
"243014","421-VK","2017/06/12 20:09:20","新北市泰山區明志路一段98號","121.433473333333","25.0640083333333","6501600","泰山區"
"243010","548-UM","2017/06/12 20:09:25","新北市泰山區明志路二段136巷9號","121.426676666667","25.05138","6501600","泰山區"
"243011","549-UM","2017/06/12 20:09:31","新北市泰山區壽山路38號","121.420496666667","25.0290166666667","6501600","泰山區"
"243012","646-TV","2017/06/12 20:09:21","新北市泰山區楓江路48號","121.435145","25.06229","6501600","泰山區"
"243016","680-BX","2017/06/12 20:09:22","新北市泰山區明志路三段313號","121.422483333333","25.0359966666667","6501600","泰山區"
"222003","436-BY","2017/06/12 20:09:28","新北市深坑區埔新街65號","121.620188333333","25.00239","6501800","深坑區"
"222002","659-BX","2017/06/12 20:09:19","新北市深坑區北深路三段160號","121.602678333333","25.0035416666667","6501800","深坑區"
"222001","696-SL","2017/06/12 20:09:31","新北市深坑區北深路三段193號","121.601151666667","25.003745","6501800","深坑區"
"231041","002-UM","2017/06/12 20:09:37","新北市新店區中正路468號","121.533995","24.9795066666667","6500600","新店區"
"231056","0291-UT","2017/06/12 20:09:23","新北市新店區民權路42巷59弄3-1號","121.538265","24.98351","6500600","新店區"
"231059","046-UY","2017/06/12 20:09:32","新北市新店區安德街60巷27號","121.511101666667","24.9632066666667","6500600","新店區"
"231060","106-UY","2017/06/12 20:09:26","新北市新店區安康路三段206號","121.488793333333","24.9518066666667","6500600","新店區"
"231051","107-UY","2017/06/12 20:09:30","新北市新店區中央二街5巷3號","121.529068333333","24.9727916666667","6500600","新店區"
"231047","108-UY","2017/06/12 19:59:49","新北市新店區寶宏路24號","121.549326666667","24.975945","6500600","新店區"
"231052","187-VK","2017/06/12 20:09:30","新北市新店區新烏路三段寶島巷2弄3號","121.552048333333","24.8986366666667","6500600","新店區"
"231057","256-BX","2017/06/12 20:09:31","新北市新店區花園一路一段2號","121.55311","24.93244","6500600","新店區"
"231063","268-BY","2017/06/12 20:09:30","新北市新店區黎明路56巷2號","121.502343333333","24.9479683333333","6500600","新店區"
"231050","AAD-862","2017/06/12 20:09:22","新北市新店區中生路61號","121.56474","24.9522133333333","6500600","新店區"
"231055","3713-VJ","2017/06/12 20:09:37","新北市新店區中華路48巷11號","121.540181666667","24.968825","6500600","新店區"
"231067","4772-VM","2017/06/12 20:09:16","新北市新店區秀山路11巷12弄19號","121.531235","24.959655","6500600","新店區"
"231065","512-UM","2017/06/12 20:09:20","新北市新店區安祥路106巷141號","121.473348333333","24.958645","6500600","新店區"
"231054","513-UM","2017/06/12 20:09:28","新北市新店區檳榔路40號","121.541583333333","24.9637466666667","6500600","新店區"
"231064","515-UM","2017/06/12 20:09:29","新北市新店區安光路10-1號","121.513651666667","24.963995","6500600","新店區"
"231061","618-UM","2017/06/12 20:09:31","新北市新店區安興路102號","121.515228333333","24.9766383333333","6500600","新店區"
"231040","619-UM","2017/06/12 20:09:29","新北市新店區中正路106號","121.543108333333","24.9705916666667","6500600","新店區"
"231042","641-BX","2017/06/12 20:09:23","新北市新店區中興路二段192號","121.54837","24.9734183333333","6500600","新店區"
"231068","718-UY","2017/06/12 20:09:20","新北市新店區北新路一段100號","121.542191666667","24.9695066666667","6500600","新店區"
"231049","719-UM","2017/06/12 20:09:25","新北市新店區北新路二段139巷12弄2號","121.542163333333","24.976045","6500600","新店區"
"231062","720-UM","2017/06/12 20:09:18","新北市新店區安康路一段235-1號","121.525138333333","24.9632366666667","6500600","新店區"
"231044","897-TW","2017/06/12 20:09:32","新北市新店區寶元路一段15巷11號","121.541913333333","24.9871566666667","6500600","新店區"
"231045","898-TW","2017/06/12 20:09:24","新北市新店區北宜路一段201號","121.547361666667","24.9522033333333","6500600","新店區"
"231043","899-TW","2017/06/12 20:09:30","新北市新店區中正路319號","121.536311666667","24.9751033333333","6500600","新店區"
"231066","AKT-0513","2017/06/12 20:09:28","新北市新店區柴埕路21號","121.514245","24.9659066666667","6500600","新店區"
"241011","013-R5","2017/06/12 20:09:15","新北市三重區三和路三段49號","121.495475","25.0715383333333","6500200","三重區"
"241008","059-VK","2017/06/12 20:09:29","新北市三重區永福街197巷37弄5號","121.47809","25.0741866666667","6500200","三重區"
"241009","060-VK","2017/06/12 20:09:20","新北市三重區永福街123號","121.479078333333","25.077065","6500200","三重區"
"241031","061-VK","2017/06/12 20:09:20","新北市三重區過圳街9-1號","121.488766666667","25.0600933333333","6500200","三重區"
"241015","062-VK","2017/06/12 20:09:35","新北市三重區福德北路24號","121.502268333333","25.0649016666667","6500200","三重區"
"241017","063-VK","2017/06/12 20:09:32","新北市三重區自強路一段167號","121.492998333333","25.0672783333333","6500200","三重區"
"241024","065-VK","2017/06/12 20:09:30","新北市三重區中正北路294號","121.480361666667","25.06891","6500200","三重區"
"241026","066-VK","2017/06/12 20:09:17","新北市三重區福德南路65巷1號","121.502443333333","25.0605133333333","6500200","三重區"
"241002","090-VK","2017/06/12 20:09:21","新北市三重區仁忠街39號","121.495498333333","25.081805","6500200","三重區"
"241003","091-VK","2017/06/12 20:09:27","新北市三重區仁愛街447號","121.489998333333","25.0824333333333","6500200","三重區"
"241005","262-UM","2017/06/12 20:09:20","新北市三重區五華街180巷21號","121.48826","25.0856716666667","6500200","三重區"
"241028","265-UM","2017/06/12 20:09:33","新北市三重區仁化街137號","121.494676666667","25.05753","6500200","三重區"
"241016","266-UM","2017/06/12 20:09:21","新北市三重區大同北路91號","121.494696666667","25.063555","6500200","三重區"
"241022","267-UM","2017/06/12 20:09:19","新北市三重區新北大道一段15巷2號","121.48796","25.0607266666667","6500200","三重區"
"241018","268-UM","2017/06/12 20:09:23","新北市三重區雙園街57巷1號","121.495135","25.067625","6500200","三重區"
"241013","270-UM","2017/06/12 20:09:22","新北市三重區三和路三段139巷22號","121.493343333333","25.07393","6500200","三重區"
"241025","271-UM","2017/06/12 20:09:29","新北市三重區中正北路169號","121.478323333333","25.069335","6500200","三重區"
"241007","398-BY","2017/06/12 20:09:32","新北市三重區三和路四段111-12號","121.486758333333","25.077625","6500200","三重區"
"241020","412-TH","2017/06/12 20:09:36","新北市三重區忠孝路一段101號","121.48959","25.0721466666667","6500200","三重區"
"241004","475-VK","2017/06/12 20:09:15","新北市三重區仁愛街354號","121.49157","25.080225","6500200","三重區"
"241019","478-VK","2017/06/12 20:09:26","新北市三重區自強路二段47巷31號","121.49001","25.0699133333333","6500200","三重區"
"241030","480-VK","2017/06/12 20:09:27","新北市三重區成功路145巷11號","121.48726","25.0526966666667","6500200","三重區"
"241023","545-UM","2017/06/12 20:09:22","新北市三重區頂崁街220巷2號","121.476975","25.0681483333333","6500200","三重區"
"241001","547-UM","2017/06/12 20:09:26","新北市三重區溪尾街24號","121.490706666667","25.0762416666667","6500200","三重區"
"241006","AAD-863","2017/06/12 20:09:18","新北市三重區車路頭街139巷14號","121.484285","25.076175","6500200","三重區"
"241035","743-BX","2017/06/12 20:09:18","新北市三重區正義北路33巷8號","121.497925","25.06378","6500200","三重區"
"241012","887-TS","2017/06/12 20:09:37","新北市三重區仁興街56巷37號","121.498161666667","25.07567","6500200","三重區"
"241029","942-UM","2017/06/12 19:27:27","新北市三重區中正南路260-1號","121.493203333333","25.05307","6500200","三重區"
"235066","003-UY","2017/06/12 20:09:17","新北市中和區中山路二段3巷54號","121.507463333333","25.00482","6500300","中和區"
"235039","097-UM","2017/06/12 20:09:33","新北市中和區景平路278巷14弄21號","121.514893333333","24.9933316666667","6500300","中和區"
"235065","098-UM","2017/06/12 20:09:16","新北市中和區福祥路98號","121.499128333333","25.006025","6500300","中和區"
"235040","150-BY","2017/06/12 20:09:26","新北市中和區保健路33巷5號","121.508933333333","24.9980166666667","6500300","中和區"
"235058","151-BY","2017/06/12 20:09:30","新北市中和區員山路150巷2弄2號","121.481633333333","24.9982833333333","6500300","中和區"
"235055","183-VK","2017/06/12 20:09:22","新北市中和區民生街23巷3弄2號","121.471093333333","25.0050466666667","6500300","中和區"
"235038","185-VK","2017/06/12 20:09:20","新北市中和區自立路7號","121.522515","24.99651","6500300","中和區"
"235044","293-VK","2017/06/12 20:09:17","新北市中和區中正路1號","121.503445","24.99346","6500300","中和區"
"235072","301-VK","2017/06/12 20:09:23","新北市八里區下罟子17號","121.37969","25.1430616666667","6500300","中和區"
"235051","376-QA","2017/06/12 20:09:20","新北市中和區景安路227號","121.504258333333","24.991245","6500300","中和區"
"235068","377-QA","2017/06/12 20:09:32","新北市中和區福美路301巷14號","121.49748","25.0043283333333","6500300","中和區"
"235050","4979-A6","2017/06/12 20:07:23","新北市中和區景平路155巷24號","121.513461666667","24.9915016666667","6500300","中和區"
"235069","4980-A6","2017/06/12 20:09:25","新北市中和區南山路81巷61-1號","121.504281666667","24.997955","6500300","中和區"
"235070","558-UM","2017/06/12 20:09:20","新北市中和區景平路495-4號","121.49996","24.9982866666667","6500300","中和區"
"235054","640-BX","2017/06/12 20:09:28","新北市中和區莒光路132號","121.472475","25.0014933333333","6500300","中和區"
"235046","733-UM","2017/06/12 20:09:34","新北市中和區興南路一段105巷20弄9號","121.510313333333","24.9854483333333","6500300","中和區"
"235052","805-TS","2017/06/12 20:09:21","新北市中和區華新街95號","121.508703333333","24.9831","6500300","中和區"
"235048","896-TW","2017/06/12 20:09:29","新北市中和區景新街487號","121.51361","24.9873866666667","6500300","中和區"
"235041","157-BY","2017/06/12 20:09:23","新北市中和區永貞路292號","121.512633333333","25.00425","6500300","中和區"
"235037","AAC-213","2017/06/12 20:09:35","新北市中和區秀朗路三段10巷29弄3號","121.52513","24.9960916666667","6500300","中和區"
"235059","AAC-215","2017/06/12 20:09:30","新北市中和區圓通路335巷37弄12號","121.49374","24.988845","6500300","中和區"
"220068","013-TV","2017/06/12 20:09:34","新北市板橋區中山路二段284號","121.479531666667","25.018795","6500100","板橋區"
"220065","072-UY","2017/06/12 20:09:26","新北市板橋區國泰街39巷9弄11號","121.468888333333","25.005415","6500100","板橋區"
"220086","073-UY","2017/06/12 20:09:35","新北市板橋區中正路9號","121.456128333333","25.0120433333333","6500100","板橋區"
"220106","075-UY","2017/06/12 20:09:34","新北市板橋區文聖街11巷14號","121.475755","25.0325883333333","6500100","板橋區"
"220096","120-SR","2017/06/12 20:09:22","新北市板橋區莒光路15巷8號","121.470141666667","25.0252","6500100","板橋區"
"247020","893-R6","2017/06/12 20:09:28","新北市蘆洲區民權路106巷5弄2-1號","121.474416666667","25.0890683333333","6501400","蘆洲區"
"247010","546-UM","2017/06/12 20:09:20","新北市蘆洲區集賢路406號","121.480066666667","25.0817633333333","6501400","蘆洲區"
"247018","500-BY","2017/06/12 20:09:20","新北市蘆洲區民族路346號","121.47651","25.090665","6501400","蘆洲區"
"247006","341-TH","2017/06/12 20:09:25","新北市蘆洲區中山二路309號","121.46893","25.0773283333333","6501400","蘆洲區"
"247008","339-TH","2017/06/12 20:09:21","新北市蘆洲區集賢路300號","121.481535","25.08526","6501400","蘆洲區"
"247024","337-TH","2017/06/12 20:09:22","新北市蘆洲區光明路88巷3號","121.463115","25.08757","6501400","蘆洲區"
"247002","336-TH","2017/06/12 20:09:21","新北市蘆洲區長安街246巷23號","121.458196666667","25.08637","6501400","蘆洲區"
"247014","057-VK","2017/06/12 20:09:13","新北市蘆洲區中山二路263號","121.469741666667","25.0796133333333","6501400","蘆洲區"
"247004","056-VK","2017/06/12 20:09:29","新北市蘆洲區長安街267巷32號","121.457088333333","25.0832033333333","6501400","蘆洲區"
"247012","007-UY","2017/06/12 20:09:26","新北市蘆洲區中興街15巷42號","121.480031666667","25.088535","6501400","蘆洲區"
"247022","002-UY","2017/06/12 20:09:30","新北市蘆洲區三民路175號","121.470916666667","25.08726","6501400","蘆洲區"
"247016","001-UY","2017/06/12 20:09:28","新北市蘆洲區光華路150巷10弄2號","121.46566","25.08266","6501400","蘆洲區"
"224011","420-VK","2017/06/12 20:09:29","新北市瑞芳區汽車路97號","121.842533333333","25.109365","6501200","瑞芳區"
"208003","665-BX","2017/06/12 20:09:25","新北市金山區香園9號","121.634541666667","25.2511783333333","6502700","金山區"
"251009","008-UM","2017/06/12 20:07:25","新北市淡水區清水街5號","121.445061666667","25.17029","6501000","淡水區"
"251004","009-UM","2017/06/12 20:00:10","新北市淡水區民族路31-17號","121.461581666667","25.136315","6501000","淡水區"
"251008","181-VK","2017/06/12 20:09:33","新北市淡水區淡海路72巷33弄6號","121.4244","25.1827483333333","6501000","淡水區"
"251013","182-VK","2017/06/12 20:09:30","新北市淡水區奎柔山路486號","121.464438333333","25.204835","6501000","淡水區"
"251010","413-VK","2017/06/12 20:09:35","新北市淡水區新市二路二段112號","121.428311666667","25.1952","6501000","淡水區"
"251012","441-VK","2017/06/12 20:09:31","新北市淡水區淡金路三段185號","121.448636666667","25.204465","6501000","淡水區"
"251015","442-VK","2017/06/12 20:09:31","新北市淡水區商工路149號","121.447375","25.1888333333333","6501000","淡水區"
"251005","443-VK","2017/06/12 20:09:30","新北市淡水區學府路136巷20號","121.451255","25.1727716666667","6501000","淡水區"
"251001","559-UM","2017/06/12 20:09:31","新北市淡水區新市二路四段265號","121.445921666667","25.1924916666667","6501000","淡水區"
"251006","561-UM","2017/06/12 20:09:28","新北市淡水區北新路141巷29號","121.448163333333","25.1796416666667","6501000","淡水區"
"251002","672-BX","2017/06/12 20:09:17","新北市淡水區中正路26巷3號","121.434763333333","25.1737466666667","6501000","淡水區"
"251003","766-UM","2017/06/12 20:09:29","新北市淡水區中山北路一段271號","121.444626666667","25.1812866666667","6501000","淡水區"
"207003","550-UM","2017/06/12 20:09:29","新北市萬里區大鵬里萬里加投205-5號","121.64326","25.2157833333333","6502800","萬里區"
"207004","225-TW","2017/06/12 20:09:34","新北市萬里區北基里愛三街11號","121.681843333333","25.176675","6502800","萬里區"
"252002","178-VK","2017/06/12 20:09:31","新北市三芝區忠孝街116-3號","121.505485","25.25748","6502100","三芝區"
"252001","292-VK","2017/06/12 20:09:16","新北市三芝區公正街66號","121.499806666667","25.2574533333333","6502100","三芝區"
"208002","170-UY","2017/06/12 20:09:37","新北市金山區中華路136-9號","121.63287","25.21968","6502700","金山區"
"237007","153-BY","2017/06/12 20:09:24","新北市三峽區二鬮路136巷24弄3號","121.355848333333","24.91017","6500900","三峽區"
"237012","275-BY","2017/06/12 20:09:30","新北市三峽區中華路48巷16號","121.37107","24.9301383333333","6500900","三峽區"
"237008","302-VK","2017/06/12 20:09:29","新北市三峽區中華路59號","121.372456666667","24.9304716666667","6500900","三峽區"
"237014","433-BY","2017/06/12 20:09:18","新北市三峽區中正路一段29號","121.37585","24.9306933333333","6500900","三峽區"
"237006","5529-G3","2017/06/12 20:09:31","新北市三峽區嘉添227-46號","121.370633333333","24.91161","6500900","三峽區"
"237015","649-BX","2017/06/12 20:09:33","新北市三峽區介壽路二段138巷45-2號","121.395235","24.9330733333333","6500900","三峽區"
"237005","AKY-6261","2017/06/12 20:09:28","新北市三峽區民生街1巷5-96號","121.37963","24.9354266666667","6500900","三峽區"
"236069","105-UM","2017/06/12 20:09:19","新北市土城區中央路三段130-4號","121.43438","24.96578","6501300","土城區"
"236042","107-UM","2017/06/12 20:09:16","新北市土城區學府路一段164巷6弄1號","121.453598333333","24.9874633333333","6501300","土城區"
"236078","166-UM","2017/06/12 20:09:26","新北市土城區中山路47號","121.420666666667","24.9628816666667","6501300","土城區"
"236030","253-BX","2017/06/12 20:09:28","新北市土城區中央路一段118巷1弄19號","121.445623333333","24.9875583333333","6501300","土城區"
"236026","269-VK","2017/06/12 20:09:30","新北市土城區裕生路106號","121.446656666667","24.98462","6501300","土城區"
"236014","270-VK","2017/06/12 20:09:24","新北市土城區廣興街39號","121.455063333333","24.99146","6501300","土城區"
"236036","271-VK","2017/06/12 20:09:32","新北市土城區國際路12號","121.465413333333","24.9798433333333","6501300","土城區"
"236020","401-BY","2017/06/12 20:09:27","新北市土城區延吉街66號","121.47126","24.9867383333333","6501300","土城區"
"236058","912-UM","2017/06/12 20:09:24","新北市土城區中央路一段303號","121.44389","24.983525","6501300","土城區"
"236048","913-UM","2017/06/12 20:09:30","新北市土城區金城路三段19號","121.465088333333","24.986375","6501300","土城區"
"236062","915-UM","2017/06/12 20:09:32","新北市土城區金城路三段73巷9弄13號","121.465888333333","24.9874816666667","6501300","土城區"
"236053","AAC-216","2017/06/12 20:09:16","新北市土城區學府路一段46號","121.457816666667","24.9884816666667","6501300","土城區"
"242021","AAC-296","2017/06/12 20:09:33","新北市新莊區建中街23號","121.44892","25.0373333333333","6500500","新莊區"
"242029","986-R7","2017/06/12 20:09:23","新北市新莊區中原路349號","121.445066666667","25.0543433333333","6500500","新莊區"
"242048","751-BX","2017/06/12 20:09:29","新北市新莊區四維路152巷20號","121.422145","25.0228416666667","6500500","新莊區"
"242058","705-TV","2017/06/12 20:09:22","新北市新莊區龍安路280號","121.422341666667","25.0190916666667","6500500","新莊區"
"242025","615-BX","2017/06/12 20:09:22","新北市新莊區五工三路80號","121.459046666667","25.0650516666667","6500500","新莊區"
"242023","613-BX","2017/06/12 20:09:18","新北市新莊區化成路546號","121.466228333333","25.0536516666667","6500500","新莊區"
"242027","612-BX","2017/06/12 20:09:19","新北市新莊區幸福路818號","121.44551","25.04909","6500500","新莊區"
"242036","566-BX","2017/06/12 20:09:34","新北市新莊區建安街9巷5號","121.429126666667","25.0267133333333","6500500","新莊區"
"242042","497-BY","2017/06/12 20:09:33","新北市新莊區青山路一段171號","121.401403333333","25.0297566666667","6500500","新莊區"
"242004","442-UM","2017/06/12 20:09:28","新北市新莊區頭前路97號","121.464988333333","25.0525383333333","6500500","新莊區"
"242046","441-UM","2017/06/12 20:09:28","新北市新莊區裕民街55巷5號","121.419201666667","25.0239016666667","6500500","新莊區"
"242050","440-UM","2017/06/12 20:09:33","新北市新莊區民安西路172巷2弄2號","121.425841666667","25.01598","6500500","新莊區"
"242034","413-TV","2017/06/12 20:09:29","新北市新莊區中正路318巷18號","121.446385","25.0360283333333","6500500","新莊區"
"242039","400-BY","2017/06/12 20:09:17","新北市新莊區龍安路497號","121.425911666667","25.0179283333333","6500500","新莊區"
"242060","362-BY","2017/06/12 20:09:30","新北市新莊區瓊林路瓊英巷1弄1號","121.443841666667","25.027265","6500500","新莊區"
"242011","132-UY","2017/06/12 20:09:28","新北市新莊區中信街48號","121.449501666667","25.0508583333333","6500500","新莊區"
"242019","135-UY","2017/06/12 20:09:35","新北市新莊區思源路131號","121.459775","25.0431216666667","6500500","新莊區"
"242044","172-VK","2017/06/12 20:09:20","新北市新莊區中正路929巷7弄9號","121.41141","25.020495","6500500","新莊區"
"242007","173-VK","2017/06/12 20:09:23","新北市新莊區福壽街184巷19號","121.459228333333","25.0532466666667","6500500","新莊區"
"242013","175-VK","2017/06/12 20:09:34","新北市新莊區幸福路710巷6弄2號","121.450101666667","25.0495966666667","6500500","新莊區"
"242056","176-VK","2017/06/12 20:09:23","新北市新莊區新豐街26號","121.44805","25.0343133333333","6500500","新莊區"
"242031","346-TH","2017/06/12 20:09:24","新北市新莊區公園一路40號","121.44333","25.03556","6500500","新莊區"
"242002","347-TH","2017/06/12 20:09:26","新北市新莊區中正路33號","121.463963333333","25.0409866666667","6500500","新莊區"
"242017","348-TH","2017/06/12 20:09:22","新北市新莊區中港路352號","121.451725","25.0467633333333","6500500","新莊區"
"242015","350-TH","2017/06/12 20:09:30","新北市新莊區中平路26巷25號","121.446213333333","25.0433183333333","6500500","新莊區"
"238023","601-UM","2017/06/12 20:09:26","新北市樹林區大安路576號","121.411751666667","24.9835716666667","6500700","樹林區"
"238021","311-TH","2017/06/12 20:09:32","新北市樹林區佳園路三段101巷38弄36號","121.392128333333","24.9489833333333","6500700","樹林區"
"238025","303-VK","2017/06/12 20:09:18","新北市樹林區中山路三段214號","121.380108333333","24.9678866666667","6500700","樹林區"
"238016","169-UY","2017/06/12 20:09:32","新北市樹林區中山路三段204號","121.387258333333","24.9683166666667","6500700","樹林區"
"239006","891-R6","2017/06/12 20:09:33","新北市鶯歌區文化路42號","121.356765","24.9549716666667","6500800","鶯歌區"
"221036","130-UY","2017/06/12 20:09:23","新北市汐止區新台五路二段23號","121.662678333333","25.0661916666667","6501100","汐止區"
"221015","131-UY","2017/06/12 20:09:19","新北市汐止區建成路19號","121.664421666667","25.0725683333333","6501100","汐止區"
"221010","269-BY","2017/06/12 20:09:24","新北市汐止區連峰街233號","121.645461666667","25.08116","6501100","汐止區"
"221012","278-VK","2017/06/12 20:09:34","新北市汐止區汐平路一段170-1號","121.689981666667","25.066425","6501100","汐止區"
"221023","279-VK","2017/06/12 20:08:56","新北市汐止區明峰街298巷4號","121.625138333333","25.0683133333333","6501100","汐止區"
"221032","280-BY","2017/06/12 20:09:20","新北市汐止區弘道街10號","121.617","25.0486033333333","6501100","汐止區"
"221027","281-BY","2017/06/12 20:09:33","新北市汐止區中正路127號","121.660243333333","25.06935","6501100","汐止區"
"221038","297-VK","2017/06/12 20:09:32","新北市汐止區忠孝東路475號","121.665988333333","25.0731266666667","6501100","汐止區"
"221029","298-VK","2017/06/12 20:09:25","新北市汐止區樟樹一路123巷17號","121.641305","25.064645","6501100","汐止區"
"221021","299-VK","2017/06/12 20:09:35","新北市汐止區水源路一段188號","121.65487","25.06173","6501100","汐止區"
"221035","622-UM","2017/06/12 20:09:19","新北市汐止區長江街57巷16號","121.656121666667","25.0721166666667","6501100","汐止區"
"221025","623-UM","2017/06/12 20:09:18","新北市汐止區秀峰路62號","121.65978","25.0646683333333","6501100","汐止區"
"221033","647-BX","2017/06/12 20:09:28","新北市汐止區東勢街201巷104號","121.633633333333","25.0429383333333","6501100","汐止區"
"221002","707-TV","2017/06/12 20:09:26","新北市汐止區福德二路77-2號","121.6333","25.0659383333333","6501100","汐止區"
"221018","753-BX","2017/06/12 20:09:20","新北市汐止區茄福街35巷33號","121.673345","25.0662916666667","6501100","汐止區"
"220079","145-BY","2017/06/12 20:09:27","新北市五股區成泰路一段90號","121.437398333333","25.06978","6500100","板橋區"
"220088","145-RM","2017/06/12 02:21:48","新北市板橋區溪城路90-2號","121.429076666667","24.9801366666667","6500100","板橋區"
"220082","610-BX","2017/06/12 20:09:26","新北市板橋區篤行路二段120-3號","121.431275","24.99087","6500100","板橋區"
"220101","245-BX","2017/06/12 20:09:31","新北市板橋區萬板路163號","121.473988333333","25.02375","6500100","板橋區"
"220069","258-TC","2017/06/12 20:09:18","新北市板橋區大明街20巷19弄4號","121.458488333333","25.0033383333333","6500100","板橋區"
"220072","277-BY","2017/06/12 20:09:15","新北市板橋區金門街180-3號","121.43274","24.9909833333333","6500100","板橋區"
"220064","280-UM","2017/06/12 20:09:30","新北市板橋區長安街331巷22-2號","121.473973333333","25.0125133333333","6500100","板橋區"
"220071","283-VK","2017/06/12 20:09:25","新北市板橋區五權街32巷4號","121.464721666667","24.9931816666667","6500100","板橋區"
"220053","285-VK","2017/06/12 20:09:35","新北市板橋區懷仁街85號","121.477416666667","25.0183116666667","6500100","板橋區"
"220083","286-VK","2017/06/12 20:09:18","新北市板橋區僑中二街40號","121.445135","25.010825","6500100","板橋區"
"220081","287-VK","2017/06/12 20:09:31","新北市板橋區僑中一街80巷1弄1號","121.447573333333","25.011865","6500100","板橋區"
"220090","288-VK","2017/06/12 20:09:23","新北市板橋區幸福路32巷4弄10號","121.461245","25.021445","6500100","板橋區"
"220061","293-UM","2017/06/12 20:09:20","新北市板橋區中山路一段295號","121.471158333333","25.0145416666667","6500100","板橋區"
"220084","296-UM","2017/06/12 20:09:19","新北市板橋區滿平街2巷25號","121.425378333333","24.9893983333333","6500100","板橋區"
"220075","297-UM","2017/06/12 20:09:24","新北市板橋區金華街10巷48弄39號","121.458405","25.02012","6500100","板橋區"
"220097","299-UM","2017/06/12 20:09:33","新北市板橋區漢生西路17號","121.463665","25.0181283333333","6500100","板橋區"
"220062","305-R5","2017/06/12 20:06:55","新北市板橋區萬安街85巷18號","121.484241666667","25.0253433333333","6500100","板橋區"
"220092","307-R5","2017/06/12 20:09:22","新北市板橋區文化路一段139號","121.461916666667","25.0156133333333","6500100","板橋區"
"220098","317-R6","2017/06/12 20:09:28","新北市板橋區漢生西路159號","121.463041666667","25.023525","6500100","板橋區"
"220080","461-BY","2017/06/12 20:09:31","新北市板橋區大觀路二段179巷4號","121.445126666667","24.9999883333333","6500100","板橋區"
"220089","487-VK","2017/06/12 20:09:21","新北市板橋區新海路403巷12號","121.458028333333","25.0265233333333","6500100","板橋區"
"220088","491-VK","2017/06/12 20:09:32","新北市板橋區民治街51巷1號","121.479078333333","25.033745","6500100","板橋區"
"220103","561-BX","2017/06/12 20:09:28","新北市板橋區自由路26巷12號","121.466168333333","25.0225783333333","6500100","板橋區"
"220057","686-BX","2017/06/12 20:09:28","新北市板橋區四川路二段130巷8號","121.449915","24.9938883333333","6500100","板橋區"
"220093","689-BX","2017/06/12 20:09:26","新北市板橋區長江路三段68號","121.473818333333","25.0340283333333","6500100","板橋區"
"220054","741-BX","2017/06/12 20:09:30","新北市板橋區實踐路93巷18號","121.464735","25.0054","6500100","板橋區"
"220055","827-TW","2017/06/12 20:09:31","新北市板橋區仁愛路86巷20號","121.461078333333","24.9987366666667","6500100","板橋區"
"220067","829-TW","2017/06/12 20:09:16","新北市板橋區中山路一段295號","121.471108333333","25.0144633333333","6500100","板橋區"
"220102","830-TW","2017/06/12 20:09:18","新北市板橋區民治街136號","121.4776","25.030865","6500100","板橋區"
"220074","895-R6","2017/06/12 20:09:23","新北市板橋區府中路29-2號","121.458566666667","25.0080533333333","6500100","板橋區"
"220073","985-R7","2017/06/12 20:09:19","新北市板橋區南雅西路二段82號","121.452536666667","25.0109383333333","6500100","板橋區"
"220070","AAC-253","2017/06/12 20:09:36","新北市板橋區成都街12號","121.460338333333","25.0047933333333","6500100","板橋區"
