"lineid","car","time","location","longitude","latitude","cityid","cityname"
"234081","298-R6","2017/06/12 20:39:17","新北市永和區福和路59號","121.522998333333","25.0079133333333","6500400","永和區"
"234038","336-UY","2017/06/12 20:39:22","新北市永和區環河東路四段38號","121.528673333333","24.9989416666667","6500400","永和區"
"234064","337-UY","2017/06/12 20:39:26","新北市永和區林森路64號","121.523925","25.0040833333333","6500400","永和區"
"234086","338-UY","2017/06/12 20:39:17","新北市永和區光復街21號","121.516525","25.0174316666667","6500400","永和區"
"234030","746-BX","2017/06/12 20:39:26","新北市新店區安德街148巷35號","121.506993333333","24.9612","6500400","永和區"
"234061","AAD-866","2017/06/12 20:39:28","新北市永和區安樂路194巷27號","121.51618","25.0009216666667","6500400","永和區"
"234042","862-TW","2017/06/12 20:39:21","新北市永和區福和路244號","121.518765","25.0077733333333","6500400","永和區"
"234050","863-TW","2017/06/12 20:39:30","新北市永和區保安路134號","121.508635","25.0154116666667","6500400","永和區"
"249001","173-UM","2017/06/12 20:39:34","新北市八里區中山路三段382號","121.36863","25.1358516666667","6502300","八里區"
"249004","303-UY","2017/06/12 20:39:18","新北市八里區中山路一段151號","121.412805","25.1589533333333","6502300","八里區"
"249002","305-UY","2017/06/12 20:39:22","新北市八里區龍米路二段123號","121.446716666667","25.1445316666667","6502300","八里區"
"234023","9380-KE","2017/06/12 20:39:27","新北市永和區竹林路23號","121.517156666667","25.014695","6500400","永和區"
"234074","AAC-211","2017/06/12 20:39:31","新北市永和區竹林路37號","121.517878333333","25.0141816666667","6500400","永和區"
"234067","AAC-212","2017/06/12 20:39:30","新北市永和區保平路268巷22號","121.507728333333","25.0062216666667","6500400","永和區"
"243014","421-VK","2017/06/12 20:39:19","新北市泰山區泰林路三段745巷145號","121.405633333333","25.0677033333333","6501600","泰山區"
"243010","548-UM","2017/06/12 20:39:25","新北市泰山區公園路60號","121.425893333333","25.055655","6501600","泰山區"
"243011","549-UM","2017/06/12 20:39:31","新北市泰山區公園路18號","121.429486666667","25.054185","6501600","泰山區"
"222003","436-BY","2017/06/12 20:39:28","新北市深坑區深坑街164號","121.612755","25.0011583333333","6501800","深坑區"
"222002","659-BX","2017/06/12 20:39:19","新北市深坑區萬福路63巷8號","121.599728333333","25.0077766666667","6501800","深坑區"
"222001","696-SL","2017/06/12 20:39:31","新北市深坑區北深路三段234號","121.600465","25.0040533333333","6501800","深坑區"
"231041","002-UM","2017/06/12 20:39:16","新北市新店區中正路543-4號","121.533728333333","24.9875216666667","6500600","新店區"
"231056","0291-UT","2017/06/12 20:39:23","新北市新店區中正路328巷1號","121.536908333333","24.975305","6500600","新店區"
"231059","046-UY","2017/06/12 20:39:19","新北市新店區僑愛七路43號","121.501293333333","24.9446483333333","6500600","新店區"
"231060","106-UY","2017/06/12 20:39:26","新北市新店區錦秀路1-1號","121.479055","24.9456916666667","6500600","新店區"
"231051","107-UY","2017/06/12 20:39:30","新北市新店區中央七街3號","121.530561666667","24.97476","6500600","新店區"
"231047","108-UY","2017/06/12 20:39:29","新北市新店區寶慶街12-2號","121.543218333333","24.9869","6500600","新店區"
"231052","187-VK","2017/06/12 20:39:30","新北市新店區廣興路7-10號","121.54568","24.9117533333333","6500600","新店區"
"231057","256-BX","2017/06/12 20:39:31","新北市新店區花園十路一段2號","121.553756666667","24.9334166666667","6500600","新店區"
"231063","268-BY","2017/06/12 20:39:10","新北市新店區玫瑰路4-1號","121.49359","24.951385","6500600","新店區"
"231050","AAD-862","2017/06/12 20:39:22","新北市新店區建安街1號","121.540396666667","24.975255","6500600","新店區"
"231055","3713-VJ","2017/06/12 20:39:16","新北市新店區安康路一段355號","121.519561666667","24.9630583333333","6500600","新店區"
"231067","4772-VM","2017/06/12 20:39:16","新北市新店區安業街8巷1號","121.515323333333","24.9774633333333","6500600","新店區"
"231065","512-UM","2017/06/12 20:39:36","新北市新店區安祥路102巷121弄2號","121.486168333333","24.9645316666667","6500600","新店區"
"231054","513-UM","2017/06/12 20:39:28","新北市新店區行政街23號","121.543065","24.9663833333333","6500600","新店區"
"231064","515-UM","2017/06/12 20:39:29","新北市新店區安和路三段175號","121.515713333333","24.9863116666667","6500600","新店區"
"231061","618-UM","2017/06/12 20:39:31","新北市新店區新和街77號","121.520578333333","24.986165","6500600","新店區"
"231040","619-UM","2017/06/12 20:39:29","新北市新店區中正路265巷32號","121.537703333333","24.97312","6500600","新店區"
"231042","641-BX","2017/06/12 20:39:23","新北市新店區寶高路25號","121.553143333333","24.977355","6500600","新店區"
"231068","718-UY","2017/06/12 20:39:20","新北市新店區寶元路一段85巷10號","121.543113333333","24.9860016666667","6500600","新店區"
"231049","719-UM","2017/06/12 20:39:25","新北市新店區永業路81巷1弄1-1號","121.52959","24.94943","6500600","新店區"
"231062","720-UM","2017/06/12 20:39:18","新北市新店區安泰路12巷2號","121.485511666667","24.95023","6500600","新店區"
"231044","897-TW","2017/06/12 20:39:32","新北市新店區建國路293巷1號","121.536728333333","24.986175","6500600","新店區"
"231045","898-TW","2017/06/12 20:39:24","新北市新店區長春路213號","121.559376666667","24.962015","6500600","新店區"
"231043","899-TW","2017/06/12 20:39:30","新北市新店區建國路40號","121.540601666667","24.974795","6500600","新店區"
"241011","013-R5","2017/06/12 20:39:15","新北市三重區龍濱路285號","121.50112","25.073355","6500200","三重區"
"241008","059-VK","2017/06/12 20:39:27","新北市三重區下竹圍街42號","121.481001666667","25.07494","6500200","三重區"
"241009","060-VK","2017/06/12 20:39:20","新北市三重區碧華街61號","121.484825","25.0813416666667","6500200","三重區"
"241031","061-VK","2017/06/12 20:39:19","新北市三重區重陽路一段43巷30號","121.48825","25.0586533333333","6500200","三重區"
"241015","062-VK","2017/06/12 20:39:35","新北市三重區文化北路97號","121.498016666667","25.0681233333333","6500200","三重區"
"241017","063-VK","2017/06/12 20:39:32","新北市三重區大同北路263號","121.490901666667","25.0671816666667","6500200","三重區"
"241024","065-VK","2017/06/12 20:39:30","新北市三重區忠孝路三段53號","121.480823333333","25.066635","6500200","三重區"
"241026","066-VK","2017/06/12 20:39:17","新北市三重區文化南路7號","121.50004","25.0623266666667","6500200","三重區"
"241002","090-VK","2017/06/12 20:39:29","新北市三重區仁義街167巷39號","121.49833","25.0821816666667","6500200","三重區"
"241003","091-VK","2017/06/12 20:39:34","新北市三重區富華街214號","121.493473333333","25.0851983333333","6500200","三重區"
"241005","262-UM","2017/06/12 20:39:20","新北市三重區碧華街348號","121.490516666667","25.08398","6500200","三重區"
"241028","265-UM","2017/06/12 20:39:33","新北市三重區光興街99號","121.497185","25.0598783333333","6500200","三重區"
"241016","266-UM","2017/06/12 20:39:21","新北市三重區長壽西街143-3號","121.494318333333","25.0667133333333","6500200","三重區"
"241022","267-UM","2017/06/12 20:39:22","新北市三重區民生街61巷6弄3號","121.488731666667","25.0621466666667","6500200","三重區"
"241018","268-UM","2017/06/12 20:39:29","新北市三重區大智街49號","121.49282","25.0674833333333","6500200","三重區"
"241013","270-UM","2017/06/12 20:39:21","新北市三重區三和路四段12號","121.491308333333","25.073995","6500200","三重區"
"241025","271-UM","2017/06/12 20:39:28","新北市三重區忠孝路三段93巷12號","121.478695","25.0649283333333","6500200","三重區"
"241007","398-BY","2017/06/12 20:39:32","新北市三重區三和路四段97-16號","121.488016666667","25.0767733333333","6500200","三重區"
"241020","412-TH","2017/06/12 20:39:16","新北市三重區三和路三段144巷25號","121.491825","25.0722883333333","6500200","三重區"
"241004","475-VK","2017/06/12 20:39:15","新北市三重區仁愛街467號","121.489311666667","25.0820266666667","6500200","三重區"
"241019","478-VK","2017/06/12 20:39:26","新北市三重區安慶街四段66-2號","121.49176","25.0706033333333","6500200","三重區"
"241030","480-VK","2017/06/12 20:39:27","新北市三重區成功路73巷18號","121.489433333333","25.05194","6500200","三重區"
"241023","545-UM","2017/06/12 20:39:22","新北市三重區自由街59號","121.478365","25.0665316666667","6500200","三重區"
"241001","547-UM","2017/06/12 20:39:26","新北市三重區自強路三段110巷3號","121.486576666667","25.0748483333333","6500200","三重區"
"241006","AAD-863","2017/06/12 20:39:18","新北市三重區車路頭街139巷14號","121.484335","25.0761966666667","6500200","三重區"
"241035","743-BX","2017/06/12 20:39:37","新北市三重區正義北路351號","121.493173333333","25.07186","6500200","三重區"
"241012","887-TS","2017/06/12 20:39:17","新北市三重區河邊北街168號","121.502928333333","25.0731433333333","6500200","三重區"
"241029","942-UM","2017/06/12 19:27:27","新北市三重區中正南路260-1號","121.493203333333","25.05307","6500200","三重區"
"241033","AAC-255","2017/06/12 20:39:19","新北市三重區光復路二段2號","121.472188333333","25.0533583333333","6500200","三重區"
"235039","097-UM","2017/06/12 20:39:13","新北市中和區大勇街27巷6號","121.517138333333","24.9938016666667","6500300","中和區"
"235065","098-UM","2017/06/12 20:39:35","新北市中和區福美路310號","121.49682","25.0047783333333","6500300","中和區"
"235072","301-VK","2017/06/12 20:39:23","新北市板橋區民生路一段28-11號","121.47621","25.0124233333333","6500300","中和區"
"235050","4979-A6","2017/06/12 20:26:23","新北市中和區景平路446號","121.506555","24.9934366666667","6500300","中和區"
"235069","4980-A6","2017/06/12 20:39:25","新北市中和區新生街280號","121.483646666667","24.9968083333333","6500300","中和區"
"235037","AAC-213","2017/06/12 20:39:15","新北市中和區自立路99巷22弄18號","121.52324","24.9939766666667","6500300","中和區"
"247020","893-R6","2017/06/12 20:39:27","新北市蘆洲區仁愛街42號","121.472025","25.0932966666667","6501400","蘆洲區"
"247010","546-UM","2017/06/12 20:39:25","新北市蘆洲區中興街1號","121.480063333333","25.0869883333333","6501400","蘆洲區"
"247006","341-TH","2017/06/12 20:39:25","新北市蘆洲區和平路166-1號","121.466453333333","25.0811916666667","6501400","蘆洲區"
"247008","339-TH","2017/06/12 20:39:21","新北市蘆洲區重陽街48號","121.481336666667","25.0830683333333","6501400","蘆洲區"
"247024","337-TH","2017/06/12 20:39:22","新北市蘆洲區長樂路125-1號","121.462266666667","25.087555","6501400","蘆洲區"
"247002","336-TH","2017/06/12 20:39:21","新北市蘆洲區長安街373號","121.457301666667","25.08778","6501400","蘆洲區"
"247014","057-VK","2017/06/12 20:39:33","新北市蘆洲區成功路77-1號","121.473125","25.0809933333333","6501400","蘆洲區"
"247004","056-VK","2017/06/12 20:39:16","新北市蘆洲區長安街297號","121.45806","25.0848816666667","6501400","蘆洲區"
"247012","007-UY","2017/06/12 20:39:26","新北市蘆洲區中興街81號","121.482223333333","25.0880916666667","6501400","蘆洲區"
"247022","002-UY","2017/06/12 20:39:20","新北市蘆洲區中正路243巷7弄21號","121.467811666667","25.0855966666667","6501400","蘆洲區"
"247016","001-UY","2017/06/12 20:39:28","新北市蘆洲區中山二路288號","121.46881","25.077765","6501400","蘆洲區"
"224011","420-VK","2017/06/12 20:18:48","新北市瑞芳區明燈路二段66號","121.809491666667","25.1075833333333","6501200","瑞芳區"
"251009","008-UM","2017/06/12 20:39:25","新北市淡水區崁頂75-2號","121.436443333333","25.203585","6501000","淡水區"
"251008","181-VK","2017/06/12 20:39:33","新北市淡水區沙崙路201巷36號","121.423693333333","25.1863466666667","6501000","淡水區"
"251013","182-VK","2017/06/12 20:39:30","新北市淡水區行忠路260號","121.458855","25.2005116666667","6501000","淡水區"
"251010","413-VK","2017/06/12 20:39:15","新北市淡水區沙崙路181巷15號","121.423881666667","25.1844366666667","6501000","淡水區"
"251012","441-VK","2017/06/12 20:39:18","新北市淡水區興仁路108號","121.45172","25.218115","6501000","淡水區"
"251015","442-VK","2017/06/12 20:39:31","新北市淡水區淡金路四段542巷17號","121.452705","25.2270916666667","6501000","淡水區"
"251001","559-UM","2017/06/12 20:39:32","新北市淡水區淡金路一段158號","121.4547","25.1791983333333","6501000","淡水區"
"251002","672-BX","2017/06/12 20:39:17","新北市淡水區中正路32號","121.443856666667","25.1691816666667","6501000","淡水區"
"251003","766-UM","2017/06/12 20:39:28","新北市淡水區新民街152巷6弄22號","121.438746666667","25.1785066666667","6501000","淡水區"
"252002","178-VK","2017/06/12 20:39:31","新北市三芝區淡金路二段47-2號","121.503656666667","25.2605966666667","6502100","三芝區"
"252001","292-VK","2017/06/12 20:39:36","新北市三芝區中山路一段102號","121.50232","25.256465","6502100","三芝區"
"242021","AAC-296","2017/06/12 20:39:33","新北市新莊區公園路78號","121.450075","25.0395733333333","6500500","新莊區"
"242029","986-R7","2017/06/12 20:39:23","新北市新莊區昌平街31巷9號","121.454248333333","25.0514616666667","6500500","新莊區"
"242048","751-BX","2017/06/12 20:39:29","新北市新莊區中正路833號","121.420716666667","25.02832","6500500","新莊區"
"242058","705-TV","2017/06/12 20:39:22","新北市新莊區民安路138號","121.424163333333","25.0254366666667","6500500","新莊區"
"242025","615-BX","2017/06/12 20:39:31","新北市新莊區化成路585-15號","121.462688333333","25.0669","6500500","新莊區"
"242023","613-BX","2017/06/12 20:39:18","新北市新莊區化成路652-1號","121.466013333333","25.0557666666667","6500500","新莊區"
"242027","612-BX","2017/06/12 20:39:19","新北市新莊區思源路59號","121.459908333333","25.0403116666667","6500500","新莊區"
"242036","566-BX","2017/06/12 20:39:34","新北市新莊區建安街10-1號","121.428505","25.02651","6500500","新莊區"
"242042","497-BY","2017/06/12 20:39:32","新北市新莊區天祥街15巷13號","121.416461666667","25.0275416666667","6500500","新莊區"
"242004","442-UM","2017/06/12 20:39:28","新北市新莊區化成路746巷3弄1號","121.46594","25.0577583333333","6500500","新莊區"
"242046","441-UM","2017/06/12 20:39:28","新北市新莊區富國路22巷19號","121.418365","25.025805","6500500","新莊區"
"242050","440-UM","2017/06/12 20:39:33","新北市新莊區民安西路158號","121.4261","25.0163033333333","6500500","新莊區"
"242034","413-TV","2017/06/12 20:39:30","新北市新莊區中正路268號","121.447575","25.035205","6500500","新莊區"
"242039","400-BY","2017/06/12 20:39:17","新北市新莊區民安路459號","121.434586666667","25.0224633333333","6500500","新莊區"
"242060","362-BY","2017/06/12 20:39:30","新北市新莊區新樹路262號","121.432703333333","25.0147566666667","6500500","新莊區"
"242011","132-UY","2017/06/12 20:39:17","新北市新莊區中榮街122巷15號","121.446516666667","25.0534783333333","6500500","新莊區"
"242019","135-UY","2017/06/12 20:39:14","新北市新莊區銘德街106號","121.455555","25.0433783333333","6500500","新莊區"
"242044","172-VK","2017/06/12 20:38:39","新北市新莊區中正路新生巷85弄1號","121.417036666667","25.021635","6500500","新莊區"
"242007","173-VK","2017/06/12 20:39:30","新北市新莊區福壽街56巷7號","121.458768333333","25.0488283333333","6500500","新莊區"
"242013","175-VK","2017/06/12 20:39:34","新北市新莊區中和街191巷1-1號","121.447835","25.0511533333333","6500500","新莊區"
"242056","176-VK","2017/06/12 20:39:24","新北市新莊區瓊泰路155號","121.443186666667","25.0310666666667","6500500","新莊區"
"242031","346-TH","2017/06/12 20:39:17","新北市新莊區三泰路32-3號","121.437926666667","25.0352583333333","6500500","新莊區"
"242002","347-TH","2017/06/12 20:39:36","新北市新莊區中港路五守新村12號","121.454808333333","25.0385366666667","6500500","新莊區"
"242017","348-TH","2017/06/12 20:39:29","新北市新莊區中港三街141號","121.448111666667","25.0460116666667","6500500","新莊區"
"242053","349-TH","2017/06/12 20:39:25","新北市新莊區西盛街324巷41號","121.426575","25.01473","6500500","新莊區"
"242015","350-TH","2017/06/12 20:39:30","新北市新莊區中港一街142號","121.446703333333","25.0449833333333","6500500","新莊區"
"242009","351-TH","2017/06/12 20:39:32","新北市新莊區幸福路78巷1弄12號","121.456281666667","25.049735","6500500","新莊區"
"238023","601-UM","2017/06/12 20:39:26","新北市樹林區育德街78-1號","121.387446666667","24.9682883333333","6500700","樹林區"
"221036","130-UY","2017/06/12 20:39:23","新北市汐止區新昌路10號","121.662256666667","25.0672616666667","6501100","汐止區"
"221015","131-UY","2017/06/12 20:39:19","新北市汐止區建成路46號","121.663888333333","25.0728783333333","6501100","汐止區"
"221012","278-VK","2017/06/12 20:39:23","新北市汐止區大同路三段241號","121.672661666667","25.076635","6501100","汐止區"
"221023","279-VK","2017/06/12 20:39:16","新北市汐止區民族二街30巷1號","121.634971666667","25.0717433333333","6501100","汐止區"
"221032","280-BY","2017/06/12 20:39:20","新北市汐止區橫科路221巷19-1號","121.621438333333","25.0495683333333","6501100","汐止區"
"221027","281-BY","2017/06/12 20:39:31","新北市汐止區中正路139號","121.659801666667","25.0692266666667","6501100","汐止區"
"221038","297-VK","2017/06/12 20:39:32","新北市汐止區忠孝東路444號","121.66612","25.072555","6501100","汐止區"
"221029","298-VK","2017/06/12 20:39:25","新北市汐止區新台五路一段79-11號","121.645561666667","25.0621383333333","6501100","汐止區"
"221021","299-VK","2017/06/12 20:36:15","新北市汐止區水源路一段273-1號","121.654613333333","25.0591566666667","6501100","汐止區"
"221035","622-UM","2017/06/12 20:39:19","新北市汐止區長江街101-5號","121.658735","25.07305","6501100","汐止區"
"221025","623-UM","2017/06/12 20:39:18","新北市汐止區水源路二段189號","121.657795","25.0532983333333","6501100","汐止區"
"221033","647-BX","2017/06/12 20:39:28","新北市汐止區合順街18巷8弄5號","121.6203","25.0418633333333","6501100","汐止區"
"221002","707-TV","2017/06/12 20:39:26","新北市汐止區福德二路134號","121.630945","25.0653033333333","6501100","汐止區"
"221018","753-BX","2017/06/12 20:39:20","新北市汐止區茄苳路130-5號","121.668473333333","25.0701433333333","6501100","汐止區"
"220088","145-RM","2017/06/12 02:21:48","新北市板橋區溪城路90-2號","121.429076666667","24.9801366666667","6500100","板橋區"
"220083","286-VK","2017/06/12 20:39:18","新北市板橋區僑中二街108巷18號","121.44504","25.007555","6500100","板橋區"
"220081","287-VK","2017/06/12 20:39:28","新北市板橋區大觀路二段42號","121.445426666667","25.000855","6500100","板橋區"
"220089","487-VK","2017/06/12 20:39:21","新北市板橋區四維路312號","121.462453333333","25.0298266666667","6500100","板橋區"
"220103","561-BX","2017/06/12 20:39:27","新北市板橋區漢生東路83巷25號","121.467428333333","25.0167683333333","6500100","板橋區"
"220067","829-TW","2017/06/12 20:39:16","新北市八里區中山路三段409號","121.368436666667","25.134535","6500100","板橋區"
"220074","895-R6","2017/06/12 20:39:23","新北市板橋區南雅南路二段116號","121.452735","25.00066","6500100","板橋區"
"220070","AAC-253","2017/06/12 20:39:34","新北市板橋區大觀路一段28巷1弄104號","121.451876666667","25.0059716666667","6500100","板橋區"
