"lineid","car","time","location","longitude","latitude","cityid","cityname"
"231063","268-BY","2017/06/12 21:29:30","新北市新店區吉祥街7巷1號","121.497333333333","24.9475433333333","6500600","新店區"
"231050","AAD-862","2017/06/12 21:29:22","新北市新店區中正路189巷14號","121.54018","24.971875","6500600","新店區"
"231064","515-UM","2017/06/12 21:29:29","新北市新店區安康路二段320巷15弄2號","121.504125","24.9595833333333","6500600","新店區"
"231061","618-UM","2017/06/12 21:29:31","新北市新店區薏仁坑路自強巷6號","121.496546666667","24.95821","6500600","新店區"
"241017","063-VK","2017/06/12 21:29:32","新北市三重區中正北路25巷25弄2號","121.493228333333","25.062605","6500200","三重區"
"241024","065-VK","2017/06/12 21:29:30","新北市三重區中正北路178號","121.483346666667","25.0668816666667","6500200","三重區"
"241026","066-VK","2017/06/12 21:29:17","新北市三重區中正南路293號","121.49262","25.0519383333333","6500200","三重區"
"241003","091-VK","2017/06/12 21:29:34","新北市三重區仁義街317號","121.495335","25.08421","6500200","三重區"
"241005","262-UM","2017/06/12 21:29:20","新北市三重區仁華街85號","121.485673333333","25.0829933333333","6500200","三重區"
"241016","266-UM","2017/06/12 21:29:21","新北市三重區正義北路140號","121.49674","25.0658566666667","6500200","三重區"
"241007","398-BY","2017/06/12 21:29:32","新北市三重區正義北路113號","121.49696","25.0657116666667","6500200","三重區"
"241014","543-UM","2017/06/12 21:29:31","新北市三重區新北大道一段7號","121.489526666667","25.0612416666667","6500200","三重區"
"235026","800-TS","2017/06/12 21:24:52","新北市中和區員山路36巷16-3號","121.485065","24.99133","6500300","中和區"
"247018","500-BY","2017/06/12 21:29:20","新北市蘆洲區光華路110巷36號","121.466003333333","25.084115","6501400","蘆洲區"
"247006","341-TH","2017/06/12 21:29:25","新北市五股區中興路二段182巷15弄13號","121.457146666667","25.0816666666667","6501400","蘆洲區"
"247014","057-VK","2017/06/12 21:29:33","新北市蘆洲區中原路85號","121.45798","25.081735","6501400","蘆洲區"
"247012","007-UY","2017/06/12 21:29:25","新北市蘆洲區民族路422巷82弄36號","121.474363333333","25.0974116666667","6501400","蘆洲區"
"224011","420-VK","2017/06/12 21:29:31","新北市瑞芳區中正路65號","121.806096666667","25.1074","6501200","瑞芳區"
"251009","008-UM","2017/06/12 21:29:19","新北市淡水區民族路65巷62號","121.463538333333","25.1360583333333","6501000","淡水區"
"251004","009-UM","2017/06/12 21:02:30","新北市淡水區民權路107號","121.46015","25.1375433333333","6501000","淡水區"
"251008","181-VK","2017/06/12 21:29:33","新北市淡水區水源街二段194號","121.456713333333","25.1759666666667","6501000","淡水區"
"251013","182-VK","2017/06/12 21:29:30","新北市淡水區埤島57-1號","121.461278333333","25.19641","6501000","淡水區"
"251010","413-VK","2017/06/12 21:29:35","新北市淡水區沙崙路25巷21號","121.420565","25.1824583333333","6501000","淡水區"
"251012","441-VK","2017/06/12 21:29:18","新北市淡水區石頭埔8號","121.452541666667","25.23466","6501000","淡水區"
"251015","442-VK","2017/06/12 21:29:31","新北市淡水區新市二路四段265號","121.445886666667","25.192475","6501000","淡水區"
"251001","559-UM","2017/06/12 21:29:31","新北市淡水區崁頂40號","121.438858333333","25.1954216666667","6501000","淡水區"
"251011","650-BX","2017/06/12 21:29:32","新北市淡水區新民街164號","121.43708","25.1784516666667","6501000","淡水區"
"251002","672-BX","2017/06/12 21:16:33","新北市淡水區學府路172巷21號","121.448231666667","25.1749916666667","6501000","淡水區"
"251003","766-UM","2017/06/12 21:29:28","新北市淡水區崁頂15-5號","121.439006666667","25.1858466666667","6501000","淡水區"
"242048","751-BX","2017/06/12 21:29:29","新北市樹林區佳園路一段153號","121.393685","24.96872","6500500","新莊區"
"221027","281-BY","2017/06/12 21:10:15","新北市汐止區汐萬路一段256巷1號","121.651798333333","25.074935","6501100","汐止區"
"221018","753-BX","2017/06/12 21:29:20","新北市汐止區汐萬路一段256巷1號","121.652035","25.074835","6501100","汐止區"
"220088","145-RM","2017/06/12 02:21:48","新北市板橋區溪城路90-2號","121.429076666667","24.9801366666667","6500100","板橋區"
"220070","AAC-253","2017/06/12 21:29:14","新北市五股區新城三路61號","121.448993333333","25.0936966666667","6500100","板橋區"
