"lineid","car","time","location","longitude","latitude","cityid","cityname"
"231063","268-BY","2017/06/12 21:39:30","新北市新店區如意街45號","121.493313333333","24.9481966666667","6500600","新店區"
"231061","618-UM","2017/06/12 21:39:31","新北市新店區薏仁坑路自強巷6號","121.496651666667","24.9583416666667","6500600","新店區"
"241005","262-UM","2017/06/12 21:39:20","新北市三重區碧華街1號","121.48351","25.0811933333333","6500200","三重區"
"241016","266-UM","2017/06/12 21:39:21","新北市三重區泉州街84巷12號","121.49544","25.05454","6500200","三重區"
"235026","800-TS","2017/06/12 21:24:52","新北市中和區員山路36巷16-3號","121.485065","24.99133","6500300","中和區"
"247006","341-TH","2017/06/12 21:39:25","新北市八里區商港路50號","121.395468333333","25.14619","6501400","蘆洲區"
"247014","057-VK","2017/06/12 21:39:33","新北市八里區商港路8號","121.397096666667","25.1444666666667","6501400","蘆洲區"
"247012","007-UY","2017/06/12 21:39:25","新北市五股區天乙路102-20號","121.447796666667","25.1071083333333","6501400","蘆洲區"
"224011","420-VK","2017/06/12 21:39:32","新北市瑞芳區中正路66號","121.80629","25.10761","6501200","瑞芳區"
"251009","008-UM","2017/06/12 21:36:39","新北市淡水區民族路31巷58號","121.462998333333","25.1368583333333","6501000","淡水區"
"251004","009-UM","2017/06/12 21:02:30","新北市淡水區民權路107號","121.46015","25.1375433333333","6501000","淡水區"
"251007","179-VK","2017/06/12 21:39:19","新北市淡水區水源街二段179號","121.455291666667","25.1757233333333","6501000","淡水區"
"251008","181-VK","2017/06/12 21:39:33","新北市淡水區水源街二段90號","121.451741666667","25.1743366666667","6501000","淡水區"
"251010","413-VK","2017/06/12 21:39:15","新北市淡水區沙崙路232號","121.425495","25.1845633333333","6501000","淡水區"
"251012","441-VK","2017/06/12 21:39:18","新北市淡水區淡金路四段463號","121.451786666667","25.223435","6501000","淡水區"
"251015","442-VK","2017/06/12 21:39:31","新北市淡水區新市二路四段265號","121.445868333333","25.1924633333333","6501000","淡水區"
"251011","650-BX","2017/06/12 21:39:29","新北市淡水區新民街226巷2號","121.4361","25.1805516666667","6501000","淡水區"
"251002","672-BX","2017/06/12 21:39:24","新北市淡水區學府路189號","121.44647","25.174885","6501000","淡水區"
"251003","766-UM","2017/06/12 21:39:28","新北市淡水區新春街36號","121.437065","25.1815283333333","6501000","淡水區"
"221027","281-BY","2017/06/12 21:10:15","新北市汐止區汐萬路一段256巷1號","121.651798333333","25.074935","6501100","汐止區"
"221018","753-BX","2017/06/12 21:39:20","新北市汐止區汐萬路一段256巷1號","121.652006666667","25.0748183333333","6501100","汐止區"
"220088","145-RM","2017/06/12 02:21:48","新北市板橋區溪城路90-2號","121.429076666667","24.9801366666667","6500100","板橋區"
"220070","AAC-253","2017/06/12 21:39:14","新北市板橋區民生路二段161巷1號","121.469811666667","25.0199166666667","6500100","板橋區"
