"lineid","car","time","location","longitude","latitude","cityid","cityname"
"241016","266-UM","2017/06/12 22:39:21","新北市五股區中興路三段163號","121.447578333333","25.07994","6500200","三重區"
"235026","800-TS","2017/06/12 21:24:52","新北市中和區員山路36巷16-3號","121.485065","24.99133","6500300","中和區"
"251008","181-VK","2017/06/12 22:39:33","新北市淡水區埤島3-18號","121.447056666667","25.19075","6501000","淡水區"
"251015","442-VK","2017/06/12 22:37:11","新北市淡水區崁頂78-3號","121.429918333333","25.2061033333333","6501000","淡水區"
"221027","281-BY","2017/06/12 21:10:15","新北市汐止區汐萬路一段256巷1號","121.651798333333","25.074935","6501100","汐止區"
"221018","753-BX","2017/06/12 21:46:49","新北市汐止區汐萬路一段256巷1號","121.652008333333","25.0748266666667","6501100","汐止區"
"220088","145-RM","2017/06/12 02:21:48","新北市板橋區溪城路90-2號","121.429076666667","24.9801366666667","6500100","板橋區"
