"lineid","car","time","location","longitude","latitude","cityid","cityname"
"234001","395-TH","2017/11/20 09:46:46","新北市永和區保生路55-8號","121.504053333333","25.0103266666667","6500400","永和區"
"248005","653-BX","2017/11/20 09:48:07","新北市五股區成泰路一段42號","121.435371666667","25.0687783333333","6501500","五股區"
"244012","069-UM","2017/11/20 09:48:16","新北市林口區麗園一街4巷2號","121.375998333333","25.0708866666667","6501700","林口區"
"244018","403-UM","2017/11/20 09:48:16","新北市林口區忠孝路627號","121.3797","25.069385","6501700","林口區"
"244025","742-UY","2017/11/20 09:30:51","新北市林口區粉寮路二段160巷28號","121.405186666667","25.0908033333333","6501700","林口區"
"244022","483-VK","2017/11/20 09:48:03","新北市林口區文林六街2-1號","121.370861666667","25.0798466666667","6501700","林口區"
"244008","656-BX","2017/11/20 09:48:20","新北市林口區竹林路448號","121.388228333333","25.08529","6501700","林口區"
"244010","701-TV","2017/11/20 09:48:02","新北市林口區頂福里5鄰34號","121.352905","25.099995","6501700","林口區"
"222005","289-BY","2017/11/20 09:47:55","新北市深坑區昇高坑路51-1號","121.630218333333","24.99429","6501800","深坑區"
"231007","188-VK","2017/11/20 09:48:11","新北市新店區新潭路三段215巷25號","121.5081","24.904135","6500600","新店區"
"231008","192-VK","2017/11/20 09:45:06","新北市新店區平廣路一段256號","121.507853333333","24.8883566666667","6500600","新店區"
"223001","205-TH","2017/11/20 09:48:18","新北市石碇區碇格路二段17號","121.639105","24.9553183333333","6501900","石碇區"
"223007","661-BX","2017/11/20 09:48:03","新北市石碇區小粗坑(潭邊里)15-2號","121.682436666667","24.9822683333333","6501900","石碇區"
"223005","677-TV","2017/11/20 09:46:19","新北市石碇區小粗坑(潭邊里)9-2號","121.678956666667","24.986225","6501900","石碇區"
"227005","282-VK","2017/11/20 09:47:32","新北市雙溪區泰平里灣潭路34號","121.8109","24.9287716666667","6502500","雙溪區"
"253003","6232-TK","2017/11/20 09:48:15","新北市石門區尖子鹿86號","121.576746666667","25.2949366666667","6502200","石門區"
"253001","6251-TK","2017/11/20 09:47:41","新北市石門區崁子腳90-3號","121.535395","25.2716633333333","6502200","石門區"
"253002","637-UY","2017/11/20 09:48:17","新北市石門區楓林53號","121.541295","25.27583","6502200","石門區"
"253004","8270-PC","2017/11/20 09:48:07","新北市石門區阿里磅47號","121.581355","25.2394466666667","6502200","石門區"
"252004","249-BX","2017/11/20 09:48:10","新北市三芝區福德里大水堀21號","121.512186666667","25.2199683333333","6502100","三芝區"
"252006","AAC-283","2017/11/20 09:48:13","新北市三芝區新庄里新庄子57-23號","121.50791","25.2788883333333","6502100","三芝區"
"237001","159-UY","2017/11/20 09:48:18","新北市三峽區國際二街21-5號","121.373098333333","24.9435983333333","6500900","三峽區"
"236001","339-SR","2017/11/20 07:27:06","新北市土城區永平街51號","121.427686666667","24.959195","6501300","土城區"
"236001","370-SL","2017/11/20 09:48:18","新北市土城區中央路二段276-1號","121.440775","24.97433","6501300","土城區"
"236005","498-BY","2017/11/20 09:48:15","新北市土城區中央路二段390巷35號","121.43833","24.9721616666667","6501300","土城區"
"242028","986-R7","2017/11/20 09:48:16","新北市新莊區瓊林路59-82號","121.44172","25.02327","6500500","新莊區"
"242022","613-BX","2017/11/20 09:48:14","新北市新莊區新泰路255巷83號","121.441986666667","25.0388816666667","6500500","新莊區"
"242030","442-UM","2017/11/20 09:48:04","新北市新莊區三和路13-20號","121.441053333333","25.03638","6500500","新莊區"
"242047","441-UM","2017/11/20 09:48:05","新北市新莊區瓊林南路75-37號","121.438161666667","25.0151783333333","6500500","新莊區"
"242003","413-TV","2017/11/20 09:48:04","新北市新莊區化成路371巷30弄2號","121.463325","25.05709","6500500","新莊區"
"242059","362-BY","2017/11/20 09:48:14","新北市新莊區新樹路51號","121.44013","25.03193","6500500","新莊區"
"242057","353-BY","2017/11/20 09:48:16","新北市新莊區民安路106號","121.424131666667","25.0254966666667","6500500","新莊區"
"242035","133-UY","2017/11/20 09:48:09","新北市新莊區中正路422號","121.440826666667","25.03376","6500500","新莊區"
"242055","349-TH","2017/11/20 09:48:17","新北市新莊區瓊林路59-66號","121.441143333333","25.0226283333333","6500500","新莊區"
"239006","661-UM","2017/11/20 09:48:01","新北市鶯歌區中正一路465號","121.37157","24.9588766666667","6500800","鶯歌區"
