"lineid","car","time","location","longitude","latitude","cityid","cityname"
"234001","395-TH","2017/11/20 09:46:46","新北市永和區保生路55-8號","121.504053333333","25.0103266666667","6500400","永和區"
"244025","742-UY","2017/11/20 09:30:51","新北市林口區粉寮路二段160巷28號","121.405186666667","25.0908033333333","6501700","林口區"
"244010","701-TV","2017/11/20 10:38:02","新北市林口區粉寮路二段160巷28號","121.405186666667","25.0907883333333","6501700","林口區"
"231007","188-VK","2017/11/20 10:38:11","新北市新店區新潭路三段86號","121.503748333333","24.9098783333333","6500600","新店區"
"231008","192-VK","2017/11/20 10:38:03","新北市新店區小坑一路21-1號","121.530643333333","24.9118083333333","6500600","新店區"
"227005","282-VK","2017/11/20 10:38:15","新北市雙溪區泰平里泰平63號","121.824563333333","24.9694566666667","6502500","雙溪區"
"236001","339-SR","2017/11/20 10:35:13","新北市土城區永平街51號","121.427658333333","24.9591666666667","6501300","土城區"
"242047","441-UM","2017/11/20 10:38:05","新北市新莊區新泰路357巷3弄57號","121.442128333333","25.0391483333333","6500500","新莊區"
