"lineid","car","time","location","longitude","latitude","cityid","cityname"
"234078","298-R6","2017/11/20 15:18:00","新北市八里區中山路三段335號","121.376413333333","25.1399333333333","6500400","永和區"
"234001","395-TH","2017/11/20 15:18:02","新北市永和區保生路55-8號","121.503925","25.0103566666667","6500400","永和區"
"248007","095-VK","2017/11/20 15:18:11","新北市五股區中興路二段9巷40號","121.461876666667","25.073065","6501500","五股區"
"248003","677-BX","2017/11/20 15:18:06","新北市五股區成泰路二段102號","121.437605","25.0829516666667","6501500","五股區"
"244025","742-UY","2017/11/20 09:30:51","新北市林口區粉寮路二段160巷28號","121.405186666667","25.0908033333333","6501700","林口區"
"243006","421-VK","2017/11/20 15:18:10","新北市泰山區泰林路三段745巷145號","121.405668333333","25.0678","6501600","泰山區"
"243003","KEA-2216","2017/11/20 15:18:09","新北市泰山區泰林路二段47號","121.435508333333","25.0575416666667","6501600","泰山區"
"243008","680-BX","2017/11/20 15:18:06","新北市泰山區明志路二段152-3號","121.427528333333","25.050365","6501600","泰山區"
"231002","002-UM","2017/11/20 15:18:04","新北市新店區中正路700巷1號","121.533978333333","24.9912816666667","6500600","新店區"
"231028","046-UY","2017/11/20 15:18:11","新北市新店區安康路二段266號","121.508556666667","24.9588566666667","6500600","新店區"
"231030","047-UY","2017/11/20 15:17:56","新北市新店區安民街341-1號","121.516835","24.974915","6500600","新店區"
"231029","106-UY","2017/11/20 15:17:58","新北市新店區安康路三段716號","121.473936666667","24.9421083333333","6500600","新店區"
"231011","108-UY","2017/11/20 15:17:55","新北市新店區順安街86號","121.541165","24.9867366666667","6500600","新店區"
"231019","187-VK","2017/11/20 15:18:08","新北市新店區金興路35號","121.552933333333","24.9313416666667","6500600","新店區"
"231026","256-BX","2017/11/20 15:18:12","新北市新店區中正路265巷15號","121.537963333333","24.9730616666667","6500600","新店區"
"231034","268-BY","2017/11/20 15:18:04","新北市新店區玫瑰路28號","121.495176666667","24.9502133333333","6500600","新店區"
"231023","AAD-862","2017/11/20 15:18:02","新北市新店區行政街26號","121.542918333333","24.9655616666667","6500600","新店區"
"231001","355-BY","2017/11/20 15:18:09","新北市新店區北新路一段345號","121.541868333333","24.96905","6500600","新店區"
"231025","3713-VJ","2017/11/20 15:17:58","新北市新店區民權路105-1號","121.536611666667","24.9825633333333","6500600","新店區"
"231024","4716-K9","2017/11/20 15:18:09","新北市新店區中華路1號","121.54126","24.96734","6500600","新店區"
"231036","512-UM","2017/11/20 15:17:56","新北市新店區安祥路69巷17號","121.481915","24.9613966666667","6500600","新店區"
"231035","515-UM","2017/11/20 15:17:58","新北市新店區永平街16巷18號","121.517256666667","24.98417","6500600","新店區"
"231003","616-UM","2017/11/20 15:18:11","新北市新店區寶高路120巷1-1號","121.554615","24.9758383333333","6500600","新店區"
"231006","617-UM","2017/11/20 15:18:01","新北市新店區中興路一段222號","121.544323333333","24.965945","6500600","新店區"
"231039","718-UY","2017/11/20 15:17:54","新北市新店區寶元路一段65號","121.542235","24.9858683333333","6500600","新店區"
"231018","719-UY","2017/11/20 15:18:05","新北市新店區中央七街66號","121.527701666667","24.9764233333333","6500600","新店區"
"231031","720-UM","2017/11/20 15:18:12","新北市新店區和成街19巷38號","121.488128333333","24.9459883333333","6500600","新店區"
"231005","897-TW","2017/11/20 15:18:04","新北市新店區建國路207-1號","121.537723333333","24.980145","6500600","新店區"
"231004","899-TW","2017/11/20 15:18:08","新北市新店區建國路29號","121.540235","24.9740733333333","6500600","新店區"
"231037","AKT-0513","2017/11/20 15:18:13","新北市新店區安民街365巷7弄1號","121.516178333333","24.9755","6500600","新店區"
"235030","003-UY","2017/11/20 15:18:10","新北市中和區保平路326巷23號","121.506488333333","25.0046166666667","6500300","中和區"
"235019","183-VK","2017/11/20 15:18:05","新北市新店區薏仁坑路自強巷1號","121.496788333333","24.9581316666667","6500300","中和區"
"235014","4979-A6","2017/11/20 15:18:08","新北市中和區景平路243-1號","121.50931","24.9928966666667","6500300","中和區"
"235033","4980-A6","2017/11/20 15:18:05","新北市中和區景新街64巷7弄6號","121.504163333333","24.9986116666667","6500300","中和區"
"235006","551-UM","2017/11/20 15:18:03","新北市中和區景新街440號","121.513205","24.98824","6500300","中和區"
"235034","558-UM","2017/11/20 15:18:12","新北市中和區中正路281-10號","121.494263333333","24.9938366666667","6500300","中和區"
"235018","640-BX","2017/11/20 15:18:08","新北市中和區莒光路4號","121.47203","25.0046483333333","6500300","中和區"
"235026","800-TS","2017/11/20 15:17:43","新北市新店區薏仁坑路自強巷1號","121.49779","24.9582033333333","6500300","中和區"
"235005","802-TS","2017/11/20 15:18:05","新北市中和區中正路190號","121.497725","24.9939566666667","6500300","中和區"
"235012","896-TW","2017/11/20 15:18:12","新北市中和區興南路一段12號","121.51145","24.991345","6500300","中和區"
"235023","AAC-215","2017/11/20 15:17:56","新北市中和區圓通路435巷1號","121.486391666667","24.9871066666667","6500300","中和區"
"220013","072-UY","2017/11/20 15:18:07","新北市板橋區縣民大道三段270巷5號","121.4785","25.0233616666667","6500100","板橋區"
"220017","AAD-861","2017/11/20 15:18:05","新北市板橋區貴興路96號","121.45574","25.002595","6500100","板橋區"
"220051","120-SR","2017/11/20 15:18:04","新北市板橋區文化路一段160號","121.465476666667","25.0192683333333","6500100","板橋區"
"247009","339-TH","2017/11/20 15:18:00","新北市林口區汕頭32號","121.366665","25.134925","6501400","蘆洲區"
"247007","053-VK","2017/11/20 15:18:11","新北市八里區商港路96號","121.39415","25.148175","6501400","蘆洲區"
"208004","AAC-292","2017/11/20 15:18:09","新北市金山區六股里下六股35-1號","121.620271666667","25.2201316666667","6502700","金山區"
"207002","749-BX","2017/11/20 15:18:09","新北市萬里區崁腳里內中福路12-2號","121.661325","25.1639616666667","6502800","萬里區"
"207001","662-BX","2017/11/20 15:18:04","新北市萬里區雙興里豐稟路6-3號","121.649611666667","25.1851383333333","6502800","萬里區"
"236064","105-UM","2017/11/20 15:18:04","新北市土城區學成路48號","121.45235","24.9876483333333","6501300","土城區"
"236040","107-UM","2017/11/20 15:18:11","新北市土城區裕民路233巷1號","121.454945","24.9835883333333","6501300","土城區"
"236074","166-UM","2017/11/18 20:44:09","新北市樹林區柑園街一段26號","121.405706666667","24.9622866666667","6501300","土城區"
"236028","253-BX","2017/11/20 15:17:58","新北市土城區中央路一段286號","121.443601666667","24.9826316666667","6501300","土城區"
"236024","269-VK","2017/11/20 15:18:01","新北市土城區學府路二段253號","121.445036666667","24.97805","6501300","土城區"
"236012","270-VK","2017/11/20 15:18:07","新北市土城區廣福街13號","121.457085","24.9890283333333","6501300","土城區"
"236032","271-VK","2017/11/20 15:17:57","新北市土城區國際路139巷13號","121.46843","24.976825","6501300","土城區"
"236001","339-SR","2017/11/20 11:11:06","新北市土城區永平街51號","121.427635","24.9592283333333","6501300","土城區"
"236016","401-BY","2017/11/20 15:18:03","新北市土城區峰廷街3號","121.469103333333","24.987385","6501300","土城區"
"236056","912-UM","2017/11/20 15:18:11","新北市土城區金城路一段139號","121.445205","24.9741183333333","6501300","土城區"
"236044","913-UM","2017/11/20 15:18:01","新北市土城區清水路330號","121.463998333333","24.98547","6501300","土城區"
"236060","915-UM","2017/11/20 15:18:03","新北市土城區延和路105巷5弄1號","121.467268333333","24.9911683333333","6501300","土城區"
"236052","AAC-216","2017/11/20 15:17:58","新北市土城區學府路一段223號","121.45134","24.9843016666667","6501300","土城區"
"238002","755-BX","2017/11/20 15:17:59","新北市樹林區復興路223號","121.420111666667","24.99103","6500700","樹林區"
"238010","601-UM","2017/11/20 15:17:55","新北市樹林區保安街二段61號","121.416111666667","25.000505","6500700","樹林區"
"238019","599-UM","2017/11/20 15:17:57","新北市樹林區八德街120號","121.421216666667","24.979555","6500700","樹林區"
"238005","571-TV","2017/11/20 15:17:52","新北市樹林區樹新路122號","121.430108333333","24.9983433333333","6500700","樹林區"
"238011","5061-A6","2017/11/20 15:18:09","新北市樹林區鎮前街130號","121.424763333333","24.9908016666667","6500700","樹林區"
"238008","KEA-2217","2017/11/20 15:18:01","新北市樹林區西圳街一段165巷20弄11號","121.395641666667","24.9601566666667","6500700","樹林區"
"238009","KEA-2213","2017/11/20 15:17:55","新北市樹林區忠孝街31號","121.423706666667","24.9822216666667","6500700","樹林區"
"238012","303-VK","2017/11/20 15:17:54","新北市樹林區中山路一段296號","121.420288333333","24.9864216666667","6500700","樹林區"
"238004","283-BY","2017/11/20 15:17:47","新北市樹林區大安路251號","121.41935","24.9941483333333","6500700","樹林區"
"238001","282-BY","2017/11/20 15:17:57","新北市樹林區大安路179號","121.421135","24.9962666666667","6500700","樹林區"
"238007","268-VK","2017/11/20 15:18:08","新北市樹林區中正路177-1號","121.423881666667","25.00254","6500700","樹林區"
"238013","172-UY","2017/11/20 15:18:08","新北市樹林區東順街86號","121.408368333333","24.97576","6500700","樹林區"
"238003","169-UY","2017/11/20 15:18:02","新北市樹林區中山路二段10號","121.417553333333","24.9850583333333","6500700","樹林區"
"221023","279-VK","2017/11/20 14:54:07","新北市汐止區汐萬路一段256巷1號","121.651705","25.0748783333333","6501100","汐止區"
"220030","610-BX","2017/11/20 15:18:01","新北市板橋區篤行路一段37號","121.432058333333","24.9940166666667","6500100","板橋區"
"220050","245-BX","2017/11/20 15:18:09","新北市板橋區雙十路二段47巷2弄16號","121.475755","25.026605","6500100","板橋區"
"220052","255-TC","2017/11/20 15:18:12","新北市板橋區陽明街279巷4-4號","121.461795","25.0261283333333","6500100","板橋區"
"220031","286-VK","2017/11/20 15:18:09","新北市板橋區僑中二街104巷27-2號","121.444925","25.0080566666667","6500100","板橋區"
"220012","486-VK","2017/11/20 15:17:57","新北市板橋區民族路221號","121.469665","25.0074933333333","6500100","板橋區"
"220037","491-VK","2017/11/20 15:17:58","新北市板橋區民治街79號","121.479578333333","25.0323333333333","6500100","板橋區"
"220011","609-BX","2017/11/20 15:18:01","新北市板橋區三民路一段218號","121.479118333333","25.0188666666667","6500100","板橋區"
"220042","689-BX","2017/11/20 15:18:01","新北市板橋區長江路二段57號","121.464546666667","25.031305","6500100","板橋區"
"220038","833-TW","2017/11/20 15:18:04","新北市板橋區互助街84號","121.460508333333","25.02636","6500100","板橋區"
"220046","AAC-210","2017/11/20 15:18:12","新北市板橋區公館街31號","121.461385","25.01553","6500100","板橋區"
"220018","AAC-253","2017/11/20 15:18:11","新北市板橋區德興街16號","121.453413333333","24.99441","6500100","板橋區"
