"lineid","car","time","location","longitude","latitude","cityid","cityname"
"234078","298-R6","2017/11/20 16:38:00","新北市八里區龍米路一段61號","121.455816666667","25.12059","6500400","永和區"
"234001","395-TH","2017/11/20 15:54:01","新北市永和區保生路55-8號","121.504108333333","25.010275","6500400","永和區"
"249005","172-UM","2017/11/20 16:37:52","新北市八里區仁愛路10號","121.413551666667","25.161965","6502300","八里區"
"249002","305-UY","2017/11/20 16:38:03","新北市八里區大堀湖8號","121.426788333333","25.1496116666667","6502300","八里區"
"244025","742-UY","2017/11/20 09:30:51","新北市林口區粉寮路二段160巷28號","121.405186666667","25.0908033333333","6501700","林口區"
"243009","297-R6","2017/11/20 15:40:45","新北市泰山區黎明路25號","121.421958333333","25.06099","6501600","泰山區"
"231046","278-BY","2017/11/20 16:38:00","新北市新店區灣潭路48-1號","121.543008333333","24.94442","6500600","新店區"
"241011","013-R5","2017/11/20 16:37:54","新北市三重區秀江街163號","121.498438333333","25.0720533333333","6500200","三重區"
"241028","022-UY","2017/11/20 16:37:51","新北市三重區中正南路41巷1號","121.493873333333","25.05991","6500200","三重區"
"241008","059-VK","2017/11/20 16:37:48","新北市蘆洲區永安北路一段52號","121.476558333333","25.0756433333333","6500200","三重區"
"241009","060-VK","2017/11/20 16:38:00","新北市三重區三和路四段203巷12號","121.48244","25.07956","6500200","三重區"
"241031","061-VK","2017/11/20 16:37:54","新北市三重區重新路四段41巷2弄7號","121.487653333333","25.0577166666667","6500200","三重區"
"241015","062-VK","2017/11/20 16:38:00","新北市三重區信義街8號","121.499311666667","25.0648966666667","6500200","三重區"
"241017","063-VK","2017/11/20 16:37:51","新北市三重區中正北路9號","121.492791666667","25.0614716666667","6500200","三重區"
"241024","065-VK","2017/11/20 16:37:59","新北市三重區中正北路315巷6弄82號","121.47724","25.0725383333333","6500200","三重區"
"241026","066-VK","2017/11/20 16:38:10","新北市三重區中央南路83號","121.501453333333","25.0608683333333","6500200","三重區"
"241002","090-VK","2017/11/20 16:37:55","新北市三重區自強路五段95號","121.495463333333","25.0821433333333","6500200","三重區"
"241003","091-VK","2017/11/20 16:38:08","新北市三重區五華街71巷98號","121.494391666667","25.083995","6500200","三重區"
"241005","262-UM","2017/11/20 16:38:06","新北市三重區仁華街142-1號","121.486855","25.0830516666667","6500200","三重區"
"241023","265-UM","2017/11/20 16:38:01","新北市三重區洛陽街27號","121.482588333333","25.0632233333333","6500200","三重區"
"241016","266-UM","2017/11/20 16:37:59","新北市三重區自強路一段160巷3弄11號","121.494863333333","25.0656016666667","6500200","三重區"
"241022","267-UM","2017/11/20 16:37:54","新北市三重區新北大道一段100巷16號","121.485425","25.0621066666667","6500200","三重區"
"241018","268-UM","2017/11/20 16:38:09","新北市三重區正義北路338巷27號","121.493633333333","25.0705633333333","6500200","三重區"
"241032","269-UM","2017/11/20 16:38:07","新北市三重區新北大道一段93號","121.484555","25.061445","6500200","三重區"
"241013","270-UM","2017/11/20 16:38:03","新北市三重區三和路三段101巷16號","121.4948","25.0727066666667","6500200","三重區"
"241025","271-UM","2017/11/20 16:38:12","新北市三重區中正北路428巷7弄17號","121.47419","25.0697633333333","6500200","三重區"
"241007","398-BY","2017/11/20 16:37:51","新北市三重區三和路四段167巷94號","121.485581666667","25.079605","6500200","三重區"
"241020","413-TH","2017/11/20 16:38:05","新北市三重區車路頭街70號","121.484261666667","25.0729566666667","6500200","三重區"
"241004","475-VK","2017/11/20 16:38:06","新北市三重區五華街72號","121.493178333333","25.0817533333333","6500200","三重區"
"241019","478-VK","2017/11/20 16:37:54","新北市三重區安慶街297巷1弄4號","121.488786666667","25.0676366666667","6500200","三重區"
"241030","480-VK","2017/11/20 16:38:03","新北市三重區成功路50巷43號","121.487898333333","25.0495966666667","6500200","三重區"
"241014","543-UM","2017/11/20 16:38:09","新北市三重區龍濱路19號","121.503033333333","25.0677616666667","6500200","三重區"
"241001","547-UM","2017/11/20 16:38:04","新北市三重區福隆路34號","121.492176666667","25.0782716666667","6500200","三重區"
"241006","AAD-863","2017/11/20 16:37:55","新北市三重區力行路二段136巷23弄35號","121.481465","25.076455","6500200","三重區"
"241012","941-UM","2017/11/20 16:38:09","新北市三重區龍門路274巷9號","121.501705","25.074495","6500200","三重區"
"241029","942-UM","2017/11/20 16:38:00","新北市三重區集美街178號","121.490493333333","25.0533016666667","6500200","三重區"
"241033","AAC-255","2017/11/20 16:38:03","新北市三重區光復路二段49號","121.472048333333","25.05588","6500200","三重區"
"235026","800-TS","2017/11/20 16:38:03","新北市中和區中正路368號","121.493158333333","24.994375","6500300","中和區"
"235064","911-UM","2017/11/20 15:49:09","新北市中和區員山路36巷16-3號","121.48492","24.9912516666667","6500300","中和區"
"220013","072-UY","2017/11/20 16:38:06","新北市八里區荖阡坑路34-1號","121.400948333333","25.1305666666667","6500100","板橋區"
"247006","056-VK","2017/11/20 16:37:54","新北市蘆洲區長榮路288號","121.459836666667","25.0869233333333","6501400","蘆洲區"
"247008","053-VK","2017/11/20 16:38:11","新北市五股區四維路183號","121.46779","25.075375","6501400","蘆洲區"
"224006","676-BX","2017/11/20 16:37:53","新北市瑞芳區大寮路356-1號","121.784758333333","25.1033466666667","6501200","瑞芳區"
"224008","275-VK","2017/11/20 16:37:06","新北市瑞芳區逢甲路15號","121.809801666667","25.10835","6501200","瑞芳區"
"224007","273-VK","2017/11/20 16:38:01","新北市瑞芳區月眉路58號","121.760823333333","25.1112916666667","6501200","瑞芳區"
"224005","271-BY","2017/11/20 16:38:07","新北市瑞芳區洞頂路132-1號","121.862415","25.1233966666667","6501200","瑞芳區"
"227008","642-TC","2017/11/20 16:38:10","新北市雙溪區牡丹里中正路58巷24號","121.866208333333","25.0417466666667","6502500","雙溪區"
"227001","400-TW","2017/11/20 16:38:00","新北市雙溪區外柑里外柑腳36號","121.808911666667","25.020305","6502500","雙溪區"
"251008","181-VK","2017/11/20 16:37:58","台北市北投區中央北路四段30巷160號","121.474161666667","25.1404683333333","6501000","淡水區"
"251013","182-VK","2017/11/20 16:37:57","新北市淡水區楓樹湖12-2號","121.49886","25.1868516666667","6501000","淡水區"
"251012","441-VK","2017/11/20 16:38:10","新北市淡水區中正路二段31號","121.419296666667","25.1817983333333","6501000","淡水區"
"251015","442-VK","2017/11/20 16:38:00","新北市淡水區水源街一段29號","121.443221666667","25.1723116666667","6501000","淡水區"
"251011","650-BX","2017/11/20 16:37:58","新北市淡水區中正路二段31號","121.41942","25.1816233333333","6501000","淡水區"
"252002","AAC-283","2017/11/20 16:38:04","新北市三芝區芝柏五街2號","121.511068333333","25.256755","6502100","三芝區"
"236001","339-SR","2017/11/20 11:11:06","新北市土城區永平街51號","121.427635","24.9592283333333","6501300","土城區"
"242059","362-BY","2017/11/20 11:00:40","新北市新莊區新泰路255巷83號","121.442271666667","25.0387133333333","6500500","新莊區"
"238002","755-BX","2017/11/20 16:37:59","新北市樹林區中山路三段210-2號","121.381293333333","24.9657233333333","6500700","樹林區"
"238006","599-UM","2017/11/20 16:37:57","新北市樹林區中山路三段214號","121.380168333333","24.9679883333333","6500700","樹林區"
"238004","283-BY","2017/11/20 16:38:07","新北市樹林區光武街28號","121.415866666667","25.0053133333333","6500700","樹林區"
"238001","282-BY","2017/11/20 16:37:57","新北市樹林區大慶街99-1號","121.42767","24.9996316666667","6500700","樹林區"
"221023","279-VK","2017/11/20 14:54:07","新北市汐止區汐萬路一段256巷1號","121.651705","25.0748783333333","6501100","汐止區"
"220050","245-BX","2017/11/20 16:38:09","新北市八里區中山路三段409號","121.368558333333","25.13498","6500100","板橋區"
"220012","486-VK","2017/11/20 15:40:39","新北市板橋區華東街1-9號","121.44827","24.9948883333333","6500100","板橋區"
