"lineid","car","time","location","longitude","latitude","cityid","cityname"
"234078","298-R6","2017/11/20 16:48:00","新北市五股區成泰路三段544-1號","121.453485","25.101775","6500400","永和區"
"234001","395-TH","2017/11/20 15:54:01","新北市永和區保生路55-8號","121.504108333333","25.010275","6500400","永和區"
"249005","172-UM","2017/11/20 16:47:52","新北市八里區大堀湖1-5號","121.422898333333","25.1548316666667","6502300","八里區"
"249001","173-UM","2017/11/20 16:47:51","新北市八里區博物館路10-1號","121.41533","25.1642133333333","6502300","八里區"
"249004","303-UY","2017/11/20 16:47:58","新北市八里區博物館路201號","121.405081666667","25.1563466666667","6502300","八里區"
"249002","305-UY","2017/11/20 16:48:03","新北市八里區牛寮埔31號","121.429893333333","25.1457216666667","6502300","八里區"
"249003","593-UM","2017/11/20 16:48:06","新北市八里區文昌路101號","121.408461666667","25.1589816666667","6502300","八里區"
"244025","742-UY","2017/11/20 09:30:51","新北市林口區粉寮路二段160巷28號","121.405186666667","25.0908033333333","6501700","林口區"
"244011","701-TV","2017/11/20 16:47:59","新北市林口區粉寮路二段160巷28號","121.405181666667","25.09081","6501700","林口區"
"243009","297-R6","2017/11/20 15:40:45","新北市泰山區黎明路25號","121.421958333333","25.06099","6501600","泰山區"
"231046","278-BY","2017/11/20 16:48:00","新北市新店區灣潭路15-15號","121.541343333333","24.941605","6500600","新店區"
"241011","013-R5","2017/11/20 16:48:09","新北市三重區仁愛街53巷88號","121.498321666667","25.0724483333333","6500200","三重區"
"241028","022-UY","2017/11/20 16:48:11","新北市三重區大同南路50巷61號","121.4975","25.06006","6500200","三重區"
"241008","059-VK","2017/11/20 16:48:08","新北市三重區永福街177巷17號","121.47804","25.0753133333333","6500200","三重區"
"241009","060-VK","2017/11/20 16:48:05","新北市三重區仁美街99號","121.48587","25.0805683333333","6500200","三重區"
"241031","061-VK","2017/11/20 16:47:54","新北市三重區重陽路一段123-1號","121.486808333333","25.0608283333333","6500200","三重區"
"241015","062-VK","2017/11/20 16:48:00","新北市三重區文化北路43巷26號","121.499551666667","25.0656333333333","6500200","三重區"
"241017","063-VK","2017/11/20 16:48:11","新北市三重區國隆路2巷18號","121.492803333333","25.0631883333333","6500200","三重區"
"241024","065-VK","2017/11/20 16:47:59","新北市三重區中正北路317巷9號","121.47491","25.0728683333333","6500200","三重區"
"241026","066-VK","2017/11/20 16:47:50","新北市三重區文化南路8號","121.500128333333","25.062435","6500200","三重區"
"241002","090-VK","2017/11/20 16:47:56","新北市三重區仁義街241巷6號","121.496475","25.082795","6500200","三重區"
"241003","091-VK","2017/11/20 16:48:08","新北市三重區五華街87巷2號","121.492253333333","25.08352","6500200","三重區"
"241005","262-UM","2017/11/20 16:48:06","新北市三重區仁華街80巷24號","121.484393333333","25.0837516666667","6500200","三重區"
"241023","265-UM","2017/11/20 16:48:01","新北市三重區洛陽街39號","121.48233","25.0632616666667","6500200","三重區"
"241016","266-UM","2017/11/20 16:47:55","新北市三重區大同北路103號","121.494228333333","25.064115","6500200","三重區"
"241022","267-UM","2017/11/20 16:48:07","","121.483465","25.0632633333333","6500200","三重區"
"241018","268-UM","2017/11/20 16:47:49","新北市三重區正義北路253號","121.495636666667","25.0696","6500200","三重區"
"241032","269-UM","2017/11/20 16:48:07","","121.485888333333","25.0601783333333","6500200","三重區"
"241013","270-UM","2017/11/20 16:48:03","新北市三重區三和路三段101巷132號","121.498276666667","25.0735933333333","6500200","三重區"
"241025","271-UM","2017/11/20 16:47:52","新北市三重區中正北路530巷13號","121.471553333333","25.0707083333333","6500200","三重區"
"241007","398-BY","2017/11/20 16:48:06","新北市三重區三和路四段183號","121.482558333333","25.0789116666667","6500200","三重區"
"241020","413-TH","2017/11/20 16:48:05","新北市三重區忠孝路二段34號","121.485803333333","25.0710183333333","6500200","三重區"
"241004","475-VK","2017/11/20 16:48:06","新北市三重區仁愛街423-1號","121.490373333333","25.0814766666667","6500200","三重區"
"241019","478-VK","2017/11/20 16:47:56","新北市三重區力行路一段179巷4號","121.484636666667","25.0698666666667","6500200","三重區"
"241030","480-VK","2017/11/20 16:48:03","新北市三重區新興路2巷9號","121.492535","25.0525433333333","6500200","三重區"
"241014","543-UM","2017/11/20 16:47:49","新北市三重區長榮路75號","121.502583333333","25.0691483333333","6500200","三重區"
"241001","547-UM","2017/11/20 16:48:04","新北市三重區仁政街76巷8號","121.492273333333","25.0772383333333","6500200","三重區"
"241006","AAD-863","2017/11/20 16:47:55","新北市三重區力行路二段91巷21弄1號","121.483546666667","25.0759566666667","6500200","三重區"
"241012","941-UM","2017/11/20 16:47:49","新北市三重區三和路三段101巷154號","121.499046666667","25.0738733333333","6500200","三重區"
"241029","942-UM","2017/11/20 16:47:55","新北市三重區集美街205號","121.491576666667","25.0545416666667","6500200","三重區"
"241033","AAC-255","2017/11/20 16:48:03","新北市三重區新北大道二段139巷9號","121.466408333333","25.0608266666667","6500200","三重區"
"235062","800-TS","2017/11/20 16:46:17","新北市中和區員山路36巷16-3號","121.48478","24.991495","6500300","中和區"
"235064","911-UM","2017/11/20 15:49:09","新北市中和區員山路36巷16-3號","121.48492","24.9912516666667","6500300","中和區"
"220013","072-UY","2017/11/20 16:42:06","新北市八里區荖阡坑路34號","121.402716666667","25.12824","6500100","板橋區"
"247004","335-TH","2017/11/20 16:48:07","新北市蘆洲區長榮路106號","121.461841666667","25.08397","6501400","蘆洲區"
"247016","057-VK","2017/11/20 16:47:52","新北市蘆洲區三民路341-7號","121.464176666667","25.091415","6501400","蘆洲區"
"247006","056-VK","2017/11/20 16:47:54","新北市蘆洲區永安南路二段132-1號","121.462656666667","25.0785916666667","6501400","蘆洲區"
"247008","053-VK","2017/11/20 16:47:51","新北市蘆洲區中山二路45巷30號","121.474223333333","25.0811816666667","6501400","蘆洲區"
"247018","001-UY","2017/11/20 16:48:02","新北市蘆洲區中正路520巷15號","121.464498333333","25.0996766666667","6501400","蘆洲區"
"228002","585-TW","2017/11/20 16:48:11","新北市貢寮區貢寮里朝陽街140巷5號","121.90727","25.0226","6502600","貢寮區"
"224006","676-BX","2017/11/20 16:47:53","新北市瑞芳區大寮路356-1號","121.78456","25.103315","6501200","瑞芳區"
"224008","275-VK","2017/11/20 16:48:05","新北市瑞芳區明燈路二段89號","121.809786666667","25.1082816666667","6501200","瑞芳區"
"224007","273-VK","2017/11/20 16:48:01","新北市瑞芳區中央路48巷146號","121.75903","25.1037483333333","6501200","瑞芳區"
"224005","271-BY","2017/11/20 16:47:57","新北市瑞芳區洞頂路116號","121.86122","25.123295","6501200","瑞芳區"
"227008","642-TC","2017/11/20 16:48:10","新北市雙溪區牡丹里聖南1-1號","121.860601666667","25.0499383333333","6502500","雙溪區"
"227001","400-TW","2017/11/20 16:48:01","新北市雙溪區外柑里外柑腳74號","121.807171666667","25.0176233333333","6502500","雙溪區"
"251007","179-VK","2017/11/20 16:47:59","新北市淡水區中正路一段156巷1號","121.420836666667","25.180065","6501000","淡水區"
"251008","181-VK","2017/11/20 16:47:58","新北市淡水區樹梅坑45號","121.474885","25.1444583333333","6501000","淡水區"
"251013","182-VK","2017/11/20 16:47:57","新北市淡水區泉洲厝32號","121.489248333333","25.1925483333333","6501000","淡水區"
"251012","441-VK","2017/11/20 16:47:51","新北市淡水區中正路二段31號","121.419293333333","25.1818066666667","6501000","淡水區"
"251015","442-VK","2017/11/20 16:48:00","新北市淡水區忠愛街6號","121.460816666667","25.1715366666667","6501000","淡水區"
"251011","650-BX","2017/11/20 16:47:58","新北市淡水區中正路二段31號","121.419391666667","25.1816516666667","6501000","淡水區"
"252001","292-VK","2017/11/20 16:48:06","新北市三芝區埔坪里埔頭坑44號","121.504721666667","25.261725","6502100","三芝區"
"252002","AAC-283","2017/11/20 16:48:04","新北市三芝區忠孝街69號","121.505963333333","25.2564966666667","6502100","三芝區"
"236001","339-SR","2017/11/20 11:11:06","新北市土城區永平街51號","121.427635","24.9592283333333","6501300","土城區"
"242059","362-BY","2017/11/20 16:48:06","新北市新莊區新泰路255巷83號","121.442276666667","25.038845","6500500","新莊區"
"242013","346-TH","2017/11/20 15:03:36","新北市新莊區三和路12-17號","121.442113333333","25.037565","6500500","新莊區"
"242019","348-TH","2017/11/20 10:38:52","新北市新莊區新泰路357巷3弄57號","121.442233333333","25.039605","6500500","新莊區"
"238019","599-UM","2017/11/20 16:47:57","新北市樹林區八德街1172號","121.390088333333","24.9683083333333","6500700","樹林區"
"238004","283-BY","2017/11/20 16:48:07","新北市樹林區光武街7-3號","121.415835","25.0053166666667","6500700","樹林區"
"238001","282-BY","2017/11/20 16:47:57","新北市樹林區大慶街99-1號","121.427713333333","24.9997333333333","6500700","樹林區"
"239007","AAC-297","2017/11/20 04:44:58","新北市鶯歌區二甲路13-16號","121.344923333333","24.9352","6500800","鶯歌區"
"239008","527-UM","2017/11/20 02:10:33","新北市鶯歌區二甲路13-16號","121.345008333333","24.935235","6500800","鶯歌區"
"239001","417-VK","2017/11/20 10:42:30","新北市鶯歌區二甲路171-1號","121.343955","24.9355283333333","6500800","鶯歌區"
"239002","359-BY","2017/11/20 16:48:11","","121.343685","24.9353683333333","6500800","鶯歌區"
"221023","279-VK","2017/11/20 14:54:07","新北市汐止區汐萬路一段256巷1號","121.651705","25.0748783333333","6501100","汐止區"
"220050","245-BX","2017/11/20 16:48:09","新北市八里區中山路三段415號","121.370901666667","25.1369866666667","6500100","板橋區"
"220012","486-VK","2017/11/20 15:40:39","新北市板橋區華東街1-9號","121.44827","24.9948883333333","6500100","板橋區"
