"lineid","car","time","location","longitude","latitude","cityid","cityname"
"234001","395-TH","2017/11/20 15:54:01","新北市永和區保生路55-8號","121.504108333333","25.010275","6500400","永和區"
"234026","9381-KE","2017/11/20 17:57:55","新北市永和區永和路一段68號","121.513021666667","25.006145","6500400","永和區"
"249005","172-UM","2017/11/20 17:57:52","新北市八里區荖阡坑路20-8號","121.396776666667","25.1367683333333","6502300","八里區"
"249001","173-UM","2017/11/20 17:57:51","新北市八里區龍米路二段39號","121.448373333333","25.1400716666667","6502300","八里區"
"249004","303-UY","2017/11/20 17:57:58","新北市八里區龍米路三段15號","121.428058333333","25.1590216666667","6502300","八里區"
"249002","305-UY","2017/11/20 17:58:03","新北市八里區龍米路一段259號","121.450736666667","25.133715","6502300","八里區"
"249003","593-UM","2017/11/20 17:58:06","新北市八里區中山路二段306號","121.404661666667","25.1501433333333","6502300","八里區"
"248006","077-UY","2017/11/20 17:57:56","新北市五股區中興路二段37巷28號","121.460086666667","25.075005","6501500","五股區"
"248008","095-VK","2017/11/20 17:58:06","新北市五股區中興路二段150號","121.458611666667","25.07857","6501500","五股區"
"248018","225-UY","2017/11/20 17:57:58","新北市五股區中興路二段83巷26-6號","121.460058333333","25.075125","6501500","五股區"
"248014","261-SL","2017/11/20 17:58:06","新北市五股區中興路二段83巷26-3號","121.460148333333","25.0753116666667","6501500","五股區"
"248010","272-BY","2017/11/20 17:57:57","新北市五股區中興路二段83巷26-6號","121.45986","25.0749716666667","6501500","五股區"
"232011","375-UM","2017/11/20 17:58:07","新北市坪林區北宜路八段301號","121.710895","24.933875","6502000","坪林區"
"244013","069-UM","2017/11/20 17:58:04","新北市林口區中山路95號","121.389538333333","25.0788033333333","6501700","林口區"
"244007","080-UY","2017/11/20 17:58:02","新北市林口區竹林路265號","121.389376666667","25.0807583333333","6501700","林口區"
"244019","403-UM","2017/11/20 17:57:55","新北市林口區忠孝路552巷17-1號","121.374108333333","25.0672266666667","6501700","林口區"
"244025","742-UY","2017/11/20 17:58:01","新北市林口區文化三路一段39巷177號","121.359118333333","25.06755","6501700","林口區"
"244023","483-VK","2017/11/20 17:57:51","新北市林口區東湖路41巷22號","121.386296666667","25.07308","6501700","林口區"
"244017","485-VK","2017/11/20 17:58:02","新北市林口區文化二路一段260巷1-1號","121.371233333333","25.0733333333333","6501700","林口區"
"244009","656-BX","2017/11/20 17:57:51","新北市林口區竹林路564號","121.386778333333","25.083625","6501700","林口區"
"244011","701-TV","2017/11/20 17:57:59","新北市林口區中興街11號","121.388888333333","25.077245","6501700","林口區"
"244021","838-TS","2017/11/20 17:58:04","新北市林口區仁愛路一段1巷78號","121.396175","25.06954","6501700","林口區"
"243009","297-R6","2017/11/20 15:40:45","新北市泰山區黎明路25號","121.421958333333","25.06099","6501600","泰山區"
"222003","436-BY","2017/11/20 17:58:03","新北市深坑區炮子崙9號","121.603591666667","24.9872066666667","6501800","深坑區"
"222002","659-BX","2017/11/20 17:58:09","新北市深坑區深坑街35號","121.615951666667","25.0018266666667","6501800","深坑區"
"231046","278-BY","2017/11/20 17:58:00","新北市新店區康雅崙路1號","121.540373333333","24.92604","6500600","新店區"
"241016","266-UM","2017/11/20 17:57:55","新北市三重區新北大道一段7號","121.489721666667","25.06161","6500200","三重區"
"241024","743-BX","2017/11/20 17:57:29","新北市三重區國道路一段39巷1號","121.484126666667","25.073","6500200","三重區"
"241033","AAC-255","2017/11/20 17:58:03","新北市三重區重新路五段652號","121.468115","25.0441366666667","6500200","三重區"
"235065","098-UM","2017/11/20 17:57:57","新北市中和區新生街215號","121.483838333333","24.9996033333333","6500300","中和區"
"235058","151-BY","2017/11/20 17:58:06","新北市中和區錦和路350-1號","121.49054","24.9935666666667","6500300","中和區"
"235038","185-VK","2017/11/20 17:57:57","新北市中和區中正路637巷52弄3號","121.48531","24.9935583333333","6500300","中和區"
"235042","551-UM","2017/11/20 17:57:50","新北市中和區中正路281-6號","121.494441666667","24.99383","6500300","中和區"
"235062","800-TS","2017/11/20 17:58:03","新北市中和區員山路36巷16-8號","121.485478333333","24.9923766666667","6500300","中和區"
"235064","911-UM","2017/11/20 15:49:09","新北市中和區員山路36巷16-3號","121.48492","24.9912516666667","6500300","中和區"
"235037","157-BY","2017/11/20 17:57:52","新北市中和區員山路36巷13號","121.484056666667","24.9909383333333","6500300","中和區"
"247022","893-R6","2017/11/20 17:58:05","新北市蘆洲區中正路516巷38-5號","121.461941666667","25.0977866666667","6501400","蘆洲區"
"247012","546-UM","2017/11/20 17:58:07","新北市蘆洲區民族路167巷6號","121.478455","25.0882366666667","6501400","蘆洲區"
"247020","500-BY","2017/11/20 17:58:05","新北市蘆洲區民權路125號","121.472003333333","25.0900333333333","6501400","蘆洲區"
"247010","339-TH","2017/11/20 17:58:00","新北市蘆洲區三民路26巷2弄2號","121.476123333333","25.08269","6501400","蘆洲區"
"247002","337-TH","2017/11/20 17:58:02","新北市蘆洲區永平街32巷45弄36號","121.45835","25.0933366666667","6501400","蘆洲區"
"247004","335-TH","2017/11/20 17:58:01","新北市蘆洲區環堤大道88號","121.455338333333","25.0849383333333","6501400","蘆洲區"
"247016","057-VK","2017/11/20 17:57:52","新北市蘆洲區中正路185巷78弄17號","121.46578","25.0847433333333","6501400","蘆洲區"
"247006","056-VK","2017/11/20 17:57:54","新北市蘆洲區長安街49巷8弄3號","121.462295","25.0786683333333","6501400","蘆洲區"
"247008","053-VK","2017/11/20 17:57:51","新北市蘆洲區中山一路265號","121.472698333333","25.08014","6501400","蘆洲區"
"247014","007-UY","2017/11/20 17:58:02","新北市蘆洲區保和街28號","121.470451666667","25.08648","6501400","蘆洲區"
"247024","002-UY","2017/11/20 17:58:05","新北市蘆洲區長興路158巷9號","121.462225","25.0859416666667","6501400","蘆洲區"
"247018","001-UY","2017/11/20 17:58:02","新北市蘆洲區復興路316號","121.481681666667","25.0901316666667","6501400","蘆洲區"
"228003","097-TW","2017/11/20 17:57:57","新北市貢寮區真理里美艷山街6-2號","121.928908333333","25.0607016666667","6502600","貢寮區"
"228002","585-TW","2017/11/20 17:57:51","新北市貢寮區福隆里桂安街17號","121.963823333333","25.0211616666667","6502600","貢寮區"
"228001","670-TC","2017/11/20 17:57:58","新北市貢寮區真理里新港街26巷31號","121.92884","25.05488","6502600","貢寮區"
"224006","676-BX","2017/11/20 17:57:52","新北市瑞芳區傑魚坑路183號","121.78845","25.10827","6501200","瑞芳區"
"224002","639-TC","2017/11/20 17:57:56","新北市瑞芳區三爪子坑路127號","121.81024","25.106895","6501200","瑞芳區"
"224009","285-BY","2017/11/20 17:57:54","新北市瑞芳區山尖路173號","121.852245","25.1114833333333","6501200","瑞芳區"
"224008","275-VK","2017/11/20 17:58:05","新北市瑞芳區明燈路一段45巷109號","121.822103333333","25.103675","6501200","瑞芳區"
"224005","271-BY","2017/11/20 17:58:11","新北市瑞芳區深澳路197-2號","121.819628333333","25.1338566666667","6501200","瑞芳區"
"253006","295-VK","2017/11/20 17:58:06","新北市石門區大丘田45-2號","121.549885","25.2748916666667","6502200","石門區"
"208002","742-BX","2017/11/20 17:58:07","新北市金山區三界壇路55號","121.627186666667","25.2280583333333","6502700","金山區"
"208003","665-BX","2017/11/20 17:57:58","新北市金山區磺港里磺港路302-1號","121.643776666667","25.2267783333333","6502700","金山區"
"208001","761-BX","2017/11/20 17:57:59","新北市金山區磺港里社寮16-1號","121.638893333333","25.2264983333333","6502700","金山區"
"251009","008-UM","2017/11/20 17:58:00","新北市淡水區中山路157號","121.44061","25.1725866666667","6501000","淡水區"
"251004","009-UM","2017/11/20 17:58:02","新北市淡水區民權路72-1號","121.45942","25.1343216666667","6501000","淡水區"
"251005","010-UM","2017/11/20 17:58:00","新北市淡水區水源街一段110號","121.446808333333","25.1719383333333","6501000","淡水區"
"251002","012-UM","2017/11/20 17:57:54","新北市淡水區公明街89號","121.444536666667","25.1682266666667","6501000","淡水區"
"251008","181-VK","2017/11/20 17:57:58","新北市淡水區八勢路一段48號","121.46543","25.15493","6501000","淡水區"
"251013","182-VK","2017/11/20 17:57:57","新北市淡水區泉洲厝31號","121.479573333333","25.1910483333333","6501000","淡水區"
"251010","413-VK","2017/11/20 17:58:04","新北市淡水區中正路一段132巷4號","121.422416666667","25.1796083333333","6501000","淡水區"
"251012","441-VK","2017/11/20 17:57:51","新北市淡水區北新路三段10號","121.4828","25.1854183333333","6501000","淡水區"
"251015","442-VK","2017/11/20 17:58:00","新北市淡水區興福寮88巷1號","121.485601666667","25.1650533333333","6501000","淡水區"
"251001","559-UM","2017/11/20 17:57:58","新北市淡水區民權路92巷35-1號","121.462531666667","25.1261683333333","6501000","淡水區"
"251006","561-UM","2017/11/20 17:58:07","新北市淡水區新生街20-5號","121.43887","25.1738216666667","6501000","淡水區"
"251011","650-BX","2017/11/20 17:57:58","新北市淡水區三空泉5號","121.47638","25.1612266666667","6501000","淡水區"
"251003","766-UM","2017/11/20 17:58:04","新北市淡水區大忠街79-6號","121.445805","25.17726","6501000","淡水區"
"207003","550-UM","2017/11/20 17:58:00","新北市萬里區港東路野柳風景區攤販153號","121.690788333333","25.205465","6502800","萬里區"
"207004","225-TW","2017/11/20 17:57:56","新北市萬里區中幅里中福路48號","121.683251666667","25.17396","6502800","萬里區"
"252001","292-VK","2017/11/20 17:58:06","新北市三芝區中興街一段30號","121.497691666667","25.2578183333333","6502100","三芝區"
"252002","AAC-283","2017/11/20 17:58:04","新北市三芝區中山路一段155號","121.50235","25.2561116666667","6502100","三芝區"
"237007","153-BY","2017/11/20 17:58:02","新北市三峽區中園街137號","121.367343333333","24.9234416666667","6500900","三峽區"
"237009","210-TH","2017/11/20 17:58:04","新北市三峽區文化路266號","121.366515","24.9357566666667","6500900","三峽區"
"237013","252-BX","2017/11/20 17:57:49","新北市三峽區介壽路一段176號","121.377286666667","24.9309583333333","6500900","三峽區"
"237012","275-BY","2017/11/20 17:58:02","新北市三峽區民生街27巷2號","121.375946666667","24.9362033333333","6500900","三峽區"
"237008","302-VK","2017/11/20 17:57:53","新北市三峽區正義街206號","121.368045","24.9136166666667","6500900","三峽區"
"237014","433-BY","2017/11/20 17:57:57","新北市三峽區復興路101巷1弄79號","121.370973333333","24.937625","6500900","三峽區"
"237006","5529-G3","2017/11/20 17:58:01","新北市三峽區介壽路二段138巷1弄146-1號","121.3992","24.9310433333333","6500900","三峽區"
"237011","572-TV","2017/11/20 17:58:09","新北市三峽區大同路14號","121.37805","24.929645","6500900","三峽區"
"237015","649-BX","2017/11/20 17:57:55","新北市三峽區紫微路87號","121.40425","24.909635","6500900","三峽區"
"237010","706-TV","2017/11/20 17:57:52","新北市三峽區仁愛街31號","121.368475","24.9333233333333","6500900","三峽區"
"237005","AKY-6261","2017/11/20 17:58:06","新北市三峽區復興路237巷28號","121.36838","24.9374316666667","6500900","三峽區"
"236069","105-UM","2017/11/20 17:58:05","新北市土城區城林路6巷80號","121.438446666667","24.9797116666667","6501300","土城區"
"236042","107-UM","2017/11/20 17:58:05","新北市土城區中央路一段299號","121.444095","24.9838316666667","6501300","土城區"
"236078","166-UM","2017/11/20 17:58:04","新北市土城區永寧路32巷10弄21號","121.428963333333","24.9610133333333","6501300","土城區"
"236030","253-BX","2017/11/20 17:58:01","新北市土城區城林路6巷80號","121.438516666667","24.97975","6501300","土城區"
"236026","269-VK","2017/11/20 17:57:59","新北市土城區承天路18號","121.439455","24.9633833333333","6501300","土城區"
"236014","270-VK","2017/11/20 17:57:57","新北市土城區城林路6巷80號","121.438521666667","24.9796183333333","6501300","土城區"
"236036","271-VK","2017/11/20 17:57:56","新北市土城區城林路6巷80號","121.438471666667","24.9797216666667","6501300","土城區"
"236001","339-SR","2017/11/20 11:11:06","新北市土城區永平街51號","121.427635","24.9592283333333","6501300","土城區"
"236020","401-BY","2017/11/20 17:58:06","新北市土城區城林路6巷80號","121.438683333333","24.9796966666667","6501300","土城區"
"236058","912-UM","2017/11/20 17:58:03","新北市土城區中央路三段70-1號","121.436558333333","24.967215","6501300","土城區"
"236048","913-UM","2017/11/20 17:57:51","新北市土城區城林路6巷80號","121.43853","24.979695","6501300","土城區"
"236062","915-UM","2017/11/20 17:58:03","新北市土城區中央路二段280號","121.440706666667","24.9740016666667","6501300","土城區"
"236053","AAC-216","2017/11/20 17:57:58","新北市土城區城林路6巷80號","121.438446666667","24.9796433333333","6501300","土城區"
"242029","986-R7","2017/11/20 17:58:00","新北市新莊區新泰路352號","121.444795","25.0425416666667","6500500","新莊區"
"242050","751-BX","2017/11/20 17:58:01","新北市新莊區龍安路496號","121.426286666667","25.0171766666667","6500500","新莊區"
"242027","705-TV","2017/11/20 17:57:57","新北市新莊區幸福路7號","121.459265","25.049385","6500500","新莊區"
"242025","615-BX","2017/11/20 17:58:06","新北市新莊區新北大道二段302號","121.464721666667","25.06119","6500500","新莊區"
"242023","613-BX","2017/11/20 17:58:08","新北市新莊區福壽街12號","121.457895","25.0477866666667","6500500","新莊區"
"242039","566-BX","2017/11/20 17:57:51","新北市新莊區民安西路1號","121.426496666667","25.0219466666667","6500500","新莊區"
"242044","497-BY","2017/11/20 17:57:56","新北市新莊區雙鳳路107號","121.413993333333","25.0279433333333","6500500","新莊區"
"242031","442-UM","2017/11/20 17:57:55","新北市新莊區新泰路321巷37號","121.442986666667","25.0410966666667","6500500","新莊區"
"242048","441-UM","2017/11/20 17:58:07","新北市新莊區萬安街65號","121.421408333333","25.024095","6500500","新莊區"
"242053","440-UM","2017/11/20 17:57:55","新北市新莊區民安西路400號","121.428725","25.0101683333333","6500500","新莊區"
"242034","415-TV","2017/11/20 17:58:09","新北市新莊區景德路416號","121.444605","25.0333766666667","6500500","新莊區"
"242004","413-TV","2017/11/20 17:58:00","新北市新莊區思源路177巷15號","121.459251666667","25.046165","6500500","新莊區"
"242042","400-BY","2017/11/20 17:58:06","新北市新莊區中正路656號","121.42125","25.028725","6500500","新莊區"
"242060","362-BY","2017/11/20 17:58:06","新北市新莊區新樹路357號","121.432901666667","25.0182916666667","6500500","新莊區"
"242058","353-BY","2017/11/20 17:58:06","新北市新莊區中山路三段157號","121.412655","25.0292333333333","6500500","新莊區"
"242017","132-UY","2017/11/20 17:57:50","新北市新莊區中港路339巷38號","121.450525","25.0451666666667","6500500","新莊區"
"242036","133-UY","2017/11/20 17:57:58","新北市新莊區中正路671號","121.426556666667","25.029935","6500500","新莊區"
"242021","135-UY","2017/11/20 17:58:01","新北市新莊區建興街4號","121.450166666667","25.0364883333333","6500500","新莊區"
"242046","172-VK","2017/11/20 17:57:57","新北市新莊區福營路167號","121.431815","25.031175","6500500","新莊區"
"242009","173-VK","2017/11/20 17:58:01","新北市新莊區中華路二段314號","121.452515","25.0539533333333","6500500","新莊區"
"242015","175-VK","2017/11/20 17:57:56","新北市新莊區中平路119巷19號","121.443936666667","25.0466866666667","6500500","新莊區"
"242002","176-VK","2017/11/20 17:57:59","新北市新莊區大觀街42巷31號","121.454616666667","25.0364316666667","6500500","新莊區"
"242013","346-TH","2017/11/20 17:57:59","新北市新莊區中和街85號","121.447408333333","25.047795","6500500","新莊區"
"242007","347-TH","2017/11/20 17:58:02","新北市新莊區自信街65巷5號","121.455413333333","25.048575","6500500","新莊區"
"242019","348-TH","2017/11/20 17:57:56","新北市新莊區明中街43巷4號","121.457536666667","25.03902","6500500","新莊區"
"242056","349-TH","2017/11/20 17:57:57","新北市新莊區豐年街126號","121.446488333333","25.02982","6500500","新莊區"
"242011","351-TH","2017/11/20 17:58:03","新北市新莊區中港路中慶巷13號","121.45064","25.0537783333333","6500500","新莊區"
"238015","755-BX","2017/11/20 17:58:01","新北市樹林區啟智街80巷5號","121.419218333333","24.9922016666667","6500700","樹林區"
"238023","601-UM","2017/11/20 17:57:55","新北市樹林區龍興街34號","121.40289","25.0158316666667","6500700","樹林區"
"238019","599-UM","2017/11/20 17:57:57","新北市樹林區信義街84號","121.425171666667","24.9827816666667","6500700","樹林區"
"238018","571-TV","2017/11/20 17:58:07","新北市樹林區樹新路162-1號","121.430765","24.9995316666667","6500700","樹林區"
"238021","KEA-2217","2017/11/20 17:57:54","新北市樹林區柑園街一段67-5號","121.40216","24.9602116666667","6500700","樹林區"
"238022","KEA-2213","2017/11/20 17:57:55","新北市樹林區太順街51巷1號","121.41765","24.9790333333333","6500700","樹林區"
"238025","303-VK","2017/11/20 17:58:02","新北市樹林區三俊街111號","121.41716","25.0154916666667","6500700","樹林區"
"238017","283-BY","2017/11/20 17:58:06","新北市樹林區三德街1號","121.412603333333","25.0126966666667","6500700","樹林區"
"238014","282-BY","2017/11/20 17:57:57","新北市樹林區保安街一段219號","121.420441666667","24.9962666666667","6500700","樹林區"
"238020","268-VK","2017/11/20 17:58:08","新北市樹林區三俊街233號","121.421683333333","25.0147833333333","6500700","樹林區"
"238026","172-UY","2017/11/20 17:57:52","新北市樹林區中洲街3號","121.397363333333","24.9729233333333","6500700","樹林區"
"238016","169-UY","2017/11/20 17:58:04","新北市樹林區啟智街98-11號","121.416818333333","24.9882683333333","6500700","樹林區"
"239007","AAC-297","2017/11/20 17:58:04","新北市鶯歌區鶯桃路94巷59弄9號","121.341596666667","24.9552283333333","6500800","鶯歌區"
"239006","891-R6","2017/11/20 17:57:59","新北市鶯歌區鶯桃路413巷34弄30號","121.33087","24.9641916666667","6500800","鶯歌區"
"239008","527-UM","2017/11/20 17:58:06","新北市鶯歌區香賓街11巷2號","121.336821666667","24.9794833333333","6500800","鶯歌區"
"239005","526-UM","2017/11/20 17:57:54","桃園市八德區桃鶯路96號","121.327863333333","24.970255","6500800","鶯歌區"
"239001","417-VK","2017/11/20 17:57:55","新北市鶯歌區中正三路171號","121.336365","24.9398466666667","6500800","鶯歌區"
"239003","360-BY","2017/11/20 17:58:01","新北市鶯歌區永吉街19號","121.336055","24.9577983333333","6500800","鶯歌區"
"239002","359-BY","2017/11/20 17:58:11","新北市鶯歌區育英街17巷1弄3號","121.347371666667","24.9552383333333","6500800","鶯歌區"
"221008","489-VK","2017/11/20 17:57:51","新北市汐止區明峰街4號","121.635476666667","25.0712333333333","6501100","汐止區"
"221036","130-UY","2017/11/20 17:57:56","新北市汐止區忠孝東路473巷20號","121.665336666667","25.073495","6501100","汐止區"
"221010","269-BY","2017/11/20 17:58:07","新北市汐止區汐萬路二段122巷38弄42號","121.648135","25.0868916666667","6501100","汐止區"
"221012","278-VK","2017/11/20 17:58:01","新北市汐止區長興街二段14號","121.672628333333","25.081065","6501100","汐止區"
"221023","279-VK","2017/11/20 17:58:08","新北市汐止區明峰街142號","121.62959","25.07072","6501100","汐止區"
"221032","280-BY","2017/11/20 17:58:08","新北市汐止區大同路一段98-1號","121.629456666667","25.054265","6501100","汐止區"
"221027","281-BY","2017/11/20 17:58:07","新北市汐止區大同路二段350號","121.656835","25.0670366666667","6501100","汐止區"
"221029","298-VK","2017/11/20 17:58:07","新北市汐止區樟樹二路329號","121.64137","25.0703733333333","6501100","汐止區"
"221021","299-VK","2017/11/20 17:57:58","新北市汐止區水源路一段56-1號","121.657111666667","25.065355","6501100","汐止區"
"221031","353-TW","2017/11/20 17:57:56","新北市汐止區中興路37號","121.634708333333","25.0621533333333","6501100","汐止區"
"221015","567-BX","2017/11/20 17:58:07","新北市汐止區長江街281號","121.66482","25.0807483333333","6501100","汐止區"
"221035","622-UM","2017/11/20 17:58:02","新北市汐止區汐萬路一段115巷44號","121.6533","25.0702483333333","6501100","汐止區"
"221025","623-UM","2017/11/20 17:58:09","新北市汐止區仁愛路35號","121.659486666667","25.06357","6501100","汐止區"
"221038","646-BX","2017/11/20 17:58:04","新北市汐止區連興街120號","121.653716666667","25.0624016666667","6501100","汐止區"
"221033","647-BX","2017/11/20 17:57:51","新北市汐止區合順街27號","121.620283333333","25.04316","6501100","汐止區"
"221002","707-TV","2017/11/20 17:57:55","新北市汐止區樟樹二路101號","121.640211666667","25.0664683333333","6501100","汐止區"
"221018","753-BX","2017/11/20 17:58:09","新北市汐止區茄苳路88巷6弄20號","121.66615","25.0695116666667","6501100","汐止區"
"220012","486-VK","2017/11/20 17:58:07","新北市板橋區華東街1-9號","121.448285","24.994875","6500100","板橋區"
