"lineid","car","time","location","longitude","latitude","cityid","cityname"
"234046","148-BY","2017/11/20 18:48:07","新北市永和區得和路373巷31弄9號","121.524653333333","25.00067","6500400","永和區"
"234013","149-BY","2017/11/20 18:48:02","新北市永和區仁愛路202巷24號","121.508923333333","25.01295","6500400","永和區"
"234007","207-UY","2017/11/20 18:47:49","新北市永和區文化路170號","121.511778333333","25.0154833333333","6500400","永和區"
"234081","298-R6","2017/11/20 18:47:58","新北市永和區永利路112號","121.52135","25.0032366666667","6500400","永和區"
"234038","336-UY","2017/11/20 18:48:06","新北市永和區環河東路二段92號","121.524406666667","25.010615","6500400","永和區"
"234086","338-UY","2017/11/20 18:47:55","新北市永和區中正路82號","121.513881666667","24.995245","6500400","永和區"
"234001","395-TH","2017/11/20 15:54:01","新北市永和區保生路55-8號","121.504108333333","25.010275","6500400","永和區"
"234070","552-UM","2017/11/20 18:47:57","新北市永和區福和路1號","121.526355","25.0095333333333","6500400","永和區"
"234054","553-UM","2017/11/20 18:48:08","新北市永和區福和路1號","121.526193333333","25.0096166666667","6500400","永和區"
"234017","745-BX","2017/11/20 18:48:01","新北市永和區忠孝街26巷8號","121.515311666667","25.0167866666667","6500400","永和區"
"234030","746-BX","2017/11/20 18:47:53","新北市永和區得和路325號","121.523446666667","24.9996466666667","6500400","永和區"
"234061","AAD-866","2017/11/20 18:48:01","新北市永和區中正路509巷4號","121.51649","25.0070733333333","6500400","永和區"
"234042","862-TW","2017/11/20 18:47:59","新北市永和區永貞路265號","121.511766666667","25.0047316666667","6500400","永和區"
"234050","863-TW","2017/11/20 18:48:10","新北市永和區保安路2號","121.510811666667","25.017465","6500400","永和區"
"234011","9373-KE","2017/11/20 18:48:07","新北市永和區文化路113巷14號","121.51297","25.014545","6500400","永和區"
"249005","172-UM","2017/11/20 18:47:52","新北市八里區長道坑14-9號","121.39455","25.118245","6502300","八里區"
"249001","173-UM","2017/11/20 18:47:51","新北市八里區龍米路二段16號","121.449011666667","25.1390716666667","6502300","八里區"
"249004","303-UY","2017/11/20 18:47:58","新北市八里區仁愛路10號","121.413295","25.1621366666667","6502300","八里區"
"248016","026-BX","2017/11/20 18:47:52","新北市五股區凌雲路一段149巷42號","121.448578333333","25.1008966666667","6501500","五股區"
"248006","077-UY","2017/11/20 18:47:56","新北市五股區中興路二段9巷40號","121.461995","25.0729566666667","6501500","五股區"
"248008","095-VK","2017/11/20 18:48:06","新北市五股區中興路一段153號","121.465013333333","25.073395","6501500","五股區"
"248018","225-UY","2017/11/20 18:47:58","新北市五股區民義路二段43號","121.410406666667","25.1043783333333","6501500","五股區"
"248012","247-BX","2017/11/20 18:48:04","新北市五股區成泰路二段147巷2-2號","121.437505","25.0890933333333","6501500","五股區"
"248014","261-SL","2017/11/20 18:48:05","新北市五股區中興路四段74號","121.43698","25.0836333333333","6501500","五股區"
"248010","272-BY","2017/11/20 18:47:57","新北市五股區水碓五路117號","121.430941666667","25.072775","6501500","五股區"
"248004","677-BX","2017/11/20 18:48:05","新北市五股區民義路二段23號","121.416863333333","25.0990333333333","6501500","五股區"
"248002","678-BX","2017/11/20 18:47:59","新北市五股區成泰路三段437號","121.449855","25.09785","6501500","五股區"
"234023","9380-KE","2017/11/20 18:48:01","新北市永和區竹林路119巷22弄39號","121.52263","25.0112016666667","6500400","永和區"
"234077","969-R7","2017/11/20 18:48:08","新北市永和區中正路38號","121.51294","24.9943233333333","6500400","永和區"
"234067","AAC-212","2017/11/20 18:48:00","新北市永和區永和路一段22號","121.513021666667","25.0048483333333","6500400","永和區"
"234003","AAC-295","2017/11/20 18:48:06","新北市永和區中正路523號","121.516933333333","25.007495","6500400","永和區"
"232011","375-UM","2017/11/20 18:20:52","新北市坪林區坪雙路一段43號","121.711773333333","24.9424766666667","6502000","坪林區"
"244013","069-UM","2017/11/20 18:48:04","新北市林口區文化一路一段120號","121.374153333333","25.0719333333333","6501700","林口區"
"244007","080-UY","2017/11/20 18:48:02","新北市林口區太平里22號","121.37641","25.11579","6501700","林口區"
"244019","403-UM","2017/11/20 18:47:55","新北市林口區忠孝路616巷25號","121.377398333333","25.0672666666667","6501700","林口區"
"244025","742-UY","2017/11/20 18:48:04","新北市林口區南勢二街412號","121.359811666667","25.0770933333333","6501700","林口區"
"244023","483-VK","2017/11/20 18:48:06","新北市林口區民權路159號","121.374265","25.08409","6501700","林口區"
"244017","485-VK","2017/11/20 18:48:02","新北市林口區文化二路一段68巷18-2號","121.366178333333","25.0677916666667","6501700","林口區"
"244009","656-BX","2017/11/20 18:47:51","新北市林口區竹林路326巷106號","121.393075","25.0834583333333","6501700","林口區"
"244011","701-TV","2017/11/20 18:47:59","新北市林口區仁愛路一段252號","121.394708333333","25.0759566666667","6501700","林口區"
"244021","838-TS","2017/11/20 18:48:04","新北市林口區工六路48號","121.399131666667","25.0781833333333","6501700","林口區"
"243012","AAD-798","2017/11/20 18:47:53","新北市泰山區泰林路二段73巷27號","121.434418333333","25.0578733333333","6501600","泰山區"
"243009","297-R6","2017/11/20 18:47:49","新北市泰山區黎明路25號","121.422088333333","25.06111","6501600","泰山區"
"243015","380-SR","2017/11/20 18:48:05","新北市泰山區泰林路二段370號","121.428466666667","25.0637233333333","6501600","泰山區"
"243010","KEA-2215","2017/11/20 18:48:06","新北市泰山區公園路23號","121.429171666667","25.0542816666667","6501600","泰山區"
"243013","646-TV","2017/11/20 18:31:56","新北市泰山區明志路三段206巷3號","121.42329","25.03789","6501600","泰山區"
"222003","436-BY","2017/11/20 18:48:03","新北市深坑區翠谷街1號","121.626375","25.0073533333333","6501800","深坑區"
"222002","659-BX","2017/11/20 18:48:09","新北市深坑區文山路一段69號","121.626971666667","25.001855","6501800","深坑區"
"231059","001-UM","2017/11/20 18:48:07","新北市新店區安華路28-1號","121.519473333333","24.9607583333333","6500600","新店區"
"231041","002-UM","2017/11/20 18:48:02","新北市新店區安華路28-1號","121.519681666667","24.960795","6500600","新店區"
"231061","047-UY","2017/11/20 18:48:04","新北市新店區安華路28-1號","121.519121666667","24.9609966666667","6500600","新店區"
"231060","106-UY","2017/11/20 18:48:05","新北市新店區安華路28-1號","121.519763333333","24.9608616666667","6500600","新店區"
"231047","108-UY","2017/11/20 18:48:02","新北市新店區德正街17巷1號","121.543643333333","24.9728433333333","6500600","新店區"
"231052","187-VK","2017/11/20 18:47:59","新北市新店區永興路15號","121.544491666667","24.93899","6500600","新店區"
"231050","KEA-2219","2017/11/20 18:48:04","新北市新店區安康路一段259號","121.524471666667","24.963365","6500600","新店區"
"231057","256-BX","2017/11/20 18:47:56","新北市新店區花園一路一段2號","121.553076666667","24.932445","6500600","新店區"
"231063","268-BY","2017/11/20 18:47:51","新北市新店區安華路28-1號","121.51963","24.96071","6500600","新店區"
"231046","278-BY","2017/11/20 18:48:02","新北市新店區直潭路43號","121.533463333333","24.94251","6500600","新店區"
"231054","AAD-862","2017/11/20 18:48:08","新北市新店區安康路一段81號","121.529703333333","24.9612616666667","6500600","新店區"
"231058","3712-VJ","2017/11/20 18:47:52","新北市新店區北宜路一段41號","121.538295","24.9573383333333","6500600","新店區"
"231056","3713-VJ","2017/11/20 18:48:01","新北市新店區建國路148號","121.538795","24.9790666666667","6500600","新店區"
"231055","4716-K9","2017/11/20 18:47:50","新北市新店區中華路64號","121.539305","24.9690116666667","6500600","新店區"
"231067","4772-VM","2017/11/20 18:48:03","新北市新店區安康路一段76巷26號","121.52825","24.963215","6500600","新店區"
"231065","512-UM","2017/11/20 18:48:00","新北市新店區安忠路205巷8號","121.509693333333","24.9551366666667","6500600","新店區"
"231064","515-UM","2017/11/20 18:47:56","新北市新店區安華路28-1號","121.51939","24.9611033333333","6500600","新店區"
"231042","616-UM","2017/11/20 18:48:00","新北市新店區安康路一段241號","121.524988333333","24.9632433333333","6500600","新店區"
"231045","617-UM","2017/11/20 18:47:55","新北市新店區安康路一段240-1號","121.521875","24.9637616666667","6500600","新店區"
"231040","619-UM","2017/11/20 18:47:54","新北市新店區環河路18號","121.537133333333","24.9614383333333","6500600","新店區"
"231049","719-UM","2017/11/20 18:47:52","新北市新店區中正路454-5號","121.53444","24.979035","6500600","新店區"
"231051","719-UY","2017/11/20 18:48:00","新北市新店區中央路222號","121.529718333333","24.972935","6500600","新店區"
"231062","720-UM","2017/11/20 18:47:53","新北市新店區安忠路57巷11弄14號","121.515361666667","24.95796","6500600","新店區"
"231044","897-TW","2017/11/20 18:47:53","新北市新店區寶中路45-3號","121.545208333333","24.9790883333333","6500600","新店區"
"231043","899-TW","2017/11/20 18:48:00","新北市新店區安康路一段235號","121.525228333333","24.963215","6500600","新店區"
"231066","AKT-0513","2017/11/20 18:47:50","新北市新店區安豐路22巷7號","121.501081666667","24.9548533333333","6500600","新店區"
"241035","462-BY","2017/11/20 18:48:07","新北市三重區重新路四段121號","121.484803333333","25.05201","6500200","三重區"
"235066","003-UY","2017/11/20 18:47:51","新北市中和區光華街44號","121.50502","25.003805","6500300","中和區"
"235063","006-UY","2017/11/20 18:47:57","新北市中和區連城路401號","121.486221666667","24.9962266666667","6500300","中和區"
"235056","096-UM","2017/11/20 18:48:05","新北市中和區員山路611巷5弄1號","121.477931666667","25.0111366666667","6500300","中和區"
"235039","097-UM","2017/11/20 18:48:01","新北市中和區宜安路16號","121.51341","24.9957416666667","6500300","中和區"
"235065","098-UM","2017/11/20 18:47:57","新北市中和區莊敬路33巷38弄1號","121.500548333333","25.006595","6500300","中和區"
"235040","150-BY","2017/11/20 18:47:56","新北市中和區安和路35號","121.509943333333","24.9945516666667","6500300","中和區"
"235058","151-BY","2017/11/20 18:48:05","新北市中和區連城路533號","121.480543333333","24.99497","6500300","中和區"
"235055","183-VK","2017/11/20 18:47:49","新北市中和區民生街18號","121.470311666667","25.005465","6500300","中和區"
"235038","185-VK","2017/11/20 18:47:57","新北市中和區自強路64號","121.520026666667","24.9944066666667","6500300","中和區"
"235049","186-VK","2017/11/20 18:48:00","新北市中和區明義街38號","121.503745","24.9953683333333","6500300","中和區"
"235044","293-VK","2017/11/20 18:47:48","新北市中和區中興街164號","121.499905","24.9915516666667","6500300","中和區"
"235072","301-VK","2017/11/20 18:48:03","新北市中和區中山路二段40號","121.504383333333","25.00511","6500300","中和區"
"235043","352-BY","2017/11/20 18:48:10","新北市中和區成功路139號","121.525916666667","24.990095","6500300","中和區"
"235068","377-QA","2017/11/20 18:48:02","新北市中和區中正路211巷13弄3號","121.497046666667","24.9930283333333","6500300","中和區"
"235061","378-QA","2017/11/20 18:48:02","新北市中和區民享街86巷1號","121.474508333333","25.0008666666667","6500300","中和區"
"235050","4979-A6","2017/11/20 18:47:59","新北市中和區景新街496巷32弄9號","121.513075","24.9852933333333","6500300","中和區"
"235069","4980-A6","2017/11/20 18:47:50","新北市中和區連城路67號","121.497601666667","25.00133","6500300","中和區"
"235042","551-UM","2017/11/20 18:47:50","新北市中和區秀朗路三段153巷16弄5號","121.525811666667","24.991585","6500300","中和區"
"235070","558-UM","2017/11/20 18:47:52","新北市中和區南華路30-10號","121.503408333333","24.9958433333333","6500300","中和區"
"235045","565-BX","2017/11/20 18:47:59","新北市中和區南山路393號","121.506581666667","24.9901833333333","6500300","中和區"
"235054","640-BX","2017/11/20 18:48:08","新北市中和區民享街89巷4弄13號","121.4752","25.0011766666667","6500300","中和區"
"235060","647-TV","2017/11/20 18:47:55","新北市中和區中山路三段81號","121.476028333333","25.0058516666667","6500300","中和區"
"235047","732-UM","2017/11/20 18:47:56","新北市中和區興南路二段34巷57弄2號","121.504835","24.9855766666667","6500300","中和區"
"235046","733-UM","2017/11/20 18:47:57","新北市中和區仁愛街36巷55號","121.511413333333","24.98625","6500300","中和區"
"235062","800-TS","2017/11/20 18:48:03","新北市中和區中山路二段330號","121.494901666667","25.00233","6500300","中和區"
"235057","801-TS","2017/11/20 18:47:50","新北市中和區民安街22巷1號","121.480256666667","25.000835","6500300","中和區"
"235041","802-TS","2017/11/20 18:48:01","新北市中和區宜安路118巷18號","121.510895","24.9985516666667","6500300","中和區"
"235052","805-TS","2017/11/20 18:48:02","新北市中和區興南路二段399巷22號","121.499106666667","24.9789766666667","6500300","中和區"
"235048","896-TW","2017/11/20 18:47:51","新北市中和區南山路250巷2號","121.507716666667","24.9889216666667","6500300","中和區"
"235053","900-TW","2017/11/20 18:48:00","新北市中和區華福街42巷3號","121.466386666667","24.996255","6500300","中和區"
"235064","911-UM","2017/11/20 18:48:05","新北市中和區連城路89巷9-2號","121.497538333333","24.9988983333333","6500300","中和區"
"235037","157-BY","2017/11/20 18:47:52","新北市中和區華新街143巷60號","121.505931666667","24.9795066666667","6500300","中和區"
"235037","AAC-213","2017/11/20 18:48:09","新北市中和區景平路111巷19-1號","121.516303333333","24.990655","6500300","中和區"
"235059","AAC-215","2017/11/20 18:48:05","新北市中和區圓通路393巷1號","121.48968","24.98893","6500300","中和區"
"220068","013-TV","2017/11/20 18:48:06","新北市板橋區太和街5巷10號","121.47339","25.0199533333333","6500100","板橋區"
"220065","072-UY","2017/11/20 18:47:52","新北市板橋區民族路247巷5弄42號","121.470321666667","25.0083716666667","6500100","板橋區"
"220086","073-UY","2017/11/20 18:47:56","新北市板橋區大智街71巷40號","121.452956666667","25.0143616666667","6500100","板橋區"
"220069","AAD-861","2017/11/20 18:48:07","新北市板橋區南雅南路二段4巷26號","121.453348333333","25.0036566666667","6500100","板橋區"
"247004","402-BY","2017/11/20 18:27:33","新北市五股區中興路三段163號","121.449265","25.080605","6501400","蘆洲區"
"247008","053-VK","2017/11/20 18:46:51","新北市八里區荖阡坑路32號","121.403125","25.1276683333333","6501400","蘆洲區"
"226004","205-ST","2017/11/20 18:47:59","新北市平溪區平溪里三坑路30號","121.736501666667","25.02915","6502400","平溪區"
"228003","097-TW","2017/11/20 18:47:57","新北市貢寮區和美里龍洞街42號","121.912911666667","25.1129366666667","6502600","貢寮區"
"228002","585-TW","2017/11/20 18:47:51","新北市貢寮區福隆里東興街6-11號","121.950753333333","25.0210516666667","6502600","貢寮區"
"228001","670-TC","2017/11/20 18:47:57","新北市貢寮區仁理村保健街71號","121.923748333333","25.0516316666667","6502600","貢寮區"
"224010","AGQ-8101","2017/11/20 18:47:50","新北市瑞芳區金光路334號","121.848275","25.1095333333333","6501200","瑞芳區"
"224006","676-BX","2017/11/20 18:47:53","新北市瑞芳區中正路80-2號","121.805593333333","25.1076366666667","6501200","瑞芳區"
"224009","285-BY","2017/11/20 18:47:54","新北市瑞芳區祈堂路2號","121.859803333333","25.1116433333333","6501200","瑞芳區"
"224008","275-VK","2017/11/20 18:48:09","新北市瑞芳區逢甲路279號","121.802353333333","25.1119516666667","6501200","瑞芳區"
"224007","273-VK","2017/11/20 18:48:00","新北市瑞芳區大埔路96號","121.762098333333","25.1008583333333","6501200","瑞芳區"
"224005","271-BY","2017/11/20 18:47:51","新北市瑞芳區瑞濱路57號","121.82388","25.1208116666667","6501200","瑞芳區"
"227008","642-TC","2017/11/20 18:47:50","新北市雙溪區牡丹里下坑23號","121.85195","25.0559916666667","6502500","雙溪區"
"227001","400-TW","2017/11/20 18:48:02","新北市雙溪區雙溪里太平路2號","121.863373333333","25.0347733333333","6502500","雙溪區"
"253005","032-BX","2017/11/20 18:47:54","新北市石門區中山路32-3號","121.565891666667","25.289875","6502200","石門區"
"253006","295-VK","2017/11/20 18:48:06","新北市石門區下員坑15號","121.511715","25.28487","6502200","石門區"
"222001","KEA-2212","2017/11/20 18:48:00","新北市深坑區松柏街33號","121.638453333333","25.0114333333333","6501800","深坑區"
"208002","742-BX","2017/11/20 18:48:09","新北市金山區信義路61號","121.635806666667","25.21895","6502700","金山區"
"208003","665-BX","2017/11/20 18:47:58","新北市金山區中山路393號","121.633425","25.225225","6502700","金山區"
"208001","761-BX","2017/11/20 18:47:59","新北市金山區文化三路66巷2弄1號","121.634288333333","25.225665","6502700","金山區"
"251002","012-UM","2017/11/20 18:47:54","新北市淡水區學府路71號","121.448413333333","25.169865","6501000","淡水區"
"251013","182-VK","2017/11/20 18:47:57","新北市淡水區安子內5-6號","121.483501666667","25.21515","6501000","淡水區"
"251010","413-VK","2017/11/20 18:48:04","新北市淡水區沙崙路13號","121.421175","25.1812833333333","6501000","淡水區"
"251012","441-VK","2017/11/20 18:47:51","新北市淡水區新興街1號","121.44393","25.1801783333333","6501000","淡水區"
"251015","442-VK","2017/11/20 18:48:00","新北市淡水區興福寮66巷31號","121.484273333333","25.1610216666667","6501000","淡水區"
"251001","559-UM","2017/11/20 18:47:58","新北市淡水區自強路108-1號","121.461766666667","25.1306033333333","6501000","淡水區"
"251006","561-UM","2017/11/20 18:48:07","新北市淡水區崁頂57-7號","121.442381666667","25.1973483333333","6501000","淡水區"
"251011","650-BX","2017/11/20 18:47:58","新北市淡水區鄧公路12-2號","121.449933333333","25.169995","6501000","淡水區"
"251003","766-UM","2017/11/20 18:48:04","新北市淡水區大義街3號","121.443703333333","25.1780616666667","6501000","淡水區"
"207003","550-UM","2017/11/20 18:48:00","新北市萬里區大鵬里頂社2-1號","121.66007","25.2071016666667","6502800","萬里區"
"207004","225-TW","2017/11/20 18:47:56","新北市萬里區萬里里獅頭路23號","121.693193333333","25.1782216666667","6502800","萬里區"
"252003","249-BX","2017/11/20 18:48:01","新北市三芝區後厝里大片頭83-5號","121.458918333333","25.2438233333333","6502100","三芝區"
"252001","292-VK","2017/11/20 18:48:06","新北市三芝區中正路三段17號","121.502918333333","25.253455","6502100","三芝區"
"252002","AAC-283","2017/11/20 18:48:04","新北市三芝區中正路一段112號","121.50483","25.25638","6502100","三芝區"
"237004","078-UY","2017/11/20 18:48:06","新北市三峽區有木2-2號","121.419341666667","24.8662","6500900","三峽區"
"237007","153-BY","2017/11/20 18:48:02","新北市三峽區中正路二段421號","121.363093333333","24.9068683333333","6500900","三峽區"
"237009","210-TH","2017/11/20 18:48:03","新北市三峽區中山路87號","121.366495","24.93529","6500900","三峽區"
"237013","252-BX","2017/11/20 18:48:09","新北市三峽區大同路52號","121.376853333333","24.9291533333333","6500900","三峽區"
"237012","275-BY","2017/11/20 18:48:02","新北市三峽區三樹路340號","121.383986666667","24.94332","6500900","三峽區"
"237008","302-VK","2017/11/20 18:47:53","新北市三峽區白雞33-61號","121.370926666667","24.91311","6500900","三峽區"
"237014","433-BY","2017/11/20 18:47:56","新北市三峽區復興路480巷28號","121.359103333333","24.939715","6500900","三峽區"
"237006","5529-G3","2017/11/20 18:48:00","新北市三峽區溪東路233巷4弄17號","121.407228333333","24.9337683333333","6500900","三峽區"
"237011","572-TV","2017/11/20 18:03:24","新北市三峽區介壽路三段20號","121.395996666667","24.9361983333333","6500900","三峽區"
"237015","649-BX","2017/11/20 18:47:55","新北市三峽區安坑1-6號","121.435401666667","24.9245933333333","6500900","三峽區"
"237010","706-TV","2017/11/20 18:47:52","新北市三峽區復興路323號","121.364823333333","24.93876","6500900","三峽區"
"237005","AKY-6261","2017/11/20 18:48:06","新北市三峽區文化路113號","121.370406666667","24.9360683333333","6500900","三峽區"
"236069","105-UM","2017/11/20 18:48:05","新北市土城區延吉街276號","121.465666666667","24.9843383333333","6501300","土城區"
"236042","107-UM","2017/11/20 18:48:05","新北市土城區裕民路92巷23弄2號","121.44975","24.9861366666667","6501300","土城區"
"236078","166-UM","2017/11/20 18:15:24","新北市土城區永安街52號","121.433078333333","24.9644216666667","6501300","土城區"
"236030","253-BX","2017/11/20 18:48:01","新北市土城區忠義路26巷10號","121.439851666667","24.969905","6501300","土城區"
"236026","269-VK","2017/11/20 18:47:59","新北市土城區中央路二段350號","121.440068333333","24.9717766666667","6501300","土城區"
"236014","270-VK","2017/11/20 18:47:57","新北市土城區清水路235巷5弄2號","121.460821666667","24.9838216666667","6501300","土城區"
"236036","271-VK","2017/11/20 18:47:56","新北市土城區明德路一段239號","121.462833333333","24.9781533333333","6501300","土城區"
"236001","339-SR","2017/11/20 11:11:06","新北市土城區永平街51號","121.427635","24.9592283333333","6501300","土城區"
"236020","401-BY","2017/11/20 18:48:06","新北市土城區延安街76號","121.468061666667","24.9841733333333","6501300","土城區"
"236058","912-UM","2017/11/20 18:48:03","新北市土城區中央路三段198號","121.430323333333","24.96481","6501300","土城區"
"236048","913-UM","2017/11/20 18:47:51","新北市土城區青雲路35號","121.459985","24.988495","6501300","土城區"
"236062","915-UM","2017/11/20 18:48:03","新北市土城區延壽路13巷2號","121.47094","24.9904483333333","6501300","土城區"
"236053","AAC-216","2017/11/20 18:47:57","新北市土城區裕民路149號","121.452075","24.9860483333333","6501300","土城區"
"242004","413-TV","2017/11/20 18:48:00","新北市新莊區新泰路357巷3弄57號","121.442026666667","25.0395516666667","6500500","新莊區"
"242060","362-BY","2017/11/20 18:48:06","新北市泰山區磚雅厝3號","121.442248333333","25.04168","6500500","新莊區"
"242056","349-TH","2017/11/20 18:47:57","新北市新莊區環河路636-7號","121.437455","25.01169","6500500","新莊區"
"238023","601-UM","2017/11/20 18:47:55","新北市樹林區三福街114號","121.406501666667","25.0162783333333","6500700","樹林區"
"238019","599-UM","2017/11/20 18:48:06","新北市樹林區鎮前街425巷2弄1號","121.414006666667","24.98239","6500700","樹林區"
"238018","571-TV","2017/11/20 18:47:52","新北市樹林區鎮前街45號","121.425328333333","24.99175","6500700","樹林區"
"238024","5061-A6","2017/11/20 18:48:10","新北市樹林區太平路247巷24-4號","121.419668333333","24.9748866666667","6500700","樹林區"
"238021","KEA-2217","2017/11/20 18:47:54","新北市樹林區西圳街二段30號","121.388533333333","24.9617583333333","6500700","樹林區"
"238022","KEA-2213","2017/11/20 18:47:54","新北市樹林區中華路379巷76號","121.413876666667","24.9774466666667","6500700","樹林區"
"238025","303-VK","2017/11/20 18:48:02","新北市樹林區中山路三段116號","121.392535","24.9721516666667","6500700","樹林區"
"238020","268-VK","2017/11/20 18:47:48","新北市樹林區俊安街25號","121.419883333333","25.0135233333333","6500700","樹林區"
"238026","172-UY","2017/11/20 18:47:52","新北市樹林區信和街24號","121.390206666667","24.9729666666667","6500700","樹林區"
"238016","169-UY","2017/11/20 18:48:04","新北市樹林區文化街23號","121.419295","24.9876233333333","6500700","樹林區"
"239007","AAC-297","2017/11/20 18:48:01","新北市鶯歌區中正一路建德巷38號","121.364508333333","24.95778","6500800","鶯歌區"
"239008","527-UM","2017/11/20 18:48:06","新北市鶯歌區國際一路14號","121.336165","24.9766016666667","6500800","鶯歌區"
"239005","526-UM","2017/11/20 18:47:54","新北市鶯歌區鳳吉二街66號","121.327031666667","24.9739266666667","6500800","鶯歌區"
"239001","417-VK","2017/11/20 18:47:55","新北市鶯歌區鶯桃路68號","121.340456666667","24.9532933333333","6500800","鶯歌區"
"239003","360-BY","2017/11/20 18:48:00","新北市鶯歌區鶯桃路546號","121.331053333333","24.9673333333333","6500800","鶯歌區"
"239004","193-VK","2017/11/20 18:47:56","新北市鶯歌區中正三路156巷8-9號","121.33256","24.9408266666667","6500800","鶯歌區"
"221008","489-VK","2017/11/20 18:47:47","新北市汐止區康寧街901號","121.651391666667","25.0749866666667","6501100","汐止區"
"221036","130-UY","2017/11/20 18:47:56","新北市汐止區水碓街40號","121.665033333333","25.068625","6501100","汐止區"
"221010","269-BY","2017/11/20 18:48:06","新北市汐止區汐萬路三段197號","121.642205","25.09702","6501100","汐止區"
"221012","278-VK","2017/11/20 18:48:01","新北市汐止區汐萬路一段256巷3號","121.652775","25.0744366666667","6501100","汐止區"
"221023","279-VK","2017/11/20 18:48:08","新北市汐止區汐萬路一段312號","121.650425","25.075435","6501100","汐止區"
"221032","280-BY","2017/11/20 18:48:08","新北市汐止區民權街二段79號","121.619143333333","25.04803","6501100","汐止區"
"221027","281-BY","2017/11/20 18:47:53","新北市汐止區康寧街901號","121.650863333333","25.07527","6501100","汐止區"
"221029","298-VK","2017/11/20 18:48:07","新北市汐止區樟樹一路89號","121.641818333333","25.0632566666667","6501100","汐止區"
"221021","299-VK","2017/11/20 18:47:58","新北市汐止區新興路83號","121.657613333333","25.0621","6501100","汐止區"
"221031","353-TW","2017/11/20 18:47:55","新北市汐止區中興路31-1號","121.6367","25.0599016666667","6501100","汐止區"
"221015","567-BX","2017/11/20 18:48:07","新北市汐止區鄉長路一段285號","121.668628333333","25.0787833333333","6501100","汐止區"
"221035","622-UM","2017/11/20 18:48:02","新北市汐止區中正路312號","121.656105","25.0679266666667","6501100","汐止區"
"221025","623-UM","2017/11/20 18:47:49","新北市汐止區仁愛路36號","121.660763333333","25.0628316666667","6501100","汐止區"
"221038","646-BX","2017/11/20 18:48:04","新北市汐止區汐萬路一段256巷3號","121.653331666667","25.074655","6501100","汐止區"
"221033","647-BX","2017/11/20 18:48:11","新北市汐止區南勢街3號","121.627061666667","25.0373916666667","6501100","汐止區"
"221002","707-TV","2017/11/20 18:47:55","新北市汐止區大同路一段247號","121.635696666667","25.0582066666667","6501100","汐止區"
"221018","753-BX","2017/11/20 18:48:08","新北市汐止區茄苳路255號","121.671936666667","25.0682433333333","6501100","汐止區"
"220079","145-BY","2017/11/20 18:48:08","新北市板橋區民權路202巷2弄1號","121.4595","25.0141633333333","6500100","板橋區"
"220080","200-UY","2017/11/20 18:48:01","新北市板橋區大觀路二段265巷72弄11號","121.441996666667","24.9969183333333","6500100","板橋區"
"220082","610-BX","2017/11/20 18:48:07","新北市板橋區篤行路二段138號","121.42977","24.9883216666667","6500100","板橋區"
"220056","276-BY","2017/11/20 18:48:06","新北市板橋區四川路二段28號","121.454126666667","24.99552","6500100","板橋區"
"220072","277-BY","2017/11/20 18:47:59","新北市板橋區金門街19巷1號","121.433791666667","24.9946766666667","6500100","板橋區"
"220094","283-UM","2017/11/20 18:48:00","新北市板橋區民生路二段161巷1號","121.470073333333","25.019845","6500100","板橋區"
"220071","283-VK","2017/11/20 18:48:07","新北市土城區四川路3號","121.455726666667","24.9960816666667","6500100","板橋區"
"220053","285-VK","2017/11/20 18:47:53","新北市板橋區民生路二段89-6號","121.47053","25.0192333333333","6500100","板橋區"
"220083","286-VK","2017/11/20 18:47:56","新北市板橋區大觀路二段22巷22號","121.445618333333","25.0035683333333","6500100","板橋區"
"220081","287-VK","2017/11/20 18:47:52","新北市板橋區南雅西路二段95巷18號","121.451815","25.010215","6500100","板橋區"
"220090","288-VK","2017/11/20 18:47:49","新北市板橋區民生路二段161巷5號","121.47027","25.0197316666667","6500100","板橋區"
"220061","293-UM","2017/11/20 18:47:59","新北市板橋區太和街5巷14號","121.473261666667","25.0198816666667","6500100","板橋區"
"220084","296-UM","2017/11/20 18:48:10","新北市板橋區大觀路二段148巷49號","121.441748333333","25.0009466666667","6500100","板橋區"
"220075","297-UM","2017/11/20 18:47:57","新北市板橋區大觀路一段28巷106-3號","121.45115","25.0107383333333","6500100","板橋區"
"220062","305-R5","2017/11/20 18:48:09","新北市板橋區觀光街1巷1號","121.472225","25.0154716666667","6500100","板橋區"
"220098","317-R6","2017/11/20 18:48:04","新北市板橋區民生路二段120號","121.470345","25.0196066666667","6500100","板橋區"
"220064","486-VK","2017/11/20 18:48:07","新北市板橋區民生路二段36-1號","121.47209","25.0167766666667","6500100","板橋區"
"220035","560-BX","2017/11/20 18:47:54","新北市板橋區中正路275巷59-4號","121.453026666667","25.017945","6500100","板橋區"
"220063","609-BX","2017/11/20 18:48:07","新北市板橋區民生路二段161巷1號","121.47027","25.01991","6500100","板橋區"
"220057","686-BX","2017/11/20 18:48:01","新北市板橋區華東街1-10號","121.448601666667","24.9950433333333","6500100","板橋區"
"220077","687-BX","2017/11/20 18:48:04","新北市板橋區大觀路二段174巷192號","121.442286666667","25.0038566666667","6500100","板橋區"
"220054","741-BX","2017/11/20 18:48:04","新北市板橋區華東街1-9號","121.448085","24.9949116666667","6500100","板橋區"
"220055","827-TW","2017/11/20 18:47:49","新北市板橋區南雅南路二段120-8號","121.452215","24.9995466666667","6500100","板橋區"
"220067","829-TW","2017/11/20 18:48:07","新北市板橋區三民路二段正隆巷75號","121.475836666667","25.013025","6500100","板橋區"
"220074","895-R6","2017/11/20 18:47:50","新北市板橋區府中路29號","121.458825","25.0088416666667","6500100","板橋區"
"220073","985-R7","2017/11/20 18:47:51","新北市板橋區館前西路154-3號","121.455208333333","25.0084266666667","6500100","板橋區"
"220070","AAC-253","2017/11/20 18:48:05","新北市板橋區南雅南路一段1巷1弄5號","121.457383333333","25.00615","6500100","板橋區"
