"lineid","car","time","location","longitude","latitude","cityid","cityname"
"234046","148-BY","2017/11/20 19:47:47","新北市永和區永亨路205號","121.526163333333","25.0025583333333","6500400","永和區"
"234013","149-BY","2017/11/20 19:48:02","新北市永和區仁愛路238號","121.50839","25.0116683333333","6500400","永和區"
"234007","207-UY","2017/11/20 19:47:49","新北市中和區中和路236號","121.506975","24.9994916666667","6500400","永和區"
"234081","298-R6","2017/11/20 19:47:59","新北市永和區林森路80號","121.52347","25.0037366666667","6500400","永和區"
"234038","336-UY","2017/11/20 19:48:06","新北市永和區環河東路四段8號","121.5284","25.0002016666667","6500400","永和區"
"234064","337-UY","2017/11/20 19:47:51","新北市永和區中正路368巷6號","121.518038333333","25.0007383333333","6500400","永和區"
"234086","338-UY","2017/11/20 19:48:04","新北市永和區永亨路137號","121.525021666667","25.0039916666667","6500400","永和區"
"234001","395-TH","2017/11/20 15:54:01","新北市永和區保生路55-8號","121.504108333333","25.010275","6500400","永和區"
"234070","552-UM","2017/11/20 19:47:57","新北市永和區竹林路95號","121.519703333333","25.0121183333333","6500400","永和區"
"234054","553-UM","2017/11/20 19:48:08","新北市永和區竹林路75巷25弄8號","121.520173333333","25.01439","6500400","永和區"
"234017","745-BX","2017/11/20 19:48:01","新北市永和區忠孝街26巷4號","121.51547","25.0166216666667","6500400","永和區"
"234030","746-BX","2017/11/20 19:47:53","新北市永和區四維街103巷16號","121.523761666667","24.9971266666667","6500400","永和區"
"234061","AAD-866","2017/11/20 19:48:00","新北市永和區中正路151巷1-1號","121.516278333333","24.9981433333333","6500400","永和區"
"234042","862-TW","2017/11/20 19:47:59","新北市永和區中和路389巷41號","121.508141666667","25.0016416666667","6500400","永和區"
"234050","863-TW","2017/11/20 19:47:50","新北市永和區保安路144號","121.5085","25.014925","6500400","永和區"
"234026","9381-KE","2017/11/20 19:47:54","新北市永和區雙和街41號","121.508813333333","25.0025666666667","6500400","永和區"
"234011","9373-KE","2017/11/20 19:47:52","新北市永和區仁愛路310號","121.50305","25.0074166666667","6500400","永和區"
"249001","173-UM","2017/11/20 19:47:50","新北市八里區中華路二段165-1號","121.407781666667","25.1520483333333","6502300","八里區"
"249004","303-UY","2017/11/20 19:48:09","新北市八里區中山路一段268巷5弄40號","121.414281666667","25.1608533333333","6502300","八里區"
"249002","305-UY","2017/11/20 19:48:03","新北市八里區頂寮三街46號","121.451193333333","25.1259933333333","6502300","八里區"
"249003","593-UM","2017/11/20 19:48:06","新北市八里區中華路二段536-4號","121.399148333333","25.1452133333333","6502300","八里區"
"248016","026-BX","2017/11/20 19:48:01","新北市五股區成泰路三段621號","121.452675","25.1038183333333","6501500","五股區"
"248008","095-VK","2017/11/20 19:48:06","新北市蘆洲區中山一路417號","121.468373333333","25.0761966666667","6501500","五股區"
"248018","225-UY","2017/11/20 19:32:58","新北市五股區壟路16號","121.415248333333","25.085515","6501500","五股區"
"248012","247-BX","2017/11/20 19:48:04","新北市五股區蓬萊路6巷15號","121.435753333333","25.0800816666667","6501500","五股區"
"248014","261-SL","2017/11/20 19:47:50","新北市五股區五福路52巷3弄8號","121.43346","25.0901366666667","6501500","五股區"
"248010","272-BY","2017/11/20 19:47:57","新北市五股區自強路133號","121.432151666667","25.0697466666667","6501500","五股區"
"248004","677-BX","2017/11/20 19:48:05","新北市五股區成泰路一段205號","121.43526","25.0769616666667","6501500","五股區"
"248002","678-BX","2017/11/20 19:47:59","新北市五股區成泰路四段6-1號","121.452991666667","25.106295","6501500","五股區"
"234077","969-R7","2017/11/20 19:48:08","新北市永和區民治街59巷1號","121.518663333333","24.9978","6500400","永和區"
"234074","AAC-211","2017/11/20 19:48:07","新北市永和區竹林路179巷6號","121.521005","25.00976","6500400","永和區"
"234067","AAC-212","2017/11/20 19:48:00","新北市永和區中山路一段213號","121.508573333333","25.0081416666667","6500400","永和區"
"234003","AAC-295","2017/11/20 19:47:53","新北市永和區福和路301號","121.51642","25.0072266666667","6500400","永和區"
"243012","AAD-798","2017/11/20 19:47:52","新北市泰山區全興路13號","121.432295","25.05893","6501600","泰山區"
"243009","297-R6","2017/11/20 19:48:09","新北市泰山區美寧街60號","121.430888333333","25.06461","6501600","泰山區"
"243015","380-SR","2017/11/20 19:48:05","新北市泰山區文程路18巷14號","121.428185","25.048765","6501600","泰山區"
"243014","421-VK","2017/11/20 19:48:10","新北市泰山區泰林路二段33-8號","121.435208333333","25.05656","6501600","泰山區"
"243010","KEA-2215","2017/11/20 19:48:06","新北市泰山區民生路33號","121.430625","25.0521233333333","6501600","泰山區"
"243011","KEA-2216","2017/11/20 19:48:04","新北市泰山區明志路三段196巷21弄27號","121.422435","25.0384766666667","6501600","泰山區"
"243013","646-TV","2017/11/20 19:48:06","新北市泰山區應化街13號","121.423788333333","25.043685","6501600","泰山區"
"243016","680-BX","2017/11/20 19:47:57","新北市泰山區中山路三段114號","121.417815","25.032085","6501600","泰山區"
"222003","436-BY","2017/11/20 19:31:36","新北市深坑區深南路51-1號","121.621096666667","25.0100466666667","6501800","深坑區"
"222002","659-BX","2017/11/20 19:47:49","新北市深坑區北深路一段361號","121.622365","25.0049716666667","6501800","深坑區"
"231059","001-UM","2017/11/20 19:48:07","新北市新店區安和路二段167號","121.518668333333","24.9744266666667","6500600","新店區"
"231041","002-UM","2017/11/20 19:48:02","新北市新店區中央六街1號","121.530655","24.9743616666667","6500600","新店區"
"231061","047-UY","2017/11/20 19:48:04","新北市新店區安民街259號","121.517255","24.9726633333333","6500600","新店區"
"231060","106-UY","2017/11/20 19:48:05","新北市新店區安康路二段159巷2號","121.510373333333","24.9591916666667","6500600","新店區"
"231047","108-UY","2017/11/20 19:47:53","新北市新店區寶興路42巷31號","121.5479","24.97191","6500600","新店區"
"231052","187-VK","2017/11/20 19:47:59","新北市新店區新烏路三段72-1號","121.553996666667","24.9041516666667","6500600","新店區"
"231050","KEA-2219","2017/11/20 19:47:44","新北市新店區北宜路二段579巷8號","121.565156666667","24.954415","6500600","新店區"
"231057","256-BX","2017/11/20 19:48:05","新北市新店區花園二路三段21-2號","121.556766666667","24.93134","6500600","新店區"
"231063","268-BY","2017/11/20 19:47:51","新北市新店區黎明路3號","121.503575","24.9524216666667","6500600","新店區"
"231046","278-BY","2017/11/20 19:48:00","新北市新店區福園街10巷1號","121.532683333333","24.97277","6500600","新店區"
"231054","AAD-862","2017/11/20 19:48:08","新北市新店區光明街87號","121.539","24.9608983333333","6500600","新店區"
"231058","3712-VJ","2017/11/20 19:47:52","新北市新店區環河路116號","121.53688","24.9673683333333","6500600","新店區"
"231067","4772-VM","2017/11/20 19:48:03","新北市新店區柴埕路52巷12號","121.512123333333","24.9644383333333","6500600","新店區"
"231065","512-UM","2017/11/20 19:48:00","新北市新店區安祥路109巷123號","121.476663333333","24.9578416666667","6500600","新店區"
"231064","515-UM","2017/11/20 19:47:55","新北市新店區安和路一段52巷2-1號","121.517668333333","24.9662616666667","6500600","新店區"
"231042","616-UM","2017/11/20 19:48:00","新北市新店區中興路一段268-1號","121.545195","24.96774","6500600","新店區"
"231045","617-UM","2017/11/20 19:47:55","新北市新店區中生路66號","121.564626666667","24.952625","6500600","新店區"
"231040","619-UM","2017/11/20 19:47:54","新北市新店區北新路一段96巷23號","121.542881666667","24.96895","6500600","新店區"
"231068","718-UY","2017/11/20 19:47:59","新北市新店區安華路28-1號","121.519426666667","24.9611216666667","6500600","新店區"
"231049","719-UM","2017/11/20 19:47:51","新北市新店區民權路100-1號","121.53616","24.9833716666667","6500600","新店區"
"231051","719-UY","2017/11/20 19:48:00","新北市新店區中央五街27號","121.52912","24.97469","6500600","新店區"
"231062","720-UM","2017/11/20 19:47:53","新北市新店區永業路78號","121.531263333333","24.951825","6500600","新店區"
"231044","897-TW","2017/11/20 19:47:53","新北市新店區復興路17號","121.539623333333","24.9865733333333","6500600","新店區"
"231043","899-TW","2017/11/20 19:48:00","新北市新店區中正路217號","121.539733333333","24.9729183333333","6500600","新店區"
"241028","022-UY","2017/11/20 19:47:51","新北市三重區中正南路163號","121.493811666667","25.0560183333333","6500200","三重區"
"241008","059-VK","2017/11/20 19:47:47","新北市三重區永福街103號","121.479111666667","25.0775366666667","6500200","三重區"
"241009","060-VK","2017/11/20 19:48:05","新北市三重區三和路四段394號","121.481581666667","25.079305","6500200","三重區"
"241031","061-VK","2017/11/20 19:47:54","新北市三重區重新路四段240號","121.486068333333","25.0536166666667","6500200","三重區"
"241015","062-VK","2017/11/20 19:47:59","新北市三重區三和路一段11號","121.503841666667","25.06462","6500200","三重區"
"241017","063-VK","2017/11/20 19:48:10","新北市三重區重陽路三段5巷8弄29號","121.489623333333","25.0666033333333","6500200","三重區"
"241026","066-VK","2017/11/20 19:47:50","新北市三重區文化南路42號","121.500406666667","25.0602366666667","6500200","三重區"
"241003","091-VK","2017/11/20 19:47:51","新北市三重區仁義街395號","121.49446","25.0855016666667","6500200","三重區"
"241023","265-UM","2017/11/20 19:48:01","新北市三重區頂崁街172號","121.477526666667","25.06593","6500200","三重區"
"241016","266-UM","2017/11/20 19:47:55","新北市三重區正德街53號","121.495713333333","25.0630366666667","6500200","三重區"
"241022","267-UM","2017/11/20 19:47:54","新北市三重區過圳街7巷1號","121.489428333333","25.0586766666667","6500200","三重區"
"241018","268-UM","2017/11/20 19:48:08","新北市三重區雙園街57巷3號","121.494846666667","25.0676","6500200","三重區"
"241032","269-UM","2017/11/20 19:48:07","新北市三重區重陽路一段60巷38號","121.484958333333","25.0581833333333","6500200","三重區"
"241013","270-UM","2017/11/20 19:48:03","新北市三重區仁愛街123-3號","121.49587","25.0750533333333","6500200","三重區"
"241025","271-UM","2017/11/20 19:47:52","新北市三重區大有街1-1號","121.477635","25.0654083333333","6500200","三重區"
"241007","398-BY","2017/11/20 19:47:51","新北市三重區仁美街62號","121.486443333333","25.078305","6500200","三重區"
"241020","413-TH","2017/11/20 19:48:04","新北市三重區三和路四段42號","121.490428333333","25.07441","6500200","三重區"
"241035","462-BY","2017/11/20 19:47:47","新北市三重區文化北路22-2號","121.499218333333","25.0643416666667","6500200","三重區"
"241004","475-VK","2017/11/20 19:48:06","新北市三重區五華街74號","121.493391666667","25.0820333333333","6500200","三重區"
"241019","478-VK","2017/11/20 19:48:07","新北市三重區安慶街379號","121.48707","25.06794","6500200","三重區"
"241030","480-VK","2017/11/20 19:48:03","新北市三重區新興路29號","121.492081666667","25.0533966666667","6500200","三重區"
"241014","543-UM","2017/11/20 19:47:49","新北市三重區河邊北街66號","121.504228333333","25.0680433333333","6500200","三重區"
"241001","547-UM","2017/11/20 19:48:04","新北市三重區仁愛街327巷61號","121.493643333333","25.0803066666667","6500200","三重區"
"241006","AAD-863","2017/11/20 19:47:55","新北市三重區永福街295號","121.483711666667","25.07463","6500200","三重區"
"241012","941-UM","2017/11/20 19:47:49","新北市三重區河邊北街262號","121.501643333333","25.07641","6500200","三重區"
"241029","942-UM","2017/11/20 19:47:55","新北市三重區光明路57號","121.491711666667","25.0577983333333","6500200","三重區"
"241033","AAC-255","2017/11/20 19:48:03","新北市三重區中興南街80巷3號","121.47131","25.04344","6500200","三重區"
"235066","003-UY","2017/11/20 19:47:51","新北市中和區南工路30號","121.50569","25.0009916666667","6500300","中和區"
"235063","006-UY","2017/11/20 19:48:03","新北市中和區安邦街3號","121.495888333333","24.998345","6500300","中和區"
"235056","096-UM","2017/11/20 19:48:05","新北市中和區中山路三段114巷11號","121.475726666667","25.0076466666667","6500300","中和區"
"235039","097-UM","2017/11/20 19:48:01","新北市中和區秀峰街86號","121.519651666667","24.991065","6500300","中和區"
"235065","098-UM","2017/11/20 19:47:57","新北市中和區福祥路7號","121.499448333333","25.00312","6500300","中和區"
"235040","150-BY","2017/11/20 19:47:56","新北市中和區安和路39號","121.509755","24.9947966666667","6500300","中和區"
"235058","151-BY","2017/11/20 19:48:05","新北市中和區員山路132巷20號","121.482206666667","24.9962516666667","6500300","中和區"
"235055","183-VK","2017/11/20 19:48:09","新北市中和區中山路三段181巷18弄5號","121.472646666667","25.00515","6500300","中和區"
"235038","185-VK","2017/11/20 19:47:57","新北市中和區大智街55巷30弄58-1號","121.522275","24.9934283333333","6500300","中和區"
"235049","186-VK","2017/11/20 19:48:00","新北市中和區中正路64巷2號","121.501231666667","24.99371","6500300","中和區"
"235067","255-BX","2017/11/20 19:48:00","新北市中和區新生街186巷1弄14號","121.483308333333","24.9991","6500300","中和區"
"235044","293-VK","2017/11/20 19:47:48","新北市中和區南山路176-6號","121.50528","24.990975","6500300","中和區"
"235072","301-VK","2017/11/20 19:48:03","新北市中和區員山路36巷16-3號","121.484711666667","24.9914416666667","6500300","中和區"
"235043","352-BY","2017/11/20 19:47:50","新北市中和區華新街151號","121.506195","24.98159","6500300","中和區"
"235068","377-QA","2017/11/20 19:48:03","新北市中和區中山路二段191號","121.500176666667","25.0026633333333","6500300","中和區"
"235061","378-QA","2017/11/20 19:48:01","新北市中和區民安街1號","121.480918333333","25.0009883333333","6500300","中和區"
"235071","269-TV","2017/11/20 19:47:51","新北市中和區立言街47號","121.488098333333","25.006895","6500300","中和區"
"235050","4979-A6","2017/11/20 19:47:59","新北市中和區中正路213號","121.4971","24.993685","6500300","中和區"
"235042","551-UM","2017/11/20 19:47:50","新北市中和區保健路2巷15號","121.507356666667","24.9977466666667","6500300","中和區"
"235070","558-UM","2017/11/20 19:47:52","新北市中和區景平路638號","121.49793","25.0001983333333","6500300","中和區"
"235045","565-BX","2017/11/20 19:48:02","新北市中和區安樂路1號","121.511646666667","24.9917716666667","6500300","中和區"
"235054","640-BX","2017/11/20 19:48:08","新北市中和區國光街112巷18弄20號","121.47059","25.0018216666667","6500300","中和區"
"235060","647-TV","2017/11/20 19:47:49","新北市中和區中山路二段475號","121.483153333333","25.0050783333333","6500300","中和區"
"235047","732-UM","2017/11/20 19:47:56","新北市中和區南山路287號","121.504345","24.9920316666667","6500300","中和區"
"235046","733-UM","2017/11/20 19:47:57","新北市中和區仁愛街72號","121.511306666667","24.987635","6500300","中和區"
"235062","800-TS","2017/11/20 19:48:03","新北市八里區荖阡坑路15-66號","121.398496666667","25.1400033333333","6500300","中和區"
"235057","801-TS","2017/11/20 19:48:10","新北市中和區員山路150號","121.48135","24.9972566666667","6500300","中和區"
"235041","802-TS","2017/11/20 19:48:00","新北市中和區永貞路246號","121.514245","25.0036783333333","6500300","中和區"
"235052","805-TS","2017/11/20 19:48:02","新北市中和區華新街206巷14號","121.506323333333","24.9824683333333","6500300","中和區"
"235048","896-TW","2017/11/20 19:47:51","新北市中和區興南路二段21號","121.507906666667","24.986045","6500300","中和區"
"235053","900-TW","2017/11/20 19:48:00","新北市中和區民德路146巷14號","121.467843333333","25.0004633333333","6500300","中和區"
"235064","911-UM","2017/11/20 19:48:04","新北市中和區南山路127巷19號","121.503085","24.99744","6500300","中和區"
"235037","157-BY","2017/11/20 19:47:51","新北市中和區中興街132巷5號","121.49922","24.9919566666667","6500300","中和區"
"235037","AAC-213","2017/11/20 19:47:49","新北市中和區秀朗路三段10巷31弄9號","121.524808333333","24.9958583333333","6500300","中和區"
"235059","AAC-215","2017/11/20 19:48:05","新北市中和區圓通路305巷13弄2號","121.494146666667","24.9897166666667","6500300","中和區"
"220068","013-TV","2017/11/20 19:48:05","新北市板橋區中山路二段412巷5號","121.483253333333","25.020745","6500100","板橋區"
"220065","072-UY","2017/11/20 19:48:03","新北市板橋區民族路276巷42號","121.469438333333","25.005815","6500100","板橋區"
"220086","073-UY","2017/11/20 19:47:56","新北市板橋區南雅西路二段36號","121.453001666667","25.0100016666667","6500100","板橋區"
"220106","075-UY","2017/11/20 19:48:06","新北市板橋區文化路二段650巷19號","121.478","25.0349233333333","6500100","板橋區"
"220069","AAD-861","2017/11/20 19:48:07","新北市板橋區稚暉街2巷46號","121.455243333333","25.002965","6500100","板橋區"
"220102","120-SR","2017/11/20 19:48:02","新北市板橋區松柏街33巷1號","121.47517","25.0303216666667","6500100","板橋區"
"247004","402-BY","2017/11/20 19:47:48","新北市蘆洲區長安街108巷5弄14號","121.461021666667","25.0823766666667","6501400","蘆洲區"
"247010","339-TH","2017/11/20 19:48:00","新北市三重區集賢路188號","121.483918333333","25.0880683333333","6501400","蘆洲區"
"247002","337-TH","2017/11/20 19:47:58","新北市蘆洲區長榮路530-1號","121.459738333333","25.0904333333333","6501400","蘆洲區"
"247006","056-VK","2017/11/20 19:47:55","新北市蘆洲區永安南路二段14號","121.467406666667","25.0771366666667","6501400","蘆洲區"
"247008","053-VK","2017/11/20 19:48:05","新北市蘆洲區中山一路55號","121.478536666667","25.0810716666667","6501400","蘆洲區"
"247014","007-UY","2017/11/20 19:48:02","新北市蘆洲區中央路101號","121.47236","25.0841033333333","6501400","蘆洲區"
"226004","205-ST","2017/11/20 19:47:59","新北市平溪區十分里十分街53號","121.775418333333","25.0412466666667","6502400","平溪區"
"228003","097-TW","2017/11/20 19:47:57","新北市貢寮區真理里美艷山街8-3號","121.929163333333","25.0628516666667","6502600","貢寮區"
"228001","670-TC","2017/11/20 19:47:57","新北市貢寮區真理里新港街101號","121.926886666667","25.05663","6502600","貢寮區"
"224002","639-TC","2017/11/20 19:47:56","新北市瑞芳區員山子路員山巷11-1號","121.817086666667","25.1043683333333","6501200","瑞芳區"
"227008","642-TC","2017/11/20 19:47:50","新北市雙溪區新基里中華路82號","121.865833333333","25.0384566666667","6502500","雙溪區"
"227001","400-TW","2017/11/20 19:48:02","新北市雙溪區雙溪里內挖路47號","121.863301666667","25.0365933333333","6502500","雙溪區"
"222001","KEA-2212","2017/11/20 19:48:00","新北市深坑區北深路三段70-1號","121.60773","25.001495","6501800","深坑區"
"208002","742-BX","2017/11/20 19:47:49","新北市金山區中華路265號","121.6332","25.224575","6502700","金山區"
"208003","665-BX","2017/11/20 19:47:58","新北市金山區中正路143-1號","121.632213333333","25.221435","6502700","金山區"
"208001","761-BX","2017/11/20 19:48:00","新北市金山區重和里六股林口38號","121.60268","25.2191883333333","6502700","金山區"
"251009","008-UM","2017/11/20 19:48:00","新北市淡水區中正路38-1號","121.443748333333","25.16926","6501000","淡水區"
"251004","009-UM","2017/11/20 19:43:54","新北市淡水區民權路189號","121.460003333333","25.13319","6501000","淡水區"
"251005","010-UM","2017/11/20 19:48:00","新北市淡水區原德路115號","121.442843333333","25.1731333333333","6501000","淡水區"
"251007","179-VK","2017/11/20 19:47:59","新北市淡水區中正東路一段3巷21號","121.452016666667","25.165915","6501000","淡水區"
"251008","181-VK","2017/11/20 19:47:57","新北市淡水區中正路一段62巷2號","121.42564","25.1771833333333","6501000","淡水區"
"251013","182-VK","2017/11/20 19:47:57","新北市淡水區頂田寮1-3號","121.457503333333","25.2147466666667","6501000","淡水區"
"251012","441-VK","2017/11/20 19:47:50","新北市淡水區淡金路二段600號","121.446671666667","25.19272","6501000","淡水區"
"251015","442-VK","2017/11/20 19:48:00","新北市淡水區商工路350號","121.468351666667","25.1854233333333","6501000","淡水區"
"251001","559-UM","2017/11/20 19:47:58","新北市淡水區中正東路二段87-3號","121.459411666667","25.15286","6501000","淡水區"
"251006","561-UM","2017/11/20 19:48:07","新北市淡水區水碓街15號","121.44347","25.1769816666667","6501000","淡水區"
"251011","650-BX","2017/11/20 19:48:06","新北市淡水區水源街二段194號","121.456963333333","25.1757466666667","6501000","淡水區"
"207003","550-UM","2017/11/20 19:48:00","新北市萬里區大鵬里萬里加投68-6號","121.642465","25.2153883333333","6502800","萬里區"
"207004","225-TW","2017/11/20 19:47:55","新北市萬里區萬里里瑪鋉路183號","121.69033","25.1786283333333","6502800","萬里區"
"252001","292-VK","2017/11/20 19:48:06","新北市三芝區公正街9號","121.499766666667","25.2574733333333","6502100","三芝區"
"252002","AAC-283","2017/11/20 19:48:04","新北市三芝區三民街31號","121.50459","25.25855","6502100","三芝區"
"237004","078-UY","2017/11/20 19:48:06","新北市三峽區添福26-1號","121.375738333333","24.8976683333333","6500900","三峽區"
"237007","153-BY","2017/11/20 19:48:02","新北市三峽區二鬮路110巷22號","121.35882","24.9093033333333","6500900","三峽區"
"237009","210-TH","2017/11/20 19:48:03","新北市三峽區中園街13-1號","121.36872","24.9270383333333","6500900","三峽區"
"237013","252-BX","2017/11/20 19:47:49","新北市三峽區橫溪路53-1號","121.396713333333","24.9354816666667","6500900","三峽區"
"237012","275-BY","2017/11/20 19:48:02","新北市三峽區光明路10號","121.373128333333","24.9311583333333","6500900","三峽區"
"237008","302-VK","2017/11/20 19:47:53","新北市三峽區中正路一段292巷11號","121.370795","24.9258683333333","6500900","三峽區"
"237014","433-BY","2017/11/20 19:47:56","新北市三峽區添福59-1號","121.37475","24.9033266666667","6500900","三峽區"
"237006","5529-G3","2017/11/20 19:48:00","新北市三峽區中正路一段336巷15弄2號","121.369961666667","24.9249516666667","6500900","三峽區"
"237015","649-BX","2017/11/20 19:47:55","新北市三峽區溪東路218巷24弄2號","121.406885","24.930435","6500900","三峽區"
"237005","AKY-6261","2017/11/20 19:48:06","新北市三峽區文化路139號","121.369806666667","24.9355016666667","6500900","三峽區"
"236069","105-UM","2017/11/20 19:48:04","新北市土城區水源街32巷14號","121.441253333333","24.9759066666667","6501300","土城區"
"236042","107-UM","2017/11/20 19:48:05","新北市土城區清水路85巷3弄2號","121.456201666667","24.9820216666667","6501300","土城區"
"236078","166-UM","2017/11/20 19:10:44","新北市土城區龍泉路43號","121.417128333333","24.9432833333333","6501300","土城區"
"236030","253-BX","2017/11/20 19:48:01","新北市土城區中央路一段290號","121.44322","24.9824483333333","6501300","土城區"
"236026","269-VK","2017/11/20 19:47:58","新北市土城區中央路二段61巷26號","121.443356666667","24.978865","6501300","土城區"
"236036","271-VK","2017/11/20 19:48:04","新北市土城區國際路158巷11號","121.468611666667","24.9762683333333","6501300","土城區"
"236001","339-SR","2017/11/20 11:11:06","新北市土城區永平街51號","121.427635","24.9592283333333","6501300","土城區"
"236020","401-BY","2017/11/20 19:48:06","新北市土城區峰廷街3號","121.46909","24.9873316666667","6501300","土城區"
"236058","912-UM","2017/11/20 19:48:03","新北市土城區中央路二段49號","121.442718333333","24.9797866666667","6501300","土城區"
"236048","913-UM","2017/11/20 19:48:10","新北市土城區青雲路232號","121.458983333333","24.980845","6501300","土城區"
"236062","915-UM","2017/11/20 19:48:03","新北市土城區延平街33巷18號","121.467163333333","24.991595","6501300","土城區"
"236053","AAC-216","2017/11/20 19:48:04","新北市土城區延和路48號","121.465298333333","24.9888066666667","6501300","土城區"
"242050","751-BX","2017/11/20 19:47:51","新北市新莊區民安路298號","121.428146666667","25.02184","6500500","新莊區"
"242027","705-TV","2017/11/20 19:48:09","新北市新莊區立信五街6號","121.444423333333","25.051505","6500500","新莊區"
"242044","497-BY","2017/11/20 19:47:50","新北市新莊區新北大道七段367號","121.412355","25.0266333333333","6500500","新莊區"
"242031","442-UM","2017/11/20 19:47:58","新北市新莊區公園一路112號","121.44456","25.0377983333333","6500500","新莊區"
"242048","441-UM","2017/11/20 19:48:07","新北市新莊區後港一路28巷16弄2號","121.425436666667","25.024955","6500500","新莊區"
"242034","415-TV","2017/11/20 19:47:49","新北市新莊區仁愛街54巷1號","121.44497","25.0371133333333","6500500","新莊區"
"242004","413-TV","2017/11/20 19:48:06","新北市新莊區化成路63巷24弄13號","121.462748333333","25.0459383333333","6500500","新莊區"
"242058","353-BY","2017/11/20 19:47:55","新北市新莊區八德街17號","121.425293333333","25.0225633333333","6500500","新莊區"
"242036","133-UY","2017/11/20 19:47:57","新北市新莊區建安街74號","121.426623333333","25.024335","6500500","新莊區"
"242009","173-VK","2017/11/20 19:47:41","新北市新莊區三和路12-21號","121.442028333333","25.0386683333333","6500500","新莊區"
"242002","176-VK","2017/11/20 19:47:53","新北市新莊區新泰路2-11號","121.45014","25.0325083333333","6500500","新莊區"
"242013","346-TH","2017/11/20 19:47:59","新北市新莊區中誠街96號","121.450006666667","25.0477816666667","6500500","新莊區"
"242019","348-TH","2017/11/20 19:47:50","新北市新莊區明智街21巷1號","121.454131666667","25.04129","6500500","新莊區"
"238015","755-BX","2017/11/20 19:47:57","新北市樹林區樹德街21號","121.422281666667","24.99138","6500700","樹林區"
"238023","601-UM","2017/11/20 19:47:55","新北市樹林區三福街121巷13號","121.406081666667","25.015605","6500700","樹林區"
"238018","571-TV","2017/11/20 19:47:52","新北市樹林區八德街1012號","121.391341666667","24.9684416666667","6500700","樹林區"
"238024","5061-A6","2017/11/20 19:47:49","新北市樹林區中山路三段210-2號","121.381053333333","24.9659233333333","6500700","樹林區"
"238021","KEA-2217","2017/11/20 19:47:54","新北市樹林區佳園路三段207號","121.385121666667","24.94702","6500700","樹林區"
"238025","303-VK","2017/11/20 19:48:02","新北市樹林區東興街4巷2號","121.408705","24.98014","6500700","樹林區"
"238017","283-BY","2017/11/20 19:48:06","新北市樹林區保安街二段22號","121.415528333333","25.0016083333333","6500700","樹林區"
"238014","282-BY","2017/11/20 19:47:57","新北市樹林區千歲街70巷1弄1號","121.426513333333","24.9973066666667","6500700","樹林區"
"238020","268-VK","2017/11/20 19:48:08","新北市樹林區俊英街5號","121.429741666667","24.9999833333333","6500700","樹林區"
"239006","891-R6","2017/11/20 19:47:59","新北市鶯歌區中正二路8號","121.351635","24.9520766666667","6500800","鶯歌區"
"221008","489-VK","2017/11/20 19:47:59","新北市汐止區康寧街61巷22弄9號","121.61975","25.0668683333333","6501100","汐止區"
"221036","130-UY","2017/11/20 19:47:56","新北市汐止區汐萬路一段261號","121.650825","25.0740733333333","6501100","汐止區"
"221010","269-BY","2017/11/20 19:47:47","新北市汐止區汐萬路一段355-1號","121.650031666667","25.0775783333333","6501100","汐止區"
"221012","278-VK","2017/11/20 19:48:01","新北市汐止區保長路271巷2號","121.680891666667","25.074215","6501100","汐止區"
"221023","279-VK","2017/11/20 19:48:07","新北市汐止區民族六街6巷1號","121.629853333333","25.0697083333333","6501100","汐止區"
"221032","280-BY","2017/11/20 19:47:48","新北市汐止區橫科路221巷19-1號","121.621113333333","25.0498616666667","6501100","汐止區"
"221027","281-BY","2017/11/20 19:47:53","新北市汐止區忠孝東路9號","121.658323333333","25.0659283333333","6501100","汐止區"
"221029","298-VK","2017/11/20 19:48:07","新北市汐止區康寧街901號","121.65151","25.0750133333333","6501100","汐止區"
"221021","299-VK","2017/11/20 19:47:57","新北市汐止區水源路一段137號","121.656081666667","25.0623233333333","6501100","汐止區"
"221031","353-TW","2017/11/20 19:47:55","新北市汐止區福德三路127號","121.633538333333","25.06757","6501100","汐止區"
"221015","567-BX","2017/11/20 19:47:47","新北市汐止區水源路一段2號","121.65692","25.0671133333333","6501100","汐止區"
"221035","622-UM","2017/11/20 19:48:02","新北市汐止區長江街13巷3號","121.654678333333","25.07139","6501100","汐止區"
"221025","623-UM","2017/11/20 19:47:49","新北市汐止區秀峰路81巷11號","121.660735","25.0644116666667","6501100","汐止區"
"221038","646-BX","2017/11/20 19:48:04","新北市汐止區忠孝東路273號","121.663676666667","25.068335","6501100","汐止區"
"221033","647-BX","2017/11/20 19:47:51","新北市汐止區東勢街4號","121.630188333333","25.039945","6501100","汐止區"
"221018","753-BX","2017/11/20 19:47:49","新北市汐止區汐萬路一段165號","121.653001666667","25.0710366666667","6501100","汐止區"
"220079","145-BY","2017/11/20 19:48:07","新北市板橋區中正路183巷20-3號","121.455868333333","25.0163483333333","6500100","板橋區"
"220080","200-UY","2017/11/20 19:48:00","新北市板橋區大觀路二段37巷25號","121.448053333333","25.00262","6500100","板橋區"
"220082","610-BX","2017/11/20 19:48:07","新北市板橋區溪崑一街54號","121.429566666667","24.9902733333333","6500100","板橋區"
"220101","245-BX","2017/11/20 19:48:05","新北市板橋區莊敬路262-1號","121.474223333333","25.0217933333333","6500100","板橋區"
"220103","255-TC","2017/11/20 19:47:57","新北市板橋區陽明街27巷4號","121.465596666667","25.0216816666667","6500100","板橋區"
"220091","267-BY","2017/11/20 19:47:57","新北市板橋區懷德街127巷38-3號","121.480115","25.0315383333333","6500100","板橋區"
"220056","276-BY","2017/11/20 19:47:58","新北市板橋區四川路二段99巷2弄2號","121.452648333333","24.9945166666667","6500100","板橋區"
"220072","277-BY","2017/11/20 19:47:59","新北市板橋區金門街215巷93號","121.433816666667","24.9887433333333","6500100","板橋區"
"220094","283-UM","2017/11/20 19:48:00","新北市板橋區宏國路51號","121.468495","25.0318683333333","6500100","板橋區"
"220071","283-VK","2017/11/20 19:47:46","新北市板橋區信義路128號","121.458563333333","24.99234","6500100","板橋區"
"220053","285-VK","2017/11/20 19:48:03","新北市板橋區中山路二段60巷1弄3-2號","121.474433333333","25.01538","6500100","板橋區"
"220083","286-VK","2017/11/20 19:48:00","新北市板橋區龍興街63巷1號","121.442886666667","25.0013333333333","6500100","板橋區"
"220081","287-VK","2017/11/20 19:47:52","新北市板橋區大觀路一段28巷4號","121.450006666667","25.00876","6500100","板橋區"
"220090","288-VK","2017/11/20 19:48:09","新北市板橋區龍泉街54巷7弄1號","121.456808333333","25.0265666666667","6500100","板橋區"
"220061","293-UM","2017/11/20 19:48:01","新北市板橋區中山路一段283巷8號","121.47016","25.01495","6500100","板橋區"
"220084","296-UM","2017/11/20 19:47:50","新北市板橋區滿平二街12號","121.42539","24.9868183333333","6500100","板橋區"
"220075","297-UM","2017/11/20 19:47:57","新北市板橋區大勇街17號","121.454521666667","25.0172033333333","6500100","板橋區"
"220062","305-R5","2017/11/20 19:47:49","新北市板橋區三民路二段29巷31弄5-3號","121.481533333333","25.0177266666667","6500100","板橋區"
"220092","307-R5","2017/11/20 19:48:07","新北市板橋區陽明街164巷32號","121.464901666667","25.0245516666667","6500100","板橋區"
"220098","317-R6","2017/11/20 19:48:04","新北市板橋區裕民街109號","121.459685","25.0276716666667","6500100","板橋區"
"220064","486-VK","2017/11/20 19:48:07","新北市板橋區公園街64號","121.46203","25.0077083333333","6500100","板橋區"
"220088","491-VK","2017/11/20 19:47:59","新北市板橋區仁化街99號","121.476515","25.032255","6500100","板橋區"
"220035","560-BX","2017/11/20 19:47:54","新北市板橋區金華街54號","121.456925","25.0204833333333","6500100","板橋區"
"220063","609-BX","2017/11/20 19:48:07","新北市板橋區三民路一段140號","121.4792","25.020245","6500100","板橋區"
"220057","686-BX","2017/11/20 19:48:01","新北市板橋區和平路安樂巷18號","121.461365","24.99398","6500100","板橋區"
"220077","687-BX","2017/11/20 19:48:04","新北市板橋區僑中一街124巷1弄2號","121.445893333333","25.0122166666667","6500100","板橋區"
"220093","689-BX","2017/11/20 19:47:51","新北市板橋區長江路二段165號","121.466466666667","25.0319616666667","6500100","板橋區"
"220054","741-BX","2017/11/20 19:48:04","新北市板橋區實踐路126號","121.464336666667","25.0031533333333","6500100","板橋區"
"220055","827-TW","2017/11/20 19:47:49","新北市板橋區國慶路49巷3號","121.459628333333","24.9958783333333","6500100","板橋區"
"220067","829-TW","2017/11/20 19:48:07","新北市板橋區長安街297號","121.47439","25.01206","6500100","板橋區"
"220096","831-TW","2017/11/20 19:48:09","新北市板橋區民生路二段240巷50號","121.469606666667","25.022795","6500100","板橋區"
"220089","833-TW","2017/11/20 19:48:05","新北市板橋區龍泉街84-3號","121.456385","25.02544","6500100","板橋區"
"220074","895-R6","2017/11/20 19:47:50","新北市板橋區府中路79號","121.457406666667","25.0094883333333","6500100","板橋區"
"220073","985-R7","2017/11/20 19:47:51","新北市板橋區大仁街37號","121.455118333333","25.0166416666667","6500100","板橋區"
"220097","AAC-210","2017/11/20 19:47:47","新北市板橋區文化路一段285巷2弄31號","121.463963333333","25.019665","6500100","板橋區"
"220070","AAC-253","2017/11/20 19:48:04","新北市板橋區館前東路152號","121.464351666667","25.0078466666667","6500100","板橋區"
