"lineid","car","time","location","longitude","latitude","cityid","cityname"
"234046","148-BY","2017/11/20 20:07:47","新北市永和區成功路一段89號","121.526926666667","25.0028583333333","6500400","永和區"
"234013","149-BY","2017/11/20 20:08:05","新北市永和區仁愛路289號","121.505401666667","25.009385","6500400","永和區"
"234007","207-UY","2017/11/20 20:07:49","新北市永和區保生路24號","121.506478333333","25.00753","6500400","永和區"
"234081","298-R6","2017/11/20 20:07:58","新北市永和區國中路109巷5弄2號","121.523698333333","25.0052416666667","6500400","永和區"
"234038","336-UY","2017/11/20 20:08:06","新北市永和區成功路二段80號","121.526638333333","24.99876","6500400","永和區"
"234064","337-UY","2017/11/20 20:07:51","新北市永和區永利路96號","121.520848333333","25.003545","6500400","永和區"
"234086","338-UY","2017/11/20 20:07:55","新北市永和區福和路22號","121.524071666667","25.0084333333333","6500400","永和區"
"234001","395-TH","2017/11/20 15:54:01","新北市永和區保生路55-8號","121.504108333333","25.010275","6500400","永和區"
"234070","552-UM","2017/11/20 20:07:57","新北市永和區福和路265號","121.517778333333","25.0073783333333","6500400","永和區"
"234054","553-UM","2017/11/20 20:07:48","新北市永和區博愛街29號","121.518275","25.0158433333333","6500400","永和區"
"234017","745-BX","2017/11/20 20:08:01","新北市永和區文化路123號","121.512298333333","25.0152983333333","6500400","永和區"
"234030","746-BX","2017/11/20 20:07:53","新北市永和區民權路49巷5弄20號","121.5215","24.9977383333333","6500400","永和區"
"234061","AAD-866","2017/11/20 20:08:01","新北市永和區中正路151巷14號","121.515573333333","24.99883","6500400","永和區"
"234042","862-TW","2017/11/20 20:07:59","新北市永和區雙和街52巷1號","121.508968333333","25.0033116666667","6500400","永和區"
"234050","863-TW","2017/11/20 20:07:50","新北市永和區新生路263號","121.505586666667","25.01307","6500400","永和區"
"234026","9381-KE","2017/11/20 20:07:54","新北市永和區中山路一段77號","121.51232","25.0106383333333","6500400","永和區"
"234011","9373-KE","2017/11/20 20:07:52","新北市永和區環河西路二段241-1號","121.500631666667","25.009465","6500400","永和區"
"249001","173-UM","2017/11/20 20:07:50","新北市八里區中華路二段310號","121.403795","25.1483983333333","6502300","八里區"
"249004","303-UY","2017/11/20 20:07:49","新北市八里區中山路一段217巷62號","121.411846666667","25.1575","6502300","八里區"
"249002","305-UY","2017/11/20 20:07:55","新北市八里區龍米路一段30巷12號","121.457495","25.116795","6502300","八里區"
"249003","593-UM","2017/11/20 20:08:06","新北市八里區中山路二段540巷3號","121.397113333333","25.1468866666667","6502300","八里區"
"248016","026-BX","2017/11/20 20:08:01","新北市五股區成泰路三段577巷80弄72號","121.44892","25.1047683333333","6501500","五股區"
"248008","095-VK","2017/11/20 20:08:06","新北市五股區中興路一段1巷27號","121.469735","25.0704166666667","6501500","五股區"
"248018","225-UY","2017/11/20 20:07:58","新北市五股區登林路91-21號","121.420933333333","25.0718833333333","6501500","五股區"
"248012","247-BX","2017/11/20 20:08:04","新北市五股區工商路207號","121.433198333333","25.08718","6501500","五股區"
"248014","261-SL","2017/11/20 20:07:50","新北市五股區五福路6巷19號","121.435401666667","25.08849","6501500","五股區"
"248010","272-BY","2017/11/20 20:08:04","新北市五股區成泰路一段6號","121.4344","25.0673233333333","6501500","五股區"
"248004","677-BX","2017/11/20 20:08:05","新北市五股區成泰路一段82號","121.435745","25.0706216666667","6501500","五股區"
"248002","678-BX","2017/11/20 20:07:59","新北市五股區成泰路三段318-1號","121.449536666667","25.0968016666667","6501500","五股區"
"234023","9380-KE","2017/11/20 20:08:00","新北市永和區中正路704號","121.516255","25.00988","6500400","永和區"
"234077","969-R7","2017/11/20 20:08:08","新北市永和區民光街16號","121.515691666667","24.9959466666667","6500400","永和區"
"234074","AAC-211","2017/11/20 20:08:07","新北市永和區豫溪街185號","121.522501666667","25.010405","6500400","永和區"
"234067","AAC-212","2017/11/20 20:08:00","新北市永和區保平路214巷12弄2號","121.509061666667","25.0067666666667","6500400","永和區"
"234003","AAC-295","2017/11/20 20:08:06","新北市永和區中正路607號","121.51631","25.0096333333333","6500400","永和區"
"243012","AAD-798","2017/11/20 20:07:52","新北市泰山區楓江路48號","121.435156666667","25.0623783333333","6501600","泰山區"
"243009","297-R6","2017/11/20 20:08:09","新北市泰山區泰林路二段116巷1弄2號","121.434953333333","25.0594533333333","6501600","泰山區"
"243015","380-SR","2017/11/20 20:08:05","新北市泰山區明志路一段493-1號","121.430613333333","25.055005","6501600","泰山區"
"243014","421-VK","2017/11/20 20:07:50","新北市泰山區明志路一段28號","121.433528333333","25.0654216666667","6501600","泰山區"
"243010","KEA-2215","2017/11/20 20:08:06","新北市泰山區明志路二段136巷48號","121.426111666667","25.0520766666667","6501600","泰山區"
"243011","KEA-2216","2017/11/20 20:08:04","新北市泰山區中山路三段6號","121.420986666667","25.03233","6501600","泰山區"
"243013","646-TV","2017/11/20 20:08:06","新北市泰山區貴子路2號","121.425","25.0421283333333","6501600","泰山區"
"243016","680-BX","2017/11/20 20:07:57","新北市泰山區新北大道六段369號","121.42252","25.032745","6501600","泰山區"
"222003","436-BY","2017/11/20 20:08:03","新北市深坑區埔新街60號","121.620238333333","25.002425","6501800","深坑區"
"222002","659-BX","2017/11/20 20:08:09","新北市深坑區北深路三段60號","121.608103333333","25.0013666666667","6501800","深坑區"
"231059","001-UM","2017/11/20 20:08:07","新北市新店區安德街80號","121.510123333333","24.9614816666667","6500600","新店區"
"231041","002-UM","2017/11/20 20:08:02","新北市新店區中正路468號","121.533965","24.979425","6500600","新店區"
"231061","047-UY","2017/11/20 20:08:04","新北市新店區安民街133巷17號","121.515691666667","24.9692616666667","6500600","新店區"
"231060","106-UY","2017/11/20 20:08:05","新北市新店區安康路三段179號","121.488398333333","24.951795","6500600","新店區"
"231047","108-UY","2017/11/20 20:07:53","新北市新店區寶橋路201號","121.548268333333","24.9770183333333","6500600","新店區"
"231052","187-VK","2017/11/20 20:07:59","新北市新店區新烏路三段寶島巷2弄3號","121.55203","24.8986283333333","6500600","新店區"
"231050","KEA-2219","2017/11/20 20:08:04","新北市新店區北新路一段96巷23號","121.542785","24.9687216666667","6500600","新店區"
"231057","256-BX","2017/11/20 20:08:05","新北市新店區花園一路一段2號","121.553128333333","24.932455","6500600","新店區"
"231063","268-BY","2017/11/20 20:07:51","新北市新店區黎明路57巷1號","121.502403333333","24.9478933333333","6500600","新店區"
"231054","AAD-862","2017/11/20 20:07:48","新北市新店區檳榔路24號","121.541408333333","24.96399","6500600","新店區"
"231056","3713-VJ","2017/11/20 20:08:01","新北市新店區北新路三段90號","121.541856666667","24.98084","6500600","新店區"
"231055","4716-K9","2017/11/20 20:07:50","新北市新店區力行路5號","121.539436666667","24.964585","6500600","新店區"
"231067","4772-VM","2017/11/20 20:08:06","新北市新店區安康路一段30號","121.53178","24.9610666666667","6500600","新店區"
"231065","512-UM","2017/11/20 20:08:00","新北市新店區安祥路106巷246號","121.473321666667","24.9593833333333","6500600","新店區"
"231064","515-UM","2017/11/20 20:07:55","新北市新店區安光路10-1號","121.513741666667","24.964165","6500600","新店區"
"231042","616-UM","2017/11/20 20:08:00","新北市新店區中興路二段196號","121.54836","24.973685","6500600","新店區"
"231045","617-UM","2017/11/20 20:07:55","新北市新店區北宜路二段48號","121.548733333333","24.9514066666667","6500600","新店區"
"231040","619-UM","2017/11/20 20:07:54","新北市新店區中正路56號","121.544536666667","24.9699883333333","6500600","新店區"
"231068","718-UY","2017/11/20 20:07:59","新北市新店區北新路一段91號","121.538868333333","24.9617533333333","6500600","新店區"
"231049","719-UM","2017/11/20 20:07:51","新北市新店區北新路二段139巷12弄2號","121.542155","24.9759883333333","6500600","新店區"
"231051","719-UY","2017/11/20 20:08:00","新北市新店區中央五街30號","121.528821666667","24.9745516666667","6500600","新店區"
"231062","720-UM","2017/11/20 20:07:53","新北市新店區安康路一段355-3號","121.519428333333","24.961715","6500600","新店區"
"231044","897-TW","2017/11/20 20:07:53","新北市新店區寶慶街58巷6號","121.542045","24.9870216666667","6500600","新店區"
"231043","899-TW","2017/11/20 20:08:02","新北市新店區民族路192號","121.536195","24.9753833333333","6500600","新店區"
"231066","AKT-0513","2017/11/20 20:07:50","新北市新店區柴埕路52巷1-6號","121.5127","24.9646216666667","6500600","新店區"
"241011","013-R5","2017/11/20 20:07:53","新北市三重區三和路二段173巷47號","121.499305","25.0701833333333","6500200","三重區"
"241028","022-UY","2017/11/20 20:07:51","新北市三重區仁化街174號","121.494818333333","25.0570766666667","6500200","三重區"
"241008","059-VK","2017/11/20 20:08:08","新北市三重區永福街197巷37弄8號","121.478031666667","25.0741416666667","6500200","三重區"
"241009","060-VK","2017/11/20 20:08:05","新北市三重區三和路四段177-1號","121.482686666667","25.07882","6500200","三重區"
"241031","061-VK","2017/11/20 20:07:54","新北市三重區過圳街9-1號","121.48877","25.0601133333333","6500200","三重區"
"241015","062-VK","2017/11/20 20:08:00","新北市三重區長元街82-1號","121.501921666667","25.0663133333333","6500200","三重區"
"241017","063-VK","2017/11/20 20:07:50","新北市三重區大智街108-3號","121.492995","25.066665","6500200","三重區"
"241024","065-VK","2017/11/20 20:07:59","新北市三重區力行路一段176號","121.481878333333","25.0714316666667","6500200","三重區"
"241026","066-VK","2017/11/20 20:07:50","新北市三重區福德南路65巷1號","121.502408333333","25.060555","6500200","三重區"
"241002","090-VK","2017/11/20 20:07:55","新北市三重區五華街35巷46號","121.495426666667","25.0816833333333","6500200","三重區"
"241003","091-VK","2017/11/20 20:08:07","新北市三重區仁愛街445巷3號","121.490066666667","25.082405","6500200","三重區"
"241005","262-UM","2017/11/20 20:08:06","新北市三重區溪尾街332號","121.488143333333","25.08505","6500200","三重區"
"241023","265-UM","2017/11/20 20:08:01","新北市三重區頂崁街220巷2號","121.476928333333","25.0681516666667","6500200","三重區"
"241016","266-UM","2017/11/20 20:07:55","新北市三重區正義北路36巷14號","121.496606666667","25.0633466666667","6500200","三重區"
"241022","267-UM","2017/11/20 20:07:53","新北市三重區新北大道一段11號","121.488621666667","25.0605966666667","6500200","三重區"
"241018","268-UM","2017/11/20 20:07:48","新北市三重區大智街51號","121.492806666667","25.0676683333333","6500200","三重區"
"241032","269-UM","2017/11/20 20:08:07","新北市三重區捷運路37巷39-1號","121.483741666667","25.056155","6500200","三重區"
"241013","270-UM","2017/11/20 20:08:03","新北市三重區三和路三段125巷42號","121.494093333333","25.073705","6500200","三重區"
"241025","271-UM","2017/11/20 20:07:51","新北市三重區中正北路430-5號","121.47449","25.0705583333333","6500200","三重區"
"241007","398-BY","2017/11/20 20:07:51","新北市三重區仁美街49號","121.4874","25.0778883333333","6500200","三重區"
"241020","413-TH","2017/11/20 20:08:04","新北市三重區後竹圍街18號","121.491408333333","25.0735816666667","6500200","三重區"
"241035","462-BY","2017/11/20 20:08:07","新北市三重區平安街9號","121.498755","25.0642983333333","6500200","三重區"
"241004","475-VK","2017/11/20 20:08:06","新北市三重區仁愛街418號","121.490518333333","25.0814333333333","6500200","三重區"
"241019","478-VK","2017/11/20 20:08:07","新北市三重區自強路二段33巷5號","121.489953333333","25.0695466666667","6500200","三重區"
"241030","480-VK","2017/11/20 20:08:09","新北市三重區重新路四段244巷7弄8號","121.486478333333","25.0530916666667","6500200","三重區"
"241014","543-UM","2017/11/20 20:07:49","新北市三重區長樂街19號","121.500025","25.0691","6500200","三重區"
"241001","547-UM","2017/11/20 20:08:04","新北市三重區溪尾街16號","121.49131","25.0755866666667","6500200","三重區"
"241006","AAD-863","2017/11/20 20:07:55","新北市三重區力行路二段91巷22號","121.48355","25.0759683333333","6500200","三重區"
"241012","941-UM","2017/11/20 20:08:09","新北市三重區仁厚街61號","121.50064","25.0766766666667","6500200","三重區"
"241029","942-UM","2017/11/20 20:07:55","新北市三重區重新路三段204號","121.490125","25.05827","6500200","三重區"
"241033","AAC-255","2017/11/20 20:08:02","新北市三重區光復路一段68巷22號","121.471023333333","25.0492516666667","6500200","三重區"
"235066","003-UY","2017/11/20 20:07:51","新北市中和區水源路113號","121.507895","25.00323","6500300","中和區"
"235039","097-UM","2017/11/20 20:08:06","新北市中和區景平路278巷14弄1號","121.5139","24.99305","6500300","中和區"
"235065","098-UM","2017/11/20 20:07:57","新北市中和區永和路90巷2弄2號","121.497365","25.0057483333333","6500300","中和區"
"235040","150-BY","2017/11/20 20:07:56","新北市中和區保健路33巷11號","121.509271666667","24.997905","6500300","中和區"
"235058","151-BY","2017/11/20 20:08:05","新北市中和區員山路102號","121.48103","24.99538","6500300","中和區"
"235044","293-VK","2017/11/20 20:07:48","新北市中和區中興街132號","121.499791666667","24.99228","6500300","中和區"
"235072","301-VK","2017/11/20 20:08:03","新北市樹林區中山路三段202號","121.38664","24.9683233333333","6500300","中和區"
"235068","377-QA","2017/11/20 20:07:42","新北市中和區中山路二段262號","121.497296666667","25.0025916666667","6500300","中和區"
"235050","4979-A6","2017/11/20 20:07:59","新北市中和區景平路314號","121.512388333333","24.9926583333333","6500300","中和區"
"235069","4980-A6","2017/11/20 20:08:10","新北市中和區南山路37巷3弄1號","121.502735","24.9987916666667","6500300","中和區"
"235070","558-UM","2017/11/20 20:07:52","新北市中和區圓通路154號","121.497986666667","24.99566","6500300","中和區"
"235054","640-BX","2017/11/20 20:08:08","新北市中和區莒光路161號","121.472646666667","25.000675","6500300","中和區"
"235046","733-UM","2017/11/20 20:07:57","新北市中和區忠孝街33號","121.510455","24.98336","6500300","中和區"
"235062","800-TS","2017/11/20 20:08:03","新北市中和區中正路887號","121.484333333333","25.0043366666667","6500300","中和區"
"235041","802-TS","2017/11/20 20:08:01","新北市中和區安平路38號","121.509946666667","24.9949716666667","6500300","中和區"
"235052","805-TS","2017/11/20 20:08:02","新北市中和區華新街30巷20弄1-2號","121.50656","24.9839716666667","6500300","中和區"
"235048","896-TW","2017/11/20 20:07:51","新北市中和區景新街493號","121.513865","24.9871066666667","6500300","中和區"
"235037","157-BY","2017/11/20 20:07:51","新北市中和區景安路212號","121.503915","24.99074","6500300","中和區"
"235037","AAC-213","2017/11/20 20:08:09","新北市中和區自立路36-8號","121.522713333333","24.99274","6500300","中和區"
"235059","AAC-215","2017/11/20 20:08:05","新北市中和區圓通路335巷33弄33號","121.493708333333","24.9887733333333","6500300","中和區"
"220068","013-TV","2017/11/20 20:08:08","新北市板橋區光復街82號","121.483063333333","25.0185383333333","6500100","板橋區"
"220065","072-UY","2017/11/20 20:07:32","新北市板橋區永豐街89巷5弄6號","121.472813333333","25.019575","6500100","板橋區"
"220106","075-UY","2017/11/20 20:08:06","新北市板橋區文聖街13號","121.47555","25.032305","6500100","板橋區"
"220069","AAD-861","2017/11/20 20:08:04","新北市板橋區大明街20巷19弄23號","121.457571666667","25.0030533333333","6500100","板橋區"
"220102","120-SR","2017/11/20 20:08:02","新北市板橋區懷德街66巷21號","121.47697","25.0319266666667","6500100","板橋區"
"247022","893-R6","2017/11/20 20:07:57","新北市蘆洲區三民路229號","121.469553333333","25.0884166666667","6501400","蘆洲區"
"247012","546-UM","2017/11/20 20:07:48","新北市蘆洲區復興路231號","121.47997","25.0897066666667","6501400","蘆洲區"
"247020","500-BY","2017/11/20 20:07:45","新北市蘆洲區民權路106巷5弄2-1號","121.47433","25.0890533333333","6501400","蘆洲區"
"247004","402-BY","2017/11/20 20:08:09","新北市蘆洲區長安街267巷8弄1號","121.458066666667","25.0835983333333","6501400","蘆洲區"
"247010","339-TH","2017/11/20 20:07:40","新北市蘆洲區信義路179號","121.479766666667","25.0823283333333","6501400","蘆洲區"
"247002","337-TH","2017/11/20 20:07:58","新北市蘆洲區長安街246巷43號","121.458825","25.08667","6501400","蘆洲區"
"247016","057-VK","2017/11/20 20:07:55","新北市蘆洲區光華路133號","121.466436666667","25.0821983333333","6501400","蘆洲區"
"247006","056-VK","2017/11/20 20:07:55","新北市蘆洲區中山二路300巷2號","121.46862","25.0772116666667","6501400","蘆洲區"
"247008","053-VK","2017/11/20 20:08:05","新北市蘆洲區中山一路195號","121.47441","25.0810666666667","6501400","蘆洲區"
"247014","007-UY","2017/11/20 20:08:02","新北市蘆洲區中山二路273號","121.469728333333","25.0795766666667","6501400","蘆洲區"
"247024","002-UY","2017/11/20 20:08:06","新北市蘆洲區光明路88巷26號","121.463193333333","25.0871733333333","6501400","蘆洲區"
"247018","001-UY","2017/11/20 20:08:06","新北市蘆洲區民族路314巷1號","121.477353333333","25.090275","6501400","蘆洲區"
"226004","205-ST","2017/11/20 20:07:59","新北市平溪區石底里公園街18-3號","121.733393333333","25.0257416666667","6502400","平溪區"
"227008","642-TC","2017/11/20 20:07:50","新北市雙溪區雙溪里中正路22號","121.864951666667","25.03699","6502500","雙溪區"
"227001","400-TW","2017/11/20 20:08:02","新北市雙溪區魚行里新店74-1號","121.872035","25.0299733333333","6502500","雙溪區"
"222001","KEA-2212","2017/11/20 20:08:00","新北市深坑區北深路三段187號","121.601323333333","25.0036583333333","6501800","深坑區"
"208003","665-BX","2017/11/20 20:07:58","新北市金山區永興里跳石4號","121.633503333333","25.2551566666667","6502700","金山區"
"251009","008-UM","2017/11/20 20:08:00","新北市淡水區博愛街14號","121.446123333333","25.16992","6501000","淡水區"
"251004","009-UM","2017/11/20 20:07:54","新北市淡水區民族路29巷60號","121.4619","25.1367583333333","6501000","淡水區"
"251005","010-UM","2017/11/20 20:08:00","新北市淡水區學府路136巷96號","121.453601666667","25.1727966666667","6501000","淡水區"
"251008","181-VK","2017/11/20 20:07:57","新北市淡水區淡海路72巷30弄18號","121.42523","25.182585","6501000","淡水區"
"251013","182-VK","2017/11/20 20:07:57","新北市淡水區奎柔山路452號","121.463266666667","25.2045583333333","6501000","淡水區"
"251010","413-VK","2017/11/20 20:08:04","新北市淡水區新市五路二段75號","121.431683333333","25.1991366666667","6501000","淡水區"
"251012","441-VK","2017/11/20 20:07:50","新北市淡水區下圭柔山70巷1號","121.44649","25.2075583333333","6501000","淡水區"
"251015","442-VK","2017/11/20 20:08:00","新北市淡水區淡金路三段8-1號","121.447091666667","25.198075","6501000","淡水區"
"251006","561-UM","2017/11/20 20:08:01","新北市淡水區北新路141巷2弄1號","121.44918","25.1793716666667","6501000","淡水區"
"251011","650-BX","2017/11/20 20:07:26","新北市淡水區崁頂78-5號","121.42935","25.2072783333333","6501000","淡水區"
"207003","550-UM","2017/11/20 20:08:00","新北市萬里區大鵬里萬里加投186號","121.642806666667","25.2156583333333","6502800","萬里區"
"207004","225-TW","2017/11/20 20:07:55","新北市萬里區北基里愛一街1號","121.682546666667","25.1768033333333","6502800","萬里區"
"252001","292-VK","2017/11/20 20:08:06","新北市三芝區公正街66號","121.499796666667","25.2574766666667","6502100","三芝區"
"252002","AAC-283","2017/11/20 20:08:04","新北市三芝區三民街39巷5號","121.50546","25.2577","6502100","三芝區"
"237007","153-BY","2017/11/20 20:08:02","新北市三峽區二鬮路136巷145號","121.357033333333","24.9106666666667","6500900","三峽區"
"237009","210-TH","2017/11/20 20:08:03","新北市三峽區民族街6號","121.36901","24.9313883333333","6500900","三峽區"
"237013","252-BX","2017/11/20 20:07:49","新北市樹林區學勤路200號","121.377268333333","24.9472316666667","6500900","三峽區"
"237012","275-BY","2017/11/20 20:08:02","新北市三峽區中華路76號","121.37133","24.92841","6500900","三峽區"
"237006","5529-G3","2017/11/20 20:08:00","新北市三峽區嘉添181號","121.370038333333","24.9114433333333","6500900","三峽區"
"237015","649-BX","2017/11/20 20:07:55","新北市三峽區介壽路二段138巷41號","121.395471666667","24.9335716666667","6500900","三峽區"
"237005","AKY-6261","2017/11/20 20:08:06","新北市三峽區民生街1巷16號","121.38013","24.9356","6500900","三峽區"
"236069","105-UM","2017/11/20 20:08:05","新北市土城區中央路三段147巷2弄3號","121.432273333333","24.9649383333333","6501300","土城區"
"236042","107-UM","2017/11/20 20:08:05","新北市土城區學府路一段120巷8號","121.455211666667","24.987985","6501300","土城區"
"236078","166-UM","2017/11/20 19:10:44","新北市土城區龍泉路43號","121.417128333333","24.9432833333333","6501300","土城區"
"236030","253-BX","2017/11/20 20:08:01","新北市土城區裕民路32巷6號","121.447641666667","24.9881","6501300","土城區"
"236026","269-VK","2017/11/20 20:08:02","新北市土城區明德路二段108號","121.445108333333","24.9841883333333","6501300","土城區"
"236014","270-VK","2017/11/20 20:07:57","新北市土城區廣明街10號","121.45593","24.9920416666667","6501300","土城區"
"236036","271-VK","2017/11/20 20:07:56","新北市土城區明德路一段20巷1弄2號","121.464651666667","24.9848166666667","6501300","土城區"
"236001","339-SR","2017/11/20 11:11:06","新北市土城區永平街51號","121.427635","24.9592283333333","6501300","土城區"
"236020","401-BY","2017/11/20 20:08:06","新北市土城區延吉街95號","121.471696666667","24.98692","6501300","土城區"
"236058","912-UM","2017/11/20 20:08:02","新北市土城區中央路一段269-1號","121.444938333333","24.9852083333333","6501300","土城區"
"236048","913-UM","2017/11/20 20:07:51","新北市土城區金城路三段129號","121.468001666667","24.987985","6501300","土城區"
"236062","915-UM","2017/11/20 20:08:02","新北市土城區延和路18巷2號","121.464391666667","24.9881766666667","6501300","土城區"
"236053","AAC-216","2017/11/20 20:07:57","新北市土城區學成路5號","121.453351666667","24.9864316666667","6501300","土城區"
"242029","986-R7","2017/11/20 20:08:04","新北市新莊區中平路361號","121.444686666667","25.0518616666667","6500500","新莊區"
"242050","751-BX","2017/11/20 20:07:51","新北市新莊區民安西路150巷19號","121.425246666667","25.0164983333333","6500500","新莊區"
"242027","705-TV","2017/11/20 20:08:09","新北市新莊區中平路303號","121.444693333333","25.0514633333333","6500500","新莊區"
"242025","615-BX","2017/11/20 20:08:02","新北市新莊區五工三路78巷23號","121.459765","25.0659483333333","6500500","新莊區"
"242023","613-BX","2017/11/20 20:08:03","新北市新莊區化成路528號","121.466265","25.052805","6500500","新莊區"
"242039","566-BX","2017/11/20 20:07:57","新北市新莊區民安西路42號","121.427335","25.0211133333333","6500500","新莊區"
"242044","497-BY","2017/11/20 20:08:10","新北市新莊區萬壽路一段21巷17弄10號","121.411106666667","25.0202583333333","6500500","新莊區"
"242031","442-UM","2017/11/20 20:07:52","新北市新莊區忠孝街29巷31號","121.443568333333","25.03674","6500500","新莊區"
"242048","441-UM","2017/11/20 20:07:47","新北市新莊區四維路150巷9號","121.422351666667","25.0233116666667","6500500","新莊區"
"242053","440-UM","2017/11/20 20:07:54","新北市新莊區西盛街395巷23弄2號","121.428313333333","25.0125216666667","6500500","新莊區"
"242034","415-TV","2017/11/20 20:07:49","新北市新莊區中正路318巷16號","121.446521666667","25.035945","6500500","新莊區"
"242004","413-TV","2017/11/20 20:08:00","新北市新莊區頭興街9巷2號","121.462","25.05354","6500500","新莊區"
"242042","400-BY","2017/11/20 20:07:55","新北市新莊區壽山路45號","121.414866666667","25.0311166666667","6500500","新莊區"
"242060","362-BY","2017/11/20 20:08:00","新北市新莊區瓊林路瓊英巷9號","121.443298333333","25.0275216666667","6500500","新莊區"
"242058","353-BY","2017/11/20 20:07:54","新北市新莊區龍安路333號","121.422421666667","25.0191866666667","6500500","新莊區"
"242017","132-UY","2017/11/20 20:08:09","新北市新莊區中港路318號","121.452645","25.0457866666667","6500500","新莊區"
"242036","133-UY","2017/11/20 20:07:57","新北市新莊區後港一路130巷29號","121.429866666667","25.0262516666667","6500500","新莊區"
"242021","135-UY","2017/11/20 20:08:06","新北市新莊區建中街34號","121.448915","25.0376333333333","6500500","新莊區"
"242046","172-VK","2017/11/20 20:07:57","新北市新莊區裕民街85巷11號","121.419193333333","25.0234583333333","6500500","新莊區"
"242009","173-VK","2017/11/20 20:08:01","新北市新莊區昌盛街41號","121.454246666667","25.0501133333333","6500500","新莊區"
"242015","175-VK","2017/11/20 20:07:51","新北市新莊區中平路26巷26號","121.445825","25.0432383333333","6500500","新莊區"
"242002","176-VK","2017/11/20 20:08:02","新北市新莊區新莊路2號","121.459243333333","25.0381","6500500","新莊區"
"242013","346-TH","2017/11/20 20:07:59","新北市新莊區幸福路696號","121.450101666667","25.04952","6500500","新莊區"
"242007","347-TH","2017/11/20 20:08:02","新北市新莊區思源路421號","121.459378333333","25.052735","6500500","新莊區"
"242019","348-TH","2017/11/20 20:08:00","新北市新莊區長青街29號","121.457166666667","25.0421983333333","6500500","新莊區"
"242011","351-TH","2017/11/20 20:08:03","新北市新莊區中和街204巷7號","121.448251666667","25.0503783333333","6500500","新莊區"
"238015","755-BX","2017/11/20 20:07:49","新北市樹林區八德街1172號","121.390228333333","24.968325","6500700","樹林區"
"238021","KEA-2217","2017/11/20 20:08:03","新北市樹林區佳園路三段101巷120號","121.396045","24.9501383333333","6500700","樹林區"
"221008","489-VK","2017/11/20 20:07:59","台北市內湖區康樂街201巷47號","121.622743333333","25.0767866666667","6501100","汐止區"
"221036","130-UY","2017/11/20 20:08:00","新北市汐止區新台五路二段33號","121.662978333333","25.06633","6501100","汐止區"
"221010","269-BY","2017/11/20 20:08:06","新北市汐止區八連路一段86巷1號","121.644596666667","25.0803433333333","6501100","汐止區"
"221012","278-VK","2017/11/20 20:08:00","新北市汐止區汐平路一段149號","121.691853333333","25.06654","6501100","汐止區"
"221023","279-VK","2017/11/20 20:08:07","新北市汐止區明峰街298巷2弄1號","121.625161666667","25.0681783333333","6501100","汐止區"
"221032","280-BY","2017/11/20 20:08:07","新北市汐止區弘道街9巷2弄2號","121.617041666667","25.04881","6501100","汐止區"
"221027","281-BY","2017/11/20 20:07:53","新北市汐止區中正路101號","121.660933333333","25.069365","6501100","汐止區"
"221029","298-VK","2017/11/20 20:07:47","新北市汐止區樟樹一路133巷12號","121.641378333333","25.0653183333333","6501100","汐止區"
"221021","299-VK","2017/11/20 20:07:57","新北市汐止區水源路一段172號","121.6552","25.0619083333333","6501100","汐止區"
"221031","353-TW","2017/11/20 20:07:55","新北市汐止區中興路214巷7弄2號","121.631348333333","25.0665816666667","6501100","汐止區"
"221015","567-BX","2017/11/20 20:08:07","新北市汐止區建成路13號","121.664568333333","25.072575","6501100","汐止區"
"221035","622-UM","2017/11/20 20:08:02","新北市汐止區長江街67巷2弄1號","121.656728333333","25.0722216666667","6501100","汐止區"
"221025","623-UM","2017/11/20 20:07:49","新北市汐止區秀峰路62號","121.659741666667","25.0646733333333","6501100","汐止區"
"221038","646-BX","2017/11/20 20:08:04","新北市汐止區大同路三段66號","121.667918333333","25.0771383333333","6501100","汐止區"
"221033","647-BX","2017/11/20 20:07:51","新北市汐止區東勢街201巷104號","121.633555","25.042975","6501100","汐止區"
"221018","753-BX","2017/11/20 20:07:49","新北市汐止區茄苳路282巷2弄7號","121.671951666667","25.0667583333333","6501100","汐止區"
"220080","200-UY","2017/11/20 20:08:00","新北市板橋區大觀路二段187巷15號","121.445698333333","24.9996183333333","6500100","板橋區"
"220101","245-BX","2017/11/20 20:08:05","新北市板橋區莒光路165巷2號","121.474056666667","25.0239016666667","6500100","板橋區"
"220103","255-TC","2017/11/20 20:08:09","新北市板橋區自由路26巷13號","121.46618","25.0226183333333","6500100","板橋區"
"220072","277-BY","2017/11/20 20:07:59","新北市板橋區金門街121巷60號","121.434263333333","24.9912383333333","6500100","板橋區"
"220094","283-UM","2017/11/20 20:08:00","新北市板橋區陽明街25巷1號","121.466033333333","25.02179","6500100","板橋區"
"220071","283-VK","2017/11/20 20:08:07","新北市板橋區和平路174巷23號","121.464605","24.9945483333333","6500100","板橋區"
"220053","285-VK","2017/11/20 20:07:54","新北市板橋區懷仁街92-4號","121.47752","25.0181183333333","6500100","板橋區"
"220083","286-VK","2017/11/20 20:07:55","新北市板橋區僑中二街52號","121.446728333333","25.0103616666667","6500100","板橋區"
"220081","287-VK","2017/11/20 20:07:52","新北市板橋區僑中一街124巷20弄46號","121.448193333333","25.0137266666667","6500100","板橋區"
"220090","288-VK","2017/11/20 20:07:49","新北市板橋區新海路116號","121.461255","25.0227316666667","6500100","板橋區"
"220061","293-UM","2017/11/20 20:07:59","新北市板橋區觀光街2號","121.472408333333","25.015355","6500100","板橋區"
"220084","296-UM","2017/11/20 20:08:06","新北市板橋區溪崑二街112巷29號","121.425831666667","24.9889366666667","6500100","板橋區"
"220075","297-UM","2017/11/20 20:08:02","新北市板橋區金華街10巷83號","121.45821","25.0204066666667","6500100","板橋區"
"220062","305-R5","2017/11/20 20:07:49","新北市板橋區中山路二段613號","121.485425","25.0225666666667","6500100","板橋區"
"220092","307-R5","2017/11/20 20:08:01","新北市板橋區文化路一段45巷8號","121.460153333333","25.013555","6500100","板橋區"
"220098","317-R6","2017/11/20 20:08:04","新北市板橋區新海路72巷44號","121.46216","25.0229316666667","6500100","板橋區"
"220064","486-VK","2017/11/20 20:08:07","新北市板橋區漢生東路193巷23-4號","121.471015","25.01214","6500100","板橋區"
"220088","491-VK","2017/11/20 20:07:59","新北市板橋區民治街57巷2號","121.479508333333","25.0334","6500100","板橋區"
"220057","686-BX","2017/11/20 20:07:41","新北市板橋區四川路二段130巷19號","121.449566666667","24.994095","6500100","板橋區"
"220093","689-BX","2017/11/20 20:07:51","新北市板橋區長江路二段206號","121.467626666667","25.0320766666667","6500100","板橋區"
"220054","741-BX","2017/11/20 20:08:04","新北市板橋區忠孝路忠義巷3弄22號","121.46533","25.0040666666667","6500100","板橋區"
"220055","827-TW","2017/11/20 20:07:49","新北市板橋區仁愛路86巷13弄1號","121.461103333333","24.9989516666667","6500100","板橋區"
"220067","829-TW","2017/11/20 20:08:07","新北市板橋區中山路一段208號","121.469885","25.0138116666667","6500100","板橋區"
"220096","831-TW","2017/11/20 20:07:49","新北市板橋區莒光路79巷4號","121.47193","25.0244366666667","6500100","板橋區"
"220089","833-TW","2017/11/20 20:07:55","新北市板橋區新海路390號","121.458971666667","25.0262883333333","6500100","板橋區"
"220074","895-R6","2017/11/20 20:08:02","新北市板橋區府後街1巷1號","121.459091666667","25.0106916666667","6500100","板橋區"
"220097","AAC-210","2017/11/20 20:08:07","新北市板橋區光正街27號","121.462308333333","25.0170933333333","6500100","板橋區"
"220070","AAC-253","2017/11/20 20:08:04","新北市板橋區德興街31號","121.453545","24.9939716666667","6500100","板橋區"
