"lineid","car","time","location","longitude","latitude","cityid","cityname"
"234064","337-UY","2017/11/20 20:39:51","新北市永和區光復街27號","121.516546666667","25.01752","6500400","永和區"
"234001","395-TH","2017/11/20 15:54:01","新北市永和區保生路55-8號","121.504108333333","25.010275","6500400","永和區"
"234030","746-BX","2017/11/20 20:39:53","新北市中和區中正路1218號","121.47975","25.0106433333333","6500400","永和區"
"234061","AAD-866","2017/11/20 20:40:00","新北市永和區秀朗路一段175號","121.517021666667","25.0036533333333","6500400","永和區"
"234042","862-TW","2017/11/20 20:39:59","新北市永和區永和路二段218號","121.515718333333","25.0141983333333","6500400","永和區"
"249001","173-UM","2017/11/20 20:39:50","新北市八里區中山路三段323號","121.377855","25.1388866666667","6502300","八里區"
"249004","303-UY","2017/11/20 20:39:49","新北市八里區中山路一段157巷31號","121.413033333333","25.1581483333333","6502300","八里區"
"234023","9380-KE","2017/11/20 20:40:04","新北市永和區竹林路39巷19弄2號","121.518786666667","25.0148916666667","6500400","永和區"
"234074","AAC-211","2017/11/20 20:40:07","新北市永和區竹林路121號","121.520148333333","25.0114033333333","6500400","永和區"
"243014","421-VK","2017/11/20 20:39:50","新北市泰山區泰林路三段745巷145號","121.405533333333","25.0676966666667","6501600","泰山區"
"243010","KEA-2215","2017/11/20 20:40:06","新北市泰山區黎明路25號","121.422021666667","25.0608066666667","6501600","泰山區"
"243011","KEA-2216","2017/11/20 20:40:04","新北市泰山區明志路二段52號","121.429206666667","25.0528083333333","6501600","泰山區"
"243016","680-BX","2017/11/20 20:39:57","新北市泰山區文程路111號","121.430656666667","25.0480716666667","6501600","泰山區"
"222003","436-BY","2017/11/20 20:40:03","新北市深坑區文山路二段30巷31號","121.614841666667","24.9990083333333","6501800","深坑區"
"222002","659-BX","2017/11/20 20:40:09","新北市深坑區萬福路33號","121.598986666667","25.00666","6501800","深坑區"
"231059","001-UM","2017/11/20 20:40:07","新北市新店區僑愛三路30號","121.499065","24.9447033333333","6500600","新店區"
"231041","002-UM","2017/11/20 20:40:02","新北市新店區復興路127號","121.533821666667","24.9878166666667","6500600","新店區"
"231061","047-UY","2017/11/20 20:40:04","新北市新店區新和街52號","121.519656666667","24.98526","6500600","新店區"
"231060","106-UY","2017/11/20 20:40:05","新北市新店區安康路三段549號","121.476591666667","24.944425","6500600","新店區"
"231047","108-UY","2017/11/20 20:39:53","新北市新店區寶慶街34號","121.543045","24.9867733333333","6500600","新店區"
"231052","187-VK","2017/11/20 20:39:59","新北市新店區廣興路7-9號","121.545708333333","24.9118183333333","6500600","新店區"
"231050","KEA-2219","2017/11/20 20:40:04","新北市新店區建興街5號","121.540175","24.9764833333333","6500600","新店區"
"231057","256-BX","2017/11/20 20:40:05","新北市新店區花園六路二段16號","121.555046666667","24.9333533333333","6500600","新店區"
"231063","268-BY","2017/11/20 20:39:51","新北市新店區玫瑰路4-1號","121.493591666667","24.9513983333333","6500600","新店區"
"231054","AAD-862","2017/11/20 20:39:48","新北市新店區行政街45號","121.543036666667","24.9656016666667","6500600","新店區"
"231056","3713-VJ","2017/11/20 20:40:01","新北市新店區民生路75巷225-2號","121.533235","24.980975","6500600","新店區"
"231065","512-UM","2017/11/20 20:40:00","新北市新店區安祥路104巷39號","121.482366666667","24.96333","6500600","新店區"
"231064","515-UM","2017/11/20 20:39:55","新北市新店區安和路三段153號","121.516636666667","24.9856666666667","6500600","新店區"
"231042","616-UM","2017/11/20 20:40:00","新北市新店區寶高路120巷1號","121.554621666667","24.976","6500600","新店區"
"231045","617-UM","2017/11/20 20:39:55","新北市新店區長春路557-1號","121.553721666667","24.960595","6500600","新店區"
"231040","619-UM","2017/11/20 20:39:54","新北市新店區中正路255號","121.53888","24.9735366666667","6500600","新店區"
"231068","718-UY","2017/11/20 20:39:59","新北市新店區寶慶街35巷3弄1號","121.543211666667","24.9860983333333","6500600","新店區"
"231049","719-UM","2017/11/20 20:39:51","新北市新店區永業路81巷11弄8號","121.531586666667","24.950625","6500600","新店區"
"231051","719-UY","2017/11/20 20:40:00","新北市新店區中央八街66號","121.527898333333","24.9766616666667","6500600","新店區"
"231062","720-UM","2017/11/20 20:39:53","新北市新店區雙城路2巷1號","121.491288333333","24.951185","6500600","新店區"
"231044","897-TW","2017/11/20 20:39:53","新北市新店區建國路293巷1號","121.536661666667","24.9862116666667","6500600","新店區"
"231043","899-TW","2017/11/20 20:40:00","新北市新店區博愛街13巷24號","121.540238333333","24.97403","6500600","新店區"
"231066","AKT-0513","2017/11/20 20:39:50","新北市新店區安興路105-1號","121.514681666667","24.9777466666667","6500600","新店區"
"241011","013-R5","2017/11/20 20:39:53","新北市三重區龍門路115號","121.497795","25.07281","6500200","三重區"
"241028","022-UY","2017/11/20 20:39:51","新北市三重區光興街93號","121.497345","25.059935","6500200","三重區"
"241008","059-VK","2017/11/20 20:39:47","新北市三重區下竹圍街91號","121.481093333333","25.0749316666667","6500200","三重區"
"241009","060-VK","2017/11/20 20:40:05","新北市三重區碧華街51號","121.484661666667","25.0812333333333","6500200","三重區"
"241031","061-VK","2017/11/20 20:39:54","新北市三重區重陽路一段43巷28號","121.488253333333","25.0584333333333","6500200","三重區"
"241015","062-VK","2017/11/20 20:39:59","新北市三重區文化北路224巷6號","121.497648333333","25.068745","6500200","三重區"
"241017","063-VK","2017/11/20 20:39:50","新北市三重區大同北路265號","121.490916666667","25.0672266666667","6500200","三重區"
"241024","065-VK","2017/11/20 20:39:59","新北市三重區三民街270號","121.479056666667","25.0681166666667","6500200","三重區"
"241026","066-VK","2017/11/20 20:39:50","新北市三重區和平街3號","121.500201666667","25.0622883333333","6500200","三重區"
"241002","090-VK","2017/11/20 20:39:55","新北市三重區仁義街167巷55號","121.498756666667","25.0824516666667","6500200","三重區"
"241003","091-VK","2017/11/20 20:39:48","新北市三重區集賢路87-1號","121.493896666667","25.08696","6500200","三重區"
"241005","262-UM","2017/11/20 20:40:06","新北市三重區碧華街456號","121.493383333333","25.0860483333333","6500200","三重區"
"241023","265-UM","2017/11/20 20:40:01","新北市三重區自由街39巷5號","121.478555","25.0669783333333","6500200","三重區"
"241016","266-UM","2017/11/20 20:39:55","新北市三重區長壽西街143-3號","121.494321666667","25.0666733333333","6500200","三重區"
"241022","267-UM","2017/11/20 20:39:53","新北市三重區新北大道一段46巷18弄7號","121.488273333333","25.062025","6500200","三重區"
"241018","268-UM","2017/11/20 20:39:48","新北市三重區自強路一段187號","121.491931666667","25.068055","6500200","三重區"
"241032","269-UM","2017/11/20 20:40:07","新北市三重區重陽路一段120巷48號","121.485026666667","25.06012","6500200","三重區"
"241013","270-UM","2017/11/20 20:40:03","新北市三重區溪尾街12號","121.491485","25.074735","6500200","三重區"
"241025","271-UM","2017/11/20 20:39:51","新北市三重區忠孝路三段84巷1號","121.480115","25.0645616666667","6500200","三重區"
"241007","398-BY","2017/11/20 20:39:51","新北市三重區三和路四段101巷14弄1號","121.488406666667","25.0769583333333","6500200","三重區"
"241020","413-TH","2017/11/20 20:40:04","新北市三重區忠孝路一段21巷5弄1號","121.491786666667","25.0724366666667","6500200","三重區"
"241035","462-BY","2017/11/20 20:40:07","新北市三重區正義北路339號","121.493543333333","25.0715966666667","6500200","三重區"
"241004","475-VK","2017/11/20 20:40:06","新北市三重區仁愛街467號","121.489293333333","25.0819883333333","6500200","三重區"
"241019","478-VK","2017/11/20 20:40:07","新北市三重區忠孝路一段10巷32號","121.491261666667","25.0713316666667","6500200","三重區"
"241030","480-VK","2017/11/20 20:40:03","新北市三重區成功路73巷18號","121.489375","25.051955","6500200","三重區"
"241014","543-UM","2017/11/20 20:39:49","新北市三重區三和路二段119號","121.498915","25.0691083333333","6500200","三重區"
"241001","547-UM","2017/11/20 20:40:04","新北市三重區自強路三段110巷2號","121.486806666667","25.07471","6500200","三重區"
"241012","941-UM","2017/11/20 20:39:49","新北市三重區河邊北街196號","121.502686666667","25.0742783333333","6500200","三重區"
"241029","942-UM","2017/11/20 20:39:55","新北市三重區集美街126巷25號","121.489963333333","25.053805","6500200","三重區"
"241033","AAC-255","2017/11/20 20:40:02","新北市三重區光復路二段1號","121.472256666667","25.0533183333333","6500200","三重區"
"235072","301-VK","2017/11/20 20:40:03","新北市中和區員山路36巷13號","121.48438","24.9907866666667","6500300","中和區"
"235050","4979-A6","2017/11/20 20:39:59","新北市中和區中正路166號","121.498475","24.9939033333333","6500300","中和區"
"235069","4980-A6","2017/11/20 20:39:50","新北市中和區中正路434號","121.491248333333","24.99426","6500300","中和區"
"235026","800-TS","2017/11/20 20:25:15","新北市中和區員山路36巷16-3號","121.484775","24.9913383333333","6500300","中和區"
"247022","893-R6","2017/11/20 20:39:57","新北市蘆洲區中正路243巷7弄9號","121.46745","25.0860266666667","6501400","蘆洲區"
"247012","546-UM","2017/11/20 20:40:08","新北市蘆洲區民族路236巷52號","121.481578333333","25.08896","6501400","蘆洲區"
"247020","500-BY","2017/11/20 20:40:05","新北市蘆洲區民族路424號","121.473808333333","25.09179","6501400","蘆洲區"
"247004","402-BY","2017/11/20 20:39:48","新北市蘆洲區長安街297號","121.45805","25.0848633333333","6501400","蘆洲區"
"247010","339-TH","2017/11/20 20:40:00","新北市蘆洲區中山一路138號","121.476315","25.0816816666667","6501400","蘆洲區"
"247002","337-TH","2017/11/20 20:39:58","新北市蘆洲區長安街375巷13號","121.45651","25.087815","6501400","蘆洲區"
"247016","057-VK","2017/11/20 20:39:55","新北市蘆洲區中山二路170號","121.470816666667","25.0807783333333","6501400","蘆洲區"
"247006","056-VK","2017/11/20 20:39:55","新北市蘆洲區和平路146號","121.46681","25.0809416666667","6501400","蘆洲區"
"247008","053-VK","2017/11/20 20:40:05","新北市蘆洲區重陽街46號","121.481235","25.0827983333333","6501400","蘆洲區"
"247014","007-UY","2017/11/20 20:40:02","新北市蘆洲區中山二路72號","121.47333","25.0822516666667","6501400","蘆洲區"
"247024","002-UY","2017/11/20 20:40:06","新北市蘆洲區長樂路10號","121.464106666667","25.0847783333333","6501400","蘆洲區"
"222001","KEA-2212","2017/11/20 20:40:00","新北市深坑區北深路三段234號","121.600658333333","25.00398","6501800","深坑區"
"251002","012-UM","2017/11/20 20:40:02","新北市淡水區中正路38-1號","121.443706666667","25.16925","6501000","淡水區"
"251008","181-VK","2017/11/20 20:39:57","新北市淡水區沙崙路181巷6弄22號","121.424821666667","25.184835","6501000","淡水區"
"251013","182-VK","2017/11/20 20:39:57","新北市淡水區行忠路167號","121.457036666667","25.2008416666667","6501000","淡水區"
"251010","413-VK","2017/11/20 20:40:04","新北市淡水區沙崙路181巷15號","121.42397","25.1843783333333","6501000","淡水區"
"251012","441-VK","2017/11/20 20:39:50","新北市淡水區興仁路108號","121.451673333333","25.218155","6501000","淡水區"
"251015","442-VK","2017/11/20 20:40:00","新北市淡水區興仁路162號","121.451631666667","25.2206466666667","6501000","淡水區"
"251001","559-UM","2017/11/20 20:39:58","新北市淡水區淡金路65號","121.456205","25.1613766666667","6501000","淡水區"
"251006","561-UM","2017/11/20 20:40:07","新北市淡水區商工路186巷21號","121.450881666667","25.18719","6501000","淡水區"
"251011","650-BX","2017/11/20 20:40:06","新北市淡水區新市一路一段361號","121.436231666667","25.1862033333333","6501000","淡水區"
"251003","766-UM","2017/11/20 20:40:04","新北市淡水區新民街120巷3號","121.438075","25.17794","6501000","淡水區"
"252001","292-VK","2017/11/20 20:40:06","新北市三芝區長安街32號","121.501635","25.256125","6502100","三芝區"
"252002","AAC-283","2017/11/20 20:40:04","新北市三芝區淡金路二段47-2號","121.503663333333","25.2605116666667","6502100","三芝區"
"237013","252-BX","2017/11/20 20:40:02","新北市三峽區中山路459巷163-3號","121.348856666667","24.9331866666667","6500900","三峽區"
"236001","339-SR","2017/11/20 11:11:06","新北市土城區永平街51號","121.427635","24.9592283333333","6501300","土城區"
"242029","986-R7","2017/11/20 20:40:04","新北市新莊區中華路二段201號","121.45231","25.0526966666667","6500500","新莊區"
"242050","751-BX","2017/11/20 20:39:51","新北市新莊區西盛街280巷14號","121.427573333333","25.0153216666667","6500500","新莊區"
"242027","705-TV","2017/11/20 20:39:59","新北市新莊區思源路145號","121.459791666667","25.0441333333333","6500500","新莊區"
"242025","615-BX","2017/11/20 20:40:02","新北市新莊區化成路579巷1號","121.464416666667","25.066055","6500500","新莊區"
"242023","613-BX","2017/11/20 20:40:03","新北市新莊區化成路610號","121.466226666667","25.054755","6500500","新莊區"
"242039","566-BX","2017/11/20 20:40:06","新北市新莊區民安路302號","121.428258333333","25.0218766666667","6500500","新莊區"
"242044","497-BY","2017/11/20 20:40:10","新北市新莊區龍安路90號","121.417663333333","25.02082","6500500","新莊區"
"242031","442-UM","2017/11/20 20:40:06","新北市新莊區三和路6號","121.440356666667","25.0345183333333","6500500","新莊區"
"242048","441-UM","2017/11/20 20:40:07","新北市新莊區中正路863號","121.418845","25.0277266666667","6500500","新莊區"
"242053","440-UM","2017/11/20 20:39:54","新北市新莊區西盛街323巷5號","121.428455","25.0147266666667","6500500","新莊區"
"242034","415-TV","2017/11/20 20:39:49","新北市新莊區華興街30號","121.446191666667","25.0357833333333","6500500","新莊區"
"242042","400-BY","2017/11/20 20:39:55","新北市新莊區天祥街47巷10號","121.416236666667","25.0281666666667","6500500","新莊區"
"242060","362-BY","2017/11/20 20:40:00","新北市新莊區新樹路262號","121.432775","25.0148033333333","6500500","新莊區"
"242058","353-BY","2017/11/20 20:39:54","新北市新莊區民安路138號","121.424165","25.0253666666667","6500500","新莊區"
"242017","132-UY","2017/11/20 20:40:09","新北市新莊區中港三街46號","121.449798333333","25.0463033333333","6500500","新莊區"
"242036","133-UY","2017/11/20 20:39:57","新北市新莊區後港一路58號","121.426366666667","25.02641","6500500","新莊區"
"242021","135-UY","2017/11/20 20:40:06","新北市新莊區中華路一段8號","121.451995","25.036785","6500500","新莊區"
"242046","172-VK","2017/11/20 20:39:57","新北市新莊區裕民街56號","121.418718333333","25.024585","6500500","新莊區"
"242009","173-VK","2017/11/20 20:40:01","新北市新莊區昌隆街104號","121.456783333333","25.0508066666667","6500500","新莊區"
"242015","175-VK","2017/11/20 20:39:51","新北市新莊區中和街44號","121.448191666667","25.0442616666667","6500500","新莊區"
"242002","176-VK","2017/11/20 20:39:53","新北市新莊區中港路29號","121.455121666667","25.0375333333333","6500500","新莊區"
"242013","346-TH","2017/11/20 20:39:59","新北市新莊區中和街175巷19號","121.447073333333","25.050485","6500500","新莊區"
"242007","347-TH","2017/11/20 20:40:02","新北市新莊區思源路38號","121.459851666667","25.0428766666667","6500500","新莊區"
"242019","348-TH","2017/11/20 20:39:50","新北市新莊區銘德街138號","121.454748333333","25.0429583333333","6500500","新莊區"
"242056","349-TH","2017/11/20 20:39:57","新北市新莊區瓊泰路126號","121.443176666667","25.031625","6500500","新莊區"
"242011","351-TH","2017/11/20 20:40:03","新北市新莊區中原路323號","121.446833333333","25.0538466666667","6500500","新莊區"
"221008","489-VK","2017/11/20 20:39:59","新北市汐止區康寧街523-1號","121.633463333333","25.0687683333333","6501100","汐止區"
"221036","130-UY","2017/11/20 20:39:56","新北市汐止區新昌路21號","121.66195","25.067635","6501100","汐止區"
"221023","279-VK","2017/11/20 20:40:07","新北市汐止區民族二街30巷21號","121.633925","25.071705","6501100","汐止區"
"221032","280-BY","2017/11/20 20:40:08","新北市汐止區民權街二段28號","121.619348333333","25.0500383333333","6501100","汐止區"
"221027","281-BY","2017/11/20 20:39:53","新北市汐止區中正路159號","121.659381666667","25.0692033333333","6501100","汐止區"
"221029","298-VK","2017/11/20 20:40:07","新北市汐止區大同路一段495號","121.644408333333","25.0613066666667","6501100","汐止區"
"221021","299-VK","2017/11/20 20:39:57","新北市汐止區水源路一段290號","121.654113333333","25.05803","6501100","汐止區"
"221031","353-TW","2017/11/20 20:39:55","新北市汐止區中興路27巷10號","121.634383333333","25.0610216666667","6501100","汐止區"
"221015","567-BX","2017/11/20 20:40:06","新北市汐止區建成路52號","121.663675","25.0728483333333","6501100","汐止區"
"221035","622-UM","2017/11/20 20:40:02","新北市汐止區長江街101-5號","121.6587","25.07322","6501100","汐止區"
"221025","623-UM","2017/11/20 20:39:49","新北市汐止區水源路二段283巷1號","121.659213333333","25.0498683333333","6501100","汐止區"
"221038","646-BX","2017/11/20 20:40:04","新北市汐止區新興路3號","121.656456666667","25.0651066666667","6501100","汐止區"
"221033","647-BX","2017/11/20 20:39:51","新北市汐止區合順街18巷8弄5號","121.620331666667","25.0418883333333","6501100","汐止區"
"221002","707-TV","2017/11/20 20:39:55","新北市汐止區福德二路132巷2號","121.631161666667","25.0652633333333","6501100","汐止區"
"221018","753-BX","2017/11/20 20:39:48","新北市汐止區茄苳路157號","121.669675","25.0694716666667","6501100","汐止區"
"220103","255-TC","2017/11/20 20:39:57","新北市板橋區漢生東路53巷7號","121.466195","25.016955","6500100","板橋區"
"220083","286-VK","2017/11/20 20:39:55","新北市板橋區僑中二街112巷1號","121.445653333333","25.0069716666667","6500100","板橋區"
"220089","833-TW","2017/11/20 20:39:55","新北市板橋區長江路一段190號","121.462191666667","25.0305016666667","6500100","板橋區"
"220070","AAC-253","2017/11/20 20:40:04","新北市五股區凌雲路三段17-2號","121.430248333333","25.1084516666667","6500100","板橋區"
