"lineid","car","time","location","longitude","latitude","cityid","cityname"
"234001","395-TH","2017/11/20 15:54:01","新北市永和區保生路55-8號","121.504108333333","25.010275","6500400","永和區"
"234030","746-BX","2017/11/20 20:59:53","新北市八里區下罟子23號","121.376253333333","25.1397316666667","6500400","永和區"
"243014","421-VK","2017/11/20 20:59:50","新北市泰山區黎明路25號","121.422171666667","25.0607116666667","6501600","泰山區"
"231059","001-UM","2017/11/20 20:59:46","新北市新店區僑信路106號","121.500155","24.9471083333333","6500600","新店區"
"231061","047-UY","2017/11/20 21:00:04","新北市新店區永安街60號","121.518863333333","24.9869366666667","6500600","新店區"
"231060","106-UY","2017/11/20 20:59:45","新北市新店區安泰路60巷32號","121.482345","24.9465966666667","6500600","新店區"
"231047","108-UY","2017/11/20 20:59:52","新北市新店區文化路73巷1號","121.544891666667","24.982495","6500600","新店區"
"231050","KEA-2219","2017/11/20 21:00:04","新北市新店區三民路117巷3弄2號","121.534468333333","24.9715183333333","6500600","新店區"
"231063","268-BY","2017/11/20 21:00:07","新北市新店區富貴街8巷1號","121.494223333333","24.949805","6500600","新店區"
"231054","AAD-862","2017/11/20 20:59:48","新北市新店區北新路一段126巷21號","121.542968333333","24.9695266666667","6500600","新店區"
"231067","4772-VM","2017/11/20 21:00:03","新北市新店區安華路30巷3號","121.518721666667","24.958445","6500600","新店區"
"231065","512-UM","2017/11/20 21:00:00","新北市新店區安祥路67巷50弄1號","121.484816666667","24.9590233333333","6500600","新店區"
"231064","515-UM","2017/11/20 20:59:55","新北市新店區安和路二段177號","121.51844","24.9746","6500600","新店區"
"231042","616-UM","2017/11/20 21:00:00","新北市新店區寶興路49-1號","121.54932","24.9729533333333","6500600","新店區"
"231040","619-UM","2017/11/20 20:59:54","新北市新店區北新路二段2號","121.542548333333","24.9707666666667","6500600","新店區"
"231068","718-UY","2017/11/20 20:59:59","新北市新店區寶元路二段58號","121.547028333333","24.98127","6500600","新店區"
"231051","719-UY","2017/11/20 21:00:00","新北市新店區民生路145巷9號","121.52905","24.9809816666667","6500600","新店區"
"231062","720-UM","2017/11/20 20:59:53","新北市新店區雙城路109號","121.492796666667","24.947865","6500600","新店區"
"231043","899-TW","2017/11/20 21:00:00","新北市新店區民族路188號","121.536866666667","24.9760283333333","6500600","新店區"
"231066","AKT-0513","2017/11/20 20:59:50","新北市新店區吉安街12巷8號","121.51698","24.9661033333333","6500600","新店區"
"241011","013-R5","2017/11/20 20:59:53","新北市三重區環河北路一段350號","121.502968333333","25.0725183333333","6500200","三重區"
"241028","022-UY","2017/11/20 20:59:51","新北市三重區新北大道一段1號","121.491408333333","25.0612716666667","6500200","三重區"
"241008","059-VK","2017/11/20 21:00:07","新北市三重區力行路二段160號","121.482666666667","25.0765166666667","6500200","三重區"
"241009","060-VK","2017/11/20 21:00:05","新北市三重區三和路四段360號","121.483296666667","25.0784683333333","6500200","三重區"
"241031","061-VK","2017/11/20 20:59:54","新北市三重區重陽路一段113巷3號","121.487548333333","25.0598483333333","6500200","三重區"
"241015","062-VK","2017/11/20 20:59:59","新北市三重區福德北路63號","121.502223333333","25.0655783333333","6500200","三重區"
"241017","063-VK","2017/11/20 20:59:50","新北市三重區自強路一段169號","121.493038333333","25.0673416666667","6500200","三重區"
"241024","065-VK","2017/11/20 20:59:59","新北市三重區大勇街82巷15弄30號","121.481245","25.07199","6500200","三重區"
"241026","066-VK","2017/11/20 20:59:50","新北市三重區文化南路43號","121.500206666667","25.0614583333333","6500200","三重區"
"241002","090-VK","2017/11/20 20:59:55","新北市三重區五華街7巷32號","121.49658","25.0808266666667","6500200","三重區"
"241005","262-UM","2017/11/20 21:00:06","新北市三重區五華街213號","121.489685","25.085745","6500200","三重區"
"241023","265-UM","2017/11/20 21:00:01","新北市三重區忠孝路三段50巷41弄64號","121.482398333333","25.063745","6500200","三重區"
"241016","266-UM","2017/11/20 20:59:55","新北市三重區正義北路176號","121.496513333333","25.066455","6500200","三重區"
"241022","267-UM","2017/11/20 20:59:54","新北市三重區中正北路20巷12號","121.487918333333","25.06249","6500200","三重區"
"241018","268-UM","2017/11/20 20:59:48","新北市三重區自強路一段157號","121.493418333333","25.067145","6500200","三重區"
"241032","269-UM","2017/11/20 21:00:07","新北市三重區興華街143巷1號","121.482835","25.0599983333333","6500200","三重區"
"241013","270-UM","2017/11/20 21:00:03","新北市三重區仁愛街131號","121.495615","25.0748716666667","6500200","三重區"
"241025","271-UM","2017/11/20 20:59:51","新北市三重區貴陽街14號","121.48421","25.061675","6500200","三重區"
"241007","398-BY","2017/11/20 20:59:51","新北市三重區三和路四段145巷82號","121.48639","25.078875","6500200","三重區"
"241020","413-TH","2017/11/20 21:00:04","新北市三重區忠孝路二段34號","121.48589","25.0709883333333","6500200","三重區"
"241004","475-VK","2017/11/20 21:00:06","新北市三重區仁愛街422巷1號","121.490141666667","25.0815583333333","6500200","三重區"
"241019","478-VK","2017/11/20 20:59:46","新北市三重區自強路二段74巷19號","121.488003333333","25.069945","6500200","三重區"
"241030","480-VK","2017/11/20 21:00:03","新北市三重區中正南路281號","121.492926666667","25.0523683333333","6500200","三重區"
"241014","543-UM","2017/11/20 21:00:09","新北市三重區長壽街120巷11號","121.502506666667","25.069035","6500200","三重區"
"241001","547-UM","2017/11/20 21:00:04","新北市三重區三和路四段118巷16號","121.48792","25.0745516666667","6500200","三重區"
"241006","AAD-863","2017/11/20 20:59:35","新北市三重區永福街58巷1弄4號","121.481328333333","25.0779266666667","6500200","三重區"
"241012","941-UM","2017/11/20 20:59:49","新北市三重區仁信街27號","121.501276666667","25.0755366666667","6500200","三重區"
"241029","942-UM","2017/11/20 20:59:55","新北市三重區正義南路107號","121.498215","25.0585383333333","6500200","三重區"
"241033","AAC-255","2017/11/20 21:00:02","新北市三重區光復路二段175號","121.472196666667","25.0613516666667","6500200","三重區"
"235050","4979-A6","2017/11/20 20:59:59","新北市中和區員山路36巷13號","121.484085","24.99135","6500300","中和區"
"235069","4980-A6","2017/11/20 20:59:50","新北市中和區員山路359巷1弄8號","121.480995","25.0016233333333","6500300","中和區"
"235026","800-TS","2017/11/20 20:25:15","新北市中和區員山路36巷16-3號","121.484775","24.9913383333333","6500300","中和區"
"247022","893-R6","2017/11/20 20:59:58","新北市蘆洲區中正路263巷2號","121.467268333333","25.0875566666667","6501400","蘆洲區"
"247012","546-UM","2017/11/20 20:59:48","新北市蘆洲區民權路6號","121.476988333333","25.0855016666667","6501400","蘆洲區"
"247020","500-BY","2017/11/20 21:00:05","新北市蘆洲區民族路371號","121.471075","25.0912383333333","6501400","蘆洲區"
"247004","402-BY","2017/11/20 20:59:48","新北市蘆洲區永安南路二段268號","121.458641666667","25.0807616666667","6501400","蘆洲區"
"247010","339-TH","2017/11/20 21:00:00","新北市蘆洲區鷺江街76號","121.477006666667","25.0837966666667","6501400","蘆洲區"
"247002","337-TH","2017/11/20 20:59:58","新北市蘆洲區永平街20號","121.459123333333","25.090645","6501400","蘆洲區"
"247016","057-VK","2017/11/20 20:59:55","新北市蘆洲區正和街84號","121.46831","25.0809183333333","6501400","蘆洲區"
"247006","056-VK","2017/11/20 20:59:55","新北市蘆洲區永安南路二段16巷18號","121.467996666667","25.0777633333333","6501400","蘆洲區"
"247008","053-VK","2017/11/20 21:00:05","新北市蘆洲區中山一路293-1號","121.471585","25.07922","6501400","蘆洲區"
"247014","007-UY","2017/11/20 21:00:02","新北市蘆洲區中山二路36巷6號","121.47449","25.08257","6501400","蘆洲區"
"247024","002-UY","2017/11/20 21:00:06","新北市蘆洲區長興路198號","121.460981666667","25.086795","6501400","蘆洲區"
"247018","001-UY","2017/11/20 21:00:06","新北市蘆洲區民權路132-2號","121.473215","25.088835","6501400","蘆洲區"
"251005","010-UM","2017/11/20 21:00:00","新北市淡水區鄧公路9號","121.448928333333","25.170605","6501000","淡水區"
"251002","012-UM","2017/11/20 21:00:02","新北市淡水區英專路111號","121.4458","25.17218","6501000","淡水區"
"251007","179-VK","2017/11/20 21:00:01","新北市淡水區水源街一段145號","121.447305","25.171865","6501000","淡水區"
"251013","182-VK","2017/11/20 20:59:57","新北市淡水區行忠路328號","121.460493333333","25.1996766666667","6501000","淡水區"
"251010","413-VK","2017/11/20 21:00:04","新北市淡水區淡海路22號","121.423948333333","25.1787316666667","6501000","淡水區"
"251012","441-VK","2017/11/20 20:59:50","新北市淡水區淡金路五段72號","121.454556666667","25.2335616666667","6501000","淡水區"
"251015","442-VK","2017/11/20 21:00:00","新北市淡水區興仁路162號","121.451591666667","25.2206366666667","6501000","淡水區"
"251001","559-UM","2017/11/20 20:59:58","新北市淡水區淡金路二段147號","121.449588333333","25.1829183333333","6501000","淡水區"
"251011","650-BX","2017/11/20 21:00:06","新北市淡水區新春街1號","121.435776666667","25.181175","6501000","淡水區"
"251003","766-UM","2017/11/20 21:00:04","新北市淡水區新春街146-9號","121.442413333333","25.1812566666667","6501000","淡水區"
"236001","339-SR","2017/11/20 11:11:06","新北市土城區永平街51號","121.427635","24.9592283333333","6501300","土城區"
"242029","986-R7","2017/11/20 21:00:04","新北市新莊區昌隆街3巷1弄2號","121.454066666667","25.0513866666667","6500500","新莊區"
"242050","751-BX","2017/11/20 20:59:51","新北市新莊區新樹路210號","121.433718333333","25.0203533333333","6500500","新莊區"
"242048","441-UM","2017/11/20 21:00:07","新北市新莊區新樹路334號","121.433073333333","25.0038116666667","6500500","新莊區"
"242036","133-UY","2017/11/20 20:59:57","新北市新莊區新莊路664-1號","121.44223","25.032675","6500500","新莊區"
"221027","281-BY","2017/11/20 20:59:53","新北市汐止區汐萬路一段256巷3號","121.652341666667","25.0746966666667","6501100","汐止區"
"221029","298-VK","2017/11/20 20:59:47","新北市汐止區康寧街901號","121.651665","25.07496","6501100","汐止區"
"221031","353-TW","2017/11/20 20:59:55","新北市汐止區汐萬路一段256巷1號","121.65173","25.0748866666667","6501100","汐止區"
"221038","646-BX","2017/11/20 21:00:03","新北市汐止區汐萬路一段256巷1號","121.652036666667","25.0748183333333","6501100","汐止區"
"220070","AAC-253","2017/11/20 21:00:04","新北市林口區汕頭32號","121.36639","25.1346333333333","6500100","板橋區"
